{
   "plus_code" : {
      "compound_code" : "V7J5+93 Pendik/İstanbul, Turkey",
      "global_code" : "8GGFV7J5+93"
   },
   "results" : [
      {
         "address_components" : [
            {
               "long_name" : "46",
               "short_name" : "46",
               "types" : [ "street_number" ]
            },
            {
               "long_name" : "Tevfik İleri Caddesi",
               "short_name" : "Tevfik İleri Cd",
               "types" : [ "route" ]
            },
            {
               "long_name" : "Fevzi Çakmak",
               "short_name" : "Fevzi Çakmak",
               "types" : [ "administrative_area_level_4", "political" ]
            },
            {
               "long_name" : "Pendik",
               "short_name" : "Pendik",
               "types" : [ "administrative_area_level_2", "political" ]
            },
            {
               "long_name" : "İstanbul",
               "short_name" : "İstanbul",
               "types" : [ "administrative_area_level_1", "political" ]
            },
            {
               "long_name" : "Turkey",
               "short_name" : "TR",
               "types" : [ "country", "political" ]
            },
            {
               "long_name" : "34899",
               "short_name" : "34899",
               "types" : [ "postal_code" ]
            }
         ],
         "formatted_address" : "Fevzi Çakmak, Tevfik İleri Cd No:46, 34899 Pendik/İstanbul, Turkey",
         "geometry" : {
            "location" : {
               "lat" : 40.881018,
               "lng" : 29.2575978
            },
            "location_type" : "RANGE_INTERPOLATED",
            "viewport" : {
               "northeast" : {
                  "lat" : 40.8823669802915,
                  "lng" : 29.2589467802915
               },
               "southwest" : {
                  "lat" : 40.8796690197085,
                  "lng" : 29.2562488197085
               }
            }
         },
         "place_id" : "EkVGZXZ6aSDDh2FrbWFrLCBUZXZmaWsgxLBsZXJpIENkIE5vOjQ2LCAzNDg5OSBQZW5kaWsvxLBzdGFuYnVsLCBUdXJrZXkiGhIYChQKEgkN_dMzYNvKFBFsA0Zp73XjRBAu",
         "types" : [ "street_address" ]
      },
      {
         "address_components" : [
            {
               "long_name" : "46",
               "short_name" : "46",
               "types" : [ "street_number" ]
            },
            {
               "long_name" : "Tevfik İleri Caddesi",
               "short_name" : "Tevfik İleri Cd",
               "types" : [ "route" ]
            },
            {
               "long_name" : "Fevzi Çakmak",
               "short_name" : "Fevzi Çakmak",
               "types" : [ "administrative_area_level_4", "political" ]
            },
            {
               "long_name" : "Pendik",
               "short_name" : "Pendik",
               "types" : [ "administrative_area_level_2", "political" ]
            },
            {
               "long_name" : "İstanbul",
               "short_name" : "İstanbul",
               "types" : [ "administrative_area_level_1", "political" ]
            },
            {
               "long_name" : "Turkey",
               "short_name" : "TR",
               "types" : [ "country", "political" ]
            },
            {
               "long_name" : "34899",
               "short_name" : "34899",
               "types" : [ "postal_code" ]
            }
         ],
         "formatted_address" : "Fevzi Çakmak, Tevfik İleri Cd No:46, 34899 Pendik/İstanbul, Turkey",
         "geometry" : {
            "bounds" : {
               "northeast" : {
                  "lat" : 40.881018,
                  "lng" : 29.2581626
               },
               "southwest" : {
                  "lat" : 40.8809017,
                  "lng" : 29.2575978
               }
            },
            "location" : {
               "lat" : 40.8809599,
               "lng" : 29.2578802
            },
            "location_type" : "GEOMETRIC_CENTER",
            "viewport" : {
               "northeast" : {
                  "lat" : 40.88230883029149,
                  "lng" : 29.25922918029149
               },
               "southwest" : {
                  "lat" : 40.8796108697085,
                  "lng" : 29.2565312197085
               }
            }
         },
         "place_id" : "ChIJDf3TM2DbyhQRbANGae9140Q",
         "types" : [ "route" ]
      },
      {
         "address_components" : [
            {
               "long_name" : "V7J5+93",
               "short_name" : "V7J5+93",
               "types" : [ "plus_code" ]
            },
            {
               "long_name" : "Pendik",
               "short_name" : "Pendik",
               "types" : [ "administrative_area_level_2", "political" ]
            },
            {
               "long_name" : "İstanbul",
               "short_name" : "İstanbul",
               "types" : [ "administrative_area_level_1", "political" ]
            },
            {
               "long_name" : "Turkey",
               "short_name" : "TR",
               "types" : [ "country", "political" ]
            }
         ],
         "formatted_address" : "V7J5+93 Pendik/İstanbul, Turkey",
         "geometry" : {
            "bounds" : {
               "northeast" : {
                  "lat" : 40.881,
                  "lng" : 29.25774999999999
               },
               "southwest" : {
                  "lat" : 40.880875,
                  "lng" : 29.257625
               }
            },
            "location" : {
               "lat" : 40.88094470000001,
               "lng" : 29.257742
            },
            "location_type" : "ROOFTOP",
            "viewport" : {
               "northeast" : {
                  "lat" : 40.88228648029149,
                  "lng" : 29.2590364802915
               },
               "southwest" : {
                  "lat" : 40.87958851970849,
                  "lng" : 29.2563385197085
               }
            }
         },
         "place_id" : "GhIJ0wrCy8JwREARPs40YftBPUA",
         "plus_code" : {
            "compound_code" : "V7J5+93 Pendik/İstanbul, Turkey",
            "global_code" : "8GGFV7J5+93"
         },
         "types" : [ "plus_code" ]
      },
      {
         "address_components" : [
            {
               "long_name" : "Fevzi Çakmak",
               "short_name" : "Fevzi Çakmak",
               "types" : [ "administrative_area_level_4", "political" ]
            },
            {
               "long_name" : "Pendik",
               "short_name" : "Pendik",
               "types" : [ "administrative_area_level_2", "political" ]
            },
            {
               "long_name" : "İstanbul",
               "short_name" : "İstanbul",
               "types" : [ "administrative_area_level_1", "political" ]
            },
            {
               "long_name" : "Turkey",
               "short_name" : "TR",
               "types" : [ "country", "political" ]
            },
            {
               "long_name" : "34899",
               "short_name" : "34899",
               "types" : [ "postal_code" ]
            }
         ],
         "formatted_address" : "Fevzi Çakmak, 34899 Pendik/İstanbul, Turkey",
         "geometry" : {
            "bounds" : {
               "northeast" : {
                  "lat" : 40.891564,
                  "lng" : 29.2713639
               },
               "southwest" : {
                  "lat" : 40.872663,
                  "lng" : 29.252312
               }
            },
            "location" : {
               "lat" : 40.8854629,
               "lng" : 29.2640387
            },
            "location_type" : "APPROXIMATE",
            "viewport" : {
               "northeast" : {
                  "lat" : 40.891564,
                  "lng" : 29.2713639
               },
               "southwest" : {
                  "lat" : 40.872663,
                  "lng" : 29.252312
               }
            }
         },
         "place_id" : "ChIJLYfH2mPbyhQReOyYSbhLnRU",
         "types" : [ "administrative_area_level_4", "political" ]
      },
      {
         "address_components" : [
            {
               "long_name" : "34899",
               "short_name" : "34899",
               "types" : [ "postal_code" ]
            },
            {
               "long_name" : "Pendik",
               "short_name" : "Pendik",
               "types" : [ "administrative_area_level_2", "political" ]
            },
            {
               "long_name" : "İstanbul",
               "short_name" : "İstanbul",
               "types" : [ "administrative_area_level_1", "political" ]
            },
            {
               "long_name" : "Turkey",
               "short_name" : "TR",
               "types" : [ "country", "political" ]
            }
         ],
         "formatted_address" : "34899 Pendik/İstanbul, Turkey",
         "geometry" : {
            "bounds" : {
               "northeast" : {
                  "lat" : 40.891564,
                  "lng" : 29.2713639
               },
               "southwest" : {
                  "lat" : 40.872663,
                  "lng" : 29.252312
               }
            },
            "location" : {
               "lat" : 40.8854629,
               "lng" : 29.2640387
            },
            "location_type" : "APPROXIMATE",
            "viewport" : {
               "northeast" : {
                  "lat" : 40.891564,
                  "lng" : 29.2713639
               },
               "southwest" : {
                  "lat" : 40.872663,
                  "lng" : 29.252312
               }
            }
         },
         "place_id" : "ChIJ7SjM2mPbyhQRcY8rWOWUyIk",
         "types" : [ "postal_code" ]
      },
      {
         "address_components" : [
            {
               "long_name" : "Pendik",
               "short_name" : "Pendik",
               "types" : [ "administrative_area_level_2", "political" ]
            },
            {
               "long_name" : "İstanbul",
               "short_name" : "İstanbul",
               "types" : [ "administrative_area_level_1", "political" ]
            },
            {
               "long_name" : "Turkey",
               "short_name" : "TR",
               "types" : [ "country", "political" ]
            }
         ],
         "formatted_address" : "Pendik/İstanbul, Turkey",
         "geometry" : {
            "bounds" : {
               "northeast" : {
                  "lat" : 41.036047,
                  "lng" : 29.50651
               },
               "southwest" : {
                  "lat" : 40.853817,
                  "lng" : 29.215418
               }
            },
            "location" : {
               "lat" : 40.88094470000001,
               "lng" : 29.257742
            },
            "location_type" : "APPROXIMATE",
            "viewport" : {
               "northeast" : {
                  "lat" : 41.036047,
                  "lng" : 29.50651
               },
               "southwest" : {
                  "lat" : 40.853817,
                  "lng" : 29.215418
               }
            }
         },
         "place_id" : "ChIJ4wVn0g_XyhQR6oyxp4HC1Ms",
         "types" : [ "administrative_area_level_2", "political" ]
      },
      {
         "address_components" : [
            {
               "long_name" : "Anatolian Side",
               "short_name" : "Anatolian Side",
               "types" : [ "neighborhood", "political" ]
            },
            {
               "long_name" : "İstanbul",
               "short_name" : "İstanbul",
               "types" : [ "administrative_area_level_1", "political" ]
            },
            {
               "long_name" : "Turkey",
               "short_name" : "TR",
               "types" : [ "country", "political" ]
            }
         ],
         "formatted_address" : "Anatolian Side, İstanbul, Turkey",
         "geometry" : {
            "bounds" : {
               "northeast" : {
                  "lat" : 41.173419,
                  "lng" : 29.4288049
               },
               "southwest" : {
                  "lat" : 40.811404,
                  "lng" : 29.006362
               }
            },
            "location" : {
               "lat" : 40.9815089,
               "lng" : 29.0947502
            },
            "location_type" : "APPROXIMATE",
            "viewport" : {
               "northeast" : {
                  "lat" : 41.173419,
                  "lng" : 29.4288049
               },
               "southwest" : {
                  "lat" : 40.811404,
                  "lng" : 29.006362
               }
            }
         },
         "place_id" : "ChIJ24figCrGyhQR6m5IK44mNVI",
         "types" : [ "neighborhood", "political" ]
      },
      {
         "address_components" : [
            {
               "long_name" : "İstanbul",
               "short_name" : "İstanbul",
               "types" : [ "locality", "political" ]
            },
            {
               "long_name" : "İstanbul",
               "short_name" : "İstanbul",
               "types" : [ "administrative_area_level_1", "political" ]
            },
            {
               "long_name" : "Turkey",
               "short_name" : "TR",
               "types" : [ "country", "political" ]
            }
         ],
         "formatted_address" : "İstanbul, Turkey",
         "geometry" : {
            "bounds" : {
               "northeast" : {
                  "lat" : 41.199239,
                  "lng" : 29.4288049
               },
               "southwest" : {
                  "lat" : 40.811404,
                  "lng" : 28.595554
               }
            },
            "location" : {
               "lat" : 41.0082376,
               "lng" : 28.9783589
            },
            "location_type" : "APPROXIMATE",
            "viewport" : {
               "northeast" : {
                  "lat" : 41.199239,
                  "lng" : 29.4288049
               },
               "southwest" : {
                  "lat" : 40.811404,
                  "lng" : 28.595554
               }
            }
         },
         "place_id" : "ChIJawhoAASnyhQR0LABvJj-zOE",
         "types" : [ "locality", "political" ]
      },
      {
         "address_components" : [
            {
               "long_name" : "İstanbul",
               "short_name" : "İstanbul",
               "types" : [ "administrative_area_level_1", "political" ]
            },
            {
               "long_name" : "Turkey",
               "short_name" : "TR",
               "types" : [ "country", "political" ]
            }
         ],
         "formatted_address" : "İstanbul, Turkey",
         "geometry" : {
            "bounds" : {
               "northeast" : {
                  "lat" : 41.58461,
                  "lng" : 29.915705
               },
               "southwest" : {
                  "lat" : 40.8026889,
                  "lng" : 27.971373
               }
            },
            "location" : {
               "lat" : 41.1634302,
               "lng" : 28.7664408
            },
            "location_type" : "APPROXIMATE",
            "viewport" : {
               "northeast" : {
                  "lat" : 41.58461,
                  "lng" : 29.915705
               },
               "southwest" : {
                  "lat" : 40.8026889,
                  "lng" : 27.971373
               }
            }
         },
         "place_id" : "ChIJexVgWlG2yhQR6B1akfSarCI",
         "types" : [ "administrative_area_level_1", "political" ]
      },
      {
         "address_components" : [
            {
               "long_name" : "Turkey",
               "short_name" : "TR",
               "types" : [ "country", "political" ]
            }
         ],
         "formatted_address" : "Turkey",
         "geometry" : {
            "bounds" : {
               "northeast" : {
                  "lat" : 42.3666999,
                  "lng" : 44.8178449
               },
               "southwest" : {
                  "lat" : 35.808592,
                  "lng" : 25.5377
               }
            },
            "location" : {
               "lat" : 38.963745,
               "lng" : 35.243322
            },
            "location_type" : "APPROXIMATE",
            "viewport" : {
               "northeast" : {
                  "lat" : 42.3666999,
                  "lng" : 44.8178449
               },
               "southwest" : {
                  "lat" : 35.808592,
                  "lng" : 25.5377
               }
            }
         },
         "place_id" : "ChIJcSZPllwVsBQRKl9iKtTb2UA",
         "types" : [ "country", "political" ]
      }
   ],
   "status" : "OK"
}
