{
   "plus_code" : {
      "compound_code" : "W6F6+X9Q Bağlar/Diyarbakır, Turkey",
      "global_code" : "8H92W6F6+X9Q"
   },
   "results" : [
      {
         "address_components" : [
            {
               "long_name" : "W6F6+X9",
               "short_name" : "W6F6+X9",
               "types" : [ "plus_code" ]
            },
            {
               "long_name" : "Bağlar",
               "short_name" : "Bağlar",
               "types" : [ "administrative_area_level_2", "political" ]
            },
            {
               "long_name" : "Diyarbakır",
               "short_name" : "Diyarbakır",
               "types" : [ "administrative_area_level_1", "political" ]
            },
            {
               "long_name" : "Turkey",
               "short_name" : "TR",
               "types" : [ "country", "political" ]
            }
         ],
         "formatted_address" : "W6F6+X9 Bağlar/Diyarbakır, Turkey",
         "geometry" : {
            "bounds" : {
               "northeast" : {
                  "lat" : 37.925,
                  "lng" : 40.211
               },
               "southwest" : {
                  "lat" : 37.924875,
                  "lng" : 40.210875
               }
            },
            "location" : {
               "lat" : 37.9249734,
               "lng" : 40.2109826
            },
            "location_type" : "GEOMETRIC_CENTER",
            "viewport" : {
               "northeast" : {
                  "lat" : 37.9262864802915,
                  "lng" : 40.2122864802915
               },
               "southwest" : {
                  "lat" : 37.9235885197085,
                  "lng" : 40.2095885197085
               }
            }
         },
         "place_id" : "GhIJwFVDh2X2QkARNYNTegEbREA",
         "plus_code" : {
            "compound_code" : "W6F6+X9 Bağlar/Diyarbakır, Turkey",
            "global_code" : "8H92W6F6+X9"
         },
         "types" : [ "plus_code" ]
      },
      {
         "address_components" : [
            {
               "long_name" : "Nükhet Coşkun Caddesi",
               "short_name" : "Nükhet Coşkun Cd.",
               "types" : [ "route" ]
            },
            {
               "long_name" : "Kaynartepe",
               "short_name" : "Kaynartepe",
               "types" : [ "administrative_area_level_4", "political" ]
            },
            {
               "long_name" : "Bağlar",
               "short_name" : "Bağlar",
               "types" : [ "administrative_area_level_2", "political" ]
            },
            {
               "long_name" : "Diyarbakır",
               "short_name" : "Diyarbakır",
               "types" : [ "administrative_area_level_1", "political" ]
            },
            {
               "long_name" : "Turkey",
               "short_name" : "TR",
               "types" : [ "country", "political" ]
            },
            {
               "long_name" : "21080",
               "short_name" : "21080",
               "types" : [ "postal_code" ]
            }
         ],
         "formatted_address" : "Kaynartepe, Nükhet Coşkun Cd., 21080 Bağlar/Diyarbakır, Turkey",
         "geometry" : {
            "bounds" : {
               "northeast" : {
                  "lat" : 37.9249842,
                  "lng" : 40.2108461
               },
               "southwest" : {
                  "lat" : 37.9246426,
                  "lng" : 40.21069620000001
               }
            },
            "location" : {
               "lat" : 37.9248134,
               "lng" : 40.2107711
            },
            "location_type" : "GEOMETRIC_CENTER",
            "viewport" : {
               "northeast" : {
                  "lat" : 37.92616238029149,
                  "lng" : 40.2121201302915
               },
               "southwest" : {
                  "lat" : 37.92346441970849,
                  "lng" : 40.2094221697085
               }
            }
         },
         "place_id" : "ChIJi7fB9Y4fdUAR8txusAUF3Q4",
         "types" : [ "route" ]
      },
      {
         "address_components" : [
            {
               "long_name" : "Mevlana Halit",
               "short_name" : "Mevlana Halit",
               "types" : [ "administrative_area_level_4", "political" ]
            },
            {
               "long_name" : "Bağlar",
               "short_name" : "Bağlar",
               "types" : [ "administrative_area_level_2", "political" ]
            },
            {
               "long_name" : "Diyarbakır",
               "short_name" : "Diyarbakır",
               "types" : [ "administrative_area_level_1", "political" ]
            },
            {
               "long_name" : "Turkey",
               "short_name" : "TR",
               "types" : [ "country", "political" ]
            },
            {
               "long_name" : "21080",
               "short_name" : "21080",
               "types" : [ "postal_code" ]
            }
         ],
         "formatted_address" : "Mevlana Halit, 21080 Bağlar/Diyarbakır, Turkey",
         "geometry" : {
            "bounds" : {
               "northeast" : {
                  "lat" : 37.933641,
                  "lng" : 40.212066
               },
               "southwest" : {
                  "lat" : 37.923536,
                  "lng" : 40.1902999
               }
            },
            "location" : {
               "lat" : 37.9287487,
               "lng" : 40.2019527
            },
            "location_type" : "APPROXIMATE",
            "viewport" : {
               "northeast" : {
                  "lat" : 37.933641,
                  "lng" : 40.212066
               },
               "southwest" : {
                  "lat" : 37.923536,
                  "lng" : 40.1902999
               }
            }
         },
         "place_id" : "ChIJTS_O6JYfdUARaAK-1h30yrA",
         "types" : [ "administrative_area_level_4", "political" ]
      },
      {
         "address_components" : [
            {
               "long_name" : "21080",
               "short_name" : "21080",
               "types" : [ "postal_code" ]
            },
            {
               "long_name" : "Bağlar",
               "short_name" : "Bağlar",
               "types" : [ "administrative_area_level_2", "political" ]
            },
            {
               "long_name" : "Diyarbakır",
               "short_name" : "Diyarbakır",
               "types" : [ "administrative_area_level_1", "political" ]
            },
            {
               "long_name" : "Turkey",
               "short_name" : "TR",
               "types" : [ "country", "political" ]
            }
         ],
         "formatted_address" : "21080 Bağlar/Diyarbakır, Turkey",
         "geometry" : {
            "bounds" : {
               "northeast" : {
                  "lat" : 37.933641,
                  "lng" : 40.212066
               },
               "southwest" : {
                  "lat" : 37.923536,
                  "lng" : 40.1902999
               }
            },
            "location" : {
               "lat" : 37.9287487,
               "lng" : 40.2019527
            },
            "location_type" : "APPROXIMATE",
            "viewport" : {
               "northeast" : {
                  "lat" : 37.933641,
                  "lng" : 40.212066
               },
               "southwest" : {
                  "lat" : 37.923536,
                  "lng" : 40.1902999
               }
            }
         },
         "place_id" : "ChIJY3DP6JYfdUARaSv6sbb2mfw",
         "types" : [ "postal_code" ]
      },
      {
         "address_components" : [
            {
               "long_name" : "Diyarbakır",
               "short_name" : "Diyarbakır",
               "types" : [ "locality", "political" ]
            },
            {
               "long_name" : "Diyarbakır",
               "short_name" : "Diyarbakır",
               "types" : [ "administrative_area_level_1", "political" ]
            },
            {
               "long_name" : "Turkey",
               "short_name" : "TR",
               "types" : [ "country", "political" ]
            }
         ],
         "formatted_address" : "Diyarbakır, Turkey",
         "geometry" : {
            "bounds" : {
               "northeast" : {
                  "lat" : 37.979755,
                  "lng" : 40.24692
               },
               "southwest" : {
                  "lat" : 37.8658299,
                  "lng" : 40.0784359
               }
            },
            "location" : {
               "lat" : 37.9249733,
               "lng" : 40.2109826
            },
            "location_type" : "APPROXIMATE",
            "viewport" : {
               "northeast" : {
                  "lat" : 37.979755,
                  "lng" : 40.24692
               },
               "southwest" : {
                  "lat" : 37.8658299,
                  "lng" : 40.0784359
               }
            }
         },
         "place_id" : "ChIJa8S6CqgfdUARLIUQkycMB1M",
         "types" : [ "locality", "political" ]
      },
      {
         "address_components" : [
            {
               "long_name" : "Bağlar",
               "short_name" : "Bağlar",
               "types" : [ "administrative_area_level_2", "political" ]
            },
            {
               "long_name" : "Diyarbakır",
               "short_name" : "Diyarbakır",
               "types" : [ "administrative_area_level_1", "political" ]
            },
            {
               "long_name" : "Turkey",
               "short_name" : "TR",
               "types" : [ "country", "political" ]
            }
         ],
         "formatted_address" : "Bağlar/Diyarbakır, Turkey",
         "geometry" : {
            "bounds" : {
               "northeast" : {
                  "lat" : 37.9363389,
                  "lng" : 40.25462
               },
               "southwest" : {
                  "lat" : 37.681747,
                  "lng" : 39.794976
               }
            },
            "location" : {
               "lat" : 37.8436421,
               "lng" : 39.9767001
            },
            "location_type" : "APPROXIMATE",
            "viewport" : {
               "northeast" : {
                  "lat" : 37.9363389,
                  "lng" : 40.25462
               },
               "southwest" : {
                  "lat" : 37.681747,
                  "lng" : 39.794976
               }
            }
         },
         "place_id" : "ChIJuZ19jD4WdUARRGKZWf7VNXw",
         "types" : [ "administrative_area_level_2", "political" ]
      },
      {
         "address_components" : [
            {
               "long_name" : "Diyarbakır",
               "short_name" : "Diyarbakır",
               "types" : [ "administrative_area_level_1", "political" ]
            },
            {
               "long_name" : "Turkey",
               "short_name" : "TR",
               "types" : [ "country", "political" ]
            }
         ],
         "formatted_address" : "Diyarbakır, Turkey",
         "geometry" : {
            "bounds" : {
               "northeast" : {
                  "lat" : 38.73574,
                  "lng" : 41.3753109
               },
               "southwest" : {
                  "lat" : 37.511231,
                  "lng" : 39.1056031
               }
            },
            "location" : {
               "lat" : 38.1066372,
               "lng" : 40.5426896
            },
            "location_type" : "APPROXIMATE",
            "viewport" : {
               "northeast" : {
                  "lat" : 38.73574,
                  "lng" : 41.3753109
               },
               "southwest" : {
                  "lat" : 37.511231,
                  "lng" : 39.1056031
               }
            }
         },
         "place_id" : "ChIJKYdkxsTtdEAR9PirLj3SNLE",
         "types" : [ "administrative_area_level_1", "political" ]
      },
      {
         "address_components" : [
            {
               "long_name" : "Turkey",
               "short_name" : "TR",
               "types" : [ "country", "political" ]
            }
         ],
         "formatted_address" : "Turkey",
         "geometry" : {
            "bounds" : {
               "northeast" : {
                  "lat" : 42.3666999,
                  "lng" : 44.8178449
               },
               "southwest" : {
                  "lat" : 35.808592,
                  "lng" : 25.5377
               }
            },
            "location" : {
               "lat" : 38.963745,
               "lng" : 35.243322
            },
            "location_type" : "APPROXIMATE",
            "viewport" : {
               "northeast" : {
                  "lat" : 42.3666999,
                  "lng" : 44.8178449
               },
               "southwest" : {
                  "lat" : 35.808592,
                  "lng" : 25.5377
               }
            }
         },
         "place_id" : "ChIJcSZPllwVsBQRKl9iKtTb2UA",
         "types" : [ "country", "political" ]
      }
   ],
   "status" : "OK"
}
