{
   "plus_code" : {
      "compound_code" : "4XVH+2P Bilecik Merkez/Bilecik, Turkey",
      "global_code" : "8GGF4XVH+2P"
   },
   "results" : [
      {
         "address_components" : [
            {
               "long_name" : "Bilecik Merkez",
               "short_name" : "Bilecik Merkez",
               "types" : [ "administrative_area_level_2", "political" ]
            },
            {
               "long_name" : "Gazipaşa",
               "short_name" : "Gazipaşa",
               "types" : [ "administrative_area_level_4", "political" ]
            },
            {
               "long_name" : "Bilecik",
               "short_name" : "Bilecik",
               "types" : [ "administrative_area_level_1", "political" ]
            },
            {
               "long_name" : "Turkey",
               "short_name" : "TR",
               "types" : [ "country", "political" ]
            },
            {
               "long_name" : "11000",
               "short_name" : "11000",
               "types" : [ "postal_code" ]
            }
         ],
         "formatted_address" : "Istiklal mahallesi Tevfikbey caddesi Dindar pasajı kat 2 Merkez, Gazipaşa, 11000 Bilecik Merkez/Bilecik, Turkey",
         "geometry" : {
            "location" : {
               "lat" : 40.142573,
               "lng" : 29.97933
            },
            "location_type" : "GEOMETRIC_CENTER",
            "viewport" : {
               "northeast" : {
                  "lat" : 40.14392198029149,
                  "lng" : 29.98067898029149
               },
               "southwest" : {
                  "lat" : 40.1412240197085,
                  "lng" : 29.9779810197085
               }
            }
         },
         "place_id" : "ChIJzXeG--OPyxQR51s0x0y_4wA",
         "plus_code" : {
            "compound_code" : "4XVH+2P Bilecik Merkez/Bilecik, Turkey",
            "global_code" : "8GGF4XVH+2P"
         },
         "types" : [ "establishment", "point_of_interest" ]
      },
      {
         "address_components" : [
            {
               "long_name" : "15",
               "short_name" : "15",
               "types" : [ "street_number" ]
            },
            {
               "long_name" : "Atatürk Bulvarı",
               "short_name" : "Atatürk Blv.",
               "types" : [ "route" ]
            },
            {
               "long_name" : "Gazipaşa",
               "short_name" : "Gazipaşa",
               "types" : [ "administrative_area_level_4", "political" ]
            },
            {
               "long_name" : "Bilecik Merkez",
               "short_name" : "Bilecik Merkez",
               "types" : [ "administrative_area_level_2", "political" ]
            },
            {
               "long_name" : "Bilecik",
               "short_name" : "Bilecik",
               "types" : [ "administrative_area_level_1", "political" ]
            },
            {
               "long_name" : "Turkey",
               "short_name" : "TR",
               "types" : [ "country", "political" ]
            },
            {
               "long_name" : "11000",
               "short_name" : "11000",
               "types" : [ "postal_code" ]
            }
         ],
         "formatted_address" : "Gazipaşa, Atatürk Blv. No:15, 11000 Bilecik Merkez/Bilecik, Turkey",
         "geometry" : {
            "location" : {
               "lat" : 40.142639,
               "lng" : 29.979115
            },
            "location_type" : "ROOFTOP",
            "viewport" : {
               "northeast" : {
                  "lat" : 40.14398798029151,
                  "lng" : 29.9804639802915
               },
               "southwest" : {
                  "lat" : 40.14129001970851,
                  "lng" : 29.9777660197085
               }
            }
         },
         "place_id" : "ChIJGzhT--OPyxQRHQYg2CaFomo",
         "plus_code" : {
            "compound_code" : "4XVH+3J Bilecik Merkez/Bilecik, Turkey",
            "global_code" : "8GGF4XVH+3J"
         },
         "types" : [ "street_address" ]
      },
      {
         "address_components" : [
            {
               "long_name" : "10",
               "short_name" : "10",
               "types" : [ "street_number" ]
            },
            {
               "long_name" : "Atatürk Bulvarı",
               "short_name" : "Atatürk Blv.",
               "types" : [ "route" ]
            },
            {
               "long_name" : "Gazipaşa",
               "short_name" : "Gazipaşa",
               "types" : [ "administrative_area_level_4", "political" ]
            },
            {
               "long_name" : "Bilecik Merkez",
               "short_name" : "Bilecik Merkez",
               "types" : [ "administrative_area_level_2", "political" ]
            },
            {
               "long_name" : "Bilecik",
               "short_name" : "Bilecik",
               "types" : [ "administrative_area_level_1", "political" ]
            },
            {
               "long_name" : "Turkey",
               "short_name" : "TR",
               "types" : [ "country", "political" ]
            },
            {
               "long_name" : "11000",
               "short_name" : "11000",
               "types" : [ "postal_code" ]
            }
         ],
         "formatted_address" : "Gazipaşa, Atatürk Blv. No:10, 11000 Bilecik Merkez/Bilecik, Turkey",
         "geometry" : {
            "location" : {
               "lat" : 40.1425397,
               "lng" : 29.9794112
            },
            "location_type" : "RANGE_INTERPOLATED",
            "viewport" : {
               "northeast" : {
                  "lat" : 40.1438886802915,
                  "lng" : 29.9807601802915
               },
               "southwest" : {
                  "lat" : 40.1411907197085,
                  "lng" : 29.9780622197085
               }
            }
         },
         "place_id" : "EkRHYXppcGHFn2EsIEF0YXTDvHJrIEJsdi4gTm86MTAsIDExMDAwIEJpbGVjaWsgTWVya2V6L0JpbGVjaWssIFR1cmtleSIaEhgKFAoSCf1N6_vjj8sUERowIZpHhLILEAo",
         "types" : [ "street_address" ]
      },
      {
         "address_components" : [
            {
               "long_name" : "4XVH+2P",
               "short_name" : "4XVH+2P",
               "types" : [ "plus_code" ]
            },
            {
               "long_name" : "Bilecik Merkez",
               "short_name" : "Bilecik Merkez",
               "types" : [ "administrative_area_level_2", "political" ]
            },
            {
               "long_name" : "Bilecik",
               "short_name" : "Bilecik",
               "types" : [ "administrative_area_level_1", "political" ]
            },
            {
               "long_name" : "Turkey",
               "short_name" : "TR",
               "types" : [ "country", "political" ]
            }
         ],
         "formatted_address" : "4XVH+2P Bilecik Merkez/Bilecik, Turkey",
         "geometry" : {
            "bounds" : {
               "northeast" : {
                  "lat" : 40.142625,
                  "lng" : 29.979375
               },
               "southwest" : {
                  "lat" : 40.1425,
                  "lng" : 29.97925
               }
            },
            "location" : {
               "lat" : 40.142573,
               "lng" : 29.97933
            },
            "location_type" : "ROOFTOP",
            "viewport" : {
               "northeast" : {
                  "lat" : 40.14391148029149,
                  "lng" : 29.9806614802915
               },
               "southwest" : {
                  "lat" : 40.14121351970849,
                  "lng" : 29.9779635197085
               }
            }
         },
         "place_id" : "GhIJdCUC1T8SREAR3v3xXrX6PUA",
         "plus_code" : {
            "compound_code" : "4XVH+2P Bilecik Merkez/Bilecik, Turkey",
            "global_code" : "8GGF4XVH+2P"
         },
         "types" : [ "plus_code" ]
      },
      {
         "address_components" : [
            {
               "long_name" : "Dedeoğlu Caddesi",
               "short_name" : "Dedeoğlu Cd.",
               "types" : [ "route" ]
            },
            {
               "long_name" : "Gazipaşa",
               "short_name" : "Gazipaşa",
               "types" : [ "administrative_area_level_4", "political" ]
            },
            {
               "long_name" : "Bilecik Merkez",
               "short_name" : "Bilecik Merkez",
               "types" : [ "administrative_area_level_2", "political" ]
            },
            {
               "long_name" : "Bilecik",
               "short_name" : "Bilecik",
               "types" : [ "administrative_area_level_1", "political" ]
            },
            {
               "long_name" : "Turkey",
               "short_name" : "TR",
               "types" : [ "country", "political" ]
            },
            {
               "long_name" : "11000",
               "short_name" : "11000",
               "types" : [ "postal_code" ]
            }
         ],
         "formatted_address" : "Gazipaşa, Dedeoğlu Cd., 11000 Bilecik Merkez/Bilecik, Turkey",
         "geometry" : {
            "bounds" : {
               "northeast" : {
                  "lat" : 40.1425397,
                  "lng" : 29.9794112
               },
               "southwest" : {
                  "lat" : 40.1424998,
                  "lng" : 29.9792317
               }
            },
            "location" : {
               "lat" : 40.1425198,
               "lng" : 29.9793214
            },
            "location_type" : "GEOMETRIC_CENTER",
            "viewport" : {
               "northeast" : {
                  "lat" : 40.14386873029149,
                  "lng" : 29.9806704302915
               },
               "southwest" : {
                  "lat" : 40.1411707697085,
                  "lng" : 29.9779724697085
               }
            }
         },
         "place_id" : "ChIJudd2_OOPyxQRolK8TBCMXu4",
         "types" : [ "route" ]
      },
      {
         "address_components" : [
            {
               "long_name" : "11000",
               "short_name" : "11000",
               "types" : [ "postal_code" ]
            },
            {
               "long_name" : "Gazipaşa",
               "short_name" : "Gazipaşa",
               "types" : [ "administrative_area_level_4", "political" ]
            },
            {
               "long_name" : "Bilecik Merkez",
               "short_name" : "Bilecik Merkez",
               "types" : [ "administrative_area_level_2", "political" ]
            },
            {
               "long_name" : "Bilecik",
               "short_name" : "Bilecik",
               "types" : [ "administrative_area_level_1", "political" ]
            },
            {
               "long_name" : "Turkey",
               "short_name" : "TR",
               "types" : [ "country", "political" ]
            }
         ],
         "formatted_address" : "Gazipaşa, 11000 Bilecik Merkez/Bilecik, Turkey",
         "geometry" : {
            "bounds" : {
               "northeast" : {
                  "lat" : 40.1444058,
                  "lng" : 29.981312
               },
               "southwest" : {
                  "lat" : 40.138177,
                  "lng" : 29.973917
               }
            },
            "location" : {
               "lat" : 40.1409831,
               "lng" : 29.9776667
            },
            "location_type" : "APPROXIMATE",
            "viewport" : {
               "northeast" : {
                  "lat" : 40.1444058,
                  "lng" : 29.981312
               },
               "southwest" : {
                  "lat" : 40.138177,
                  "lng" : 29.973917
               }
            }
         },
         "place_id" : "ChIJ35viDeGPyxQRT4mNoYcrUCg",
         "types" : [ "postal_code" ]
      },
      {
         "address_components" : [
            {
               "long_name" : "Gazipaşa",
               "short_name" : "Gazipaşa",
               "types" : [ "administrative_area_level_4", "political" ]
            },
            {
               "long_name" : "Bilecik Merkez",
               "short_name" : "Bilecik Merkez",
               "types" : [ "administrative_area_level_2", "political" ]
            },
            {
               "long_name" : "Bilecik",
               "short_name" : "Bilecik",
               "types" : [ "administrative_area_level_1", "political" ]
            },
            {
               "long_name" : "Turkey",
               "short_name" : "TR",
               "types" : [ "country", "political" ]
            },
            {
               "long_name" : "11000",
               "short_name" : "11000",
               "types" : [ "postal_code" ]
            }
         ],
         "formatted_address" : "Gazipaşa, 11000 Bilecik Merkez/Bilecik, Turkey",
         "geometry" : {
            "bounds" : {
               "northeast" : {
                  "lat" : 40.1444058,
                  "lng" : 29.981312
               },
               "southwest" : {
                  "lat" : 40.138177,
                  "lng" : 29.973917
               }
            },
            "location" : {
               "lat" : 40.1409831,
               "lng" : 29.9776667
            },
            "location_type" : "APPROXIMATE",
            "viewport" : {
               "northeast" : {
                  "lat" : 40.1444058,
                  "lng" : 29.981312
               },
               "southwest" : {
                  "lat" : 40.138177,
                  "lng" : 29.973917
               }
            }
         },
         "place_id" : "ChIJ35viDeGPyxQRVnR7QRo7y3U",
         "types" : [ "administrative_area_level_4", "political" ]
      },
      {
         "address_components" : [
            {
               "long_name" : "Bilecik",
               "short_name" : "Bilecik",
               "types" : [ "locality", "political" ]
            },
            {
               "long_name" : "Bilecik Merkez",
               "short_name" : "Bilecik Merkez",
               "types" : [ "administrative_area_level_2", "political" ]
            },
            {
               "long_name" : "Bilecik",
               "short_name" : "Bilecik",
               "types" : [ "administrative_area_level_1", "political" ]
            },
            {
               "long_name" : "Turkey",
               "short_name" : "TR",
               "types" : [ "country", "political" ]
            }
         ],
         "formatted_address" : "Bilecik, Bilecik Merkez/Bilecik, Turkey",
         "geometry" : {
            "bounds" : {
               "northeast" : {
                  "lat" : 40.2001,
                  "lng" : 29.991397
               },
               "southwest" : {
                  "lat" : 40.12762,
                  "lng" : 29.957953
               }
            },
            "location" : {
               "lat" : 40.142573,
               "lng" : 29.97933
            },
            "location_type" : "APPROXIMATE",
            "viewport" : {
               "northeast" : {
                  "lat" : 40.2001,
                  "lng" : 29.991397
               },
               "southwest" : {
                  "lat" : 40.12762,
                  "lng" : 29.957953
               }
            }
         },
         "place_id" : "ChIJf7gS0fmPyxQRHyPJFrAEArw",
         "types" : [ "locality", "political" ]
      },
      {
         "address_components" : [
            {
               "long_name" : "Bilecik Merkez",
               "short_name" : "Bilecik Merkez",
               "types" : [ "administrative_area_level_2", "political" ]
            },
            {
               "long_name" : "Bilecik",
               "short_name" : "Bilecik",
               "types" : [ "administrative_area_level_1", "political" ]
            },
            {
               "long_name" : "Turkey",
               "short_name" : "TR",
               "types" : [ "country", "political" ]
            }
         ],
         "formatted_address" : "Bilecik Merkez/Bilecik, Turkey",
         "geometry" : {
            "bounds" : {
               "northeast" : {
                  "lat" : 40.318363,
                  "lng" : 30.155437
               },
               "southwest" : {
                  "lat" : 39.9816881,
                  "lng" : 29.704669
               }
            },
            "location" : {
               "lat" : 40.1335256,
               "lng" : 29.9277947
            },
            "location_type" : "APPROXIMATE",
            "viewport" : {
               "northeast" : {
                  "lat" : 40.318363,
                  "lng" : 30.155437
               },
               "southwest" : {
                  "lat" : 39.9816881,
                  "lng" : 29.704669
               }
            }
         },
         "place_id" : "ChIJpy2TsF-QyxQRGUtVLVVrXxM",
         "types" : [ "administrative_area_level_2", "political" ]
      },
      {
         "address_components" : [
            {
               "long_name" : "Bilecik",
               "short_name" : "Bilecik",
               "types" : [ "administrative_area_level_1", "political" ]
            },
            {
               "long_name" : "Turkey",
               "short_name" : "TR",
               "types" : [ "country", "political" ]
            }
         ],
         "formatted_address" : "Bilecik, Turkey",
         "geometry" : {
            "bounds" : {
               "northeast" : {
                  "lat" : 40.521195,
                  "lng" : 30.64882489999999
               },
               "southwest" : {
                  "lat" : 39.648859,
                  "lng" : 29.7088961
               }
            },
            "location" : {
               "lat" : 40.0566555,
               "lng" : 30.0665236
            },
            "location_type" : "APPROXIMATE",
            "viewport" : {
               "northeast" : {
                  "lat" : 40.521195,
                  "lng" : 30.64882489999999
               },
               "southwest" : {
                  "lat" : 39.648859,
                  "lng" : 29.7088961
               }
            }
         },
         "place_id" : "ChIJn9GQNw2JyxQR9CrRkKFAt_0",
         "types" : [ "administrative_area_level_1", "political" ]
      },
      {
         "address_components" : [
            {
               "long_name" : "Turkey",
               "short_name" : "TR",
               "types" : [ "country", "political" ]
            }
         ],
         "formatted_address" : "Turkey",
         "geometry" : {
            "bounds" : {
               "northeast" : {
                  "lat" : 42.3666999,
                  "lng" : 44.8178449
               },
               "southwest" : {
                  "lat" : 35.808592,
                  "lng" : 25.5377
               }
            },
            "location" : {
               "lat" : 38.963745,
               "lng" : 35.243322
            },
            "location_type" : "APPROXIMATE",
            "viewport" : {
               "northeast" : {
                  "lat" : 42.3666999,
                  "lng" : 44.8178449
               },
               "southwest" : {
                  "lat" : 35.808592,
                  "lng" : 25.5377
               }
            }
         },
         "place_id" : "ChIJcSZPllwVsBQRKl9iKtTb2UA",
         "types" : [ "country", "political" ]
      }
   ],
   "status" : "OK"
}
