{
   "plus_code" : {
      "compound_code" : "3WJM+2H Eyüpsultan/İstanbul, Turkey",
      "global_code" : "8GHC3WJM+2H"
   },
   "results" : [
      {
         "address_components" : [
            {
               "long_name" : "9/1",
               "short_name" : "9/1",
               "types" : [ "street_number" ]
            },
            {
               "long_name" : "Mustafa Kemal Bulvarı",
               "short_name" : "Mustafa Kemal Blv",
               "types" : [ "route" ]
            },
            {
               "long_name" : "Çırçır",
               "short_name" : "Çırçır",
               "types" : [ "administrative_area_level_4", "political" ]
            },
            {
               "long_name" : "Eyüpsultan",
               "short_name" : "Eyüpsultan",
               "types" : [ "administrative_area_level_2", "political" ]
            },
            {
               "long_name" : "İstanbul",
               "short_name" : "İstanbul",
               "types" : [ "administrative_area_level_1", "political" ]
            },
            {
               "long_name" : "Turkey",
               "short_name" : "TR",
               "types" : [ "country", "political" ]
            },
            {
               "long_name" : "34070",
               "short_name" : "34070",
               "types" : [ "postal_code" ]
            }
         ],
         "formatted_address" : "Çırçır, Mustafa Kemal Blv 9/1, 34070 Eyüpsultan/İstanbul, Turkey",
         "geometry" : {
            "bounds" : {
               "northeast" : {
                  "lat" : 41.0799895,
                  "lng" : 28.93413979999999
               },
               "southwest" : {
                  "lat" : 41.0798706,
                  "lng" : 28.9340109
               }
            },
            "location" : {
               "lat" : 41.07993390000001,
               "lng" : 28.9340965
            },
            "location_type" : "ROOFTOP",
            "viewport" : {
               "northeast" : {
                  "lat" : 41.0812790302915,
                  "lng" : 28.93542433029149
               },
               "southwest" : {
                  "lat" : 41.07858106970851,
                  "lng" : 28.93272636970849
               }
            }
         },
         "place_id" : "ChIJFUL6Qt-wyhQRqjiF_bv5CGs",
         "types" : [ "premise" ]
      },
      {
         "address_components" : [
            {
               "long_name" : "9",
               "short_name" : "9",
               "types" : [ "street_number" ]
            },
            {
               "long_name" : "Atatürk Bulvarı",
               "short_name" : "Atatürk Blv",
               "types" : [ "route" ]
            },
            {
               "long_name" : "Çırçır",
               "short_name" : "Çırçır",
               "types" : [ "administrative_area_level_4", "political" ]
            },
            {
               "long_name" : "Eyüpsultan",
               "short_name" : "Eyüpsultan",
               "types" : [ "administrative_area_level_2", "political" ]
            },
            {
               "long_name" : "İstanbul",
               "short_name" : "İstanbul",
               "types" : [ "administrative_area_level_1", "political" ]
            },
            {
               "long_name" : "Turkey",
               "short_name" : "TR",
               "types" : [ "country", "political" ]
            },
            {
               "long_name" : "34070",
               "short_name" : "34070",
               "types" : [ "postal_code" ]
            }
         ],
         "formatted_address" : "Çırçır, Atatürk Blv No:9, 34070 Eyüpsultan/İstanbul, Turkey",
         "geometry" : {
            "location" : {
               "lat" : 41.0799379,
               "lng" : 28.9338028
            },
            "location_type" : "ROOFTOP",
            "viewport" : {
               "northeast" : {
                  "lat" : 41.0812868802915,
                  "lng" : 28.9351517802915
               },
               "southwest" : {
                  "lat" : 41.0785889197085,
                  "lng" : 28.9324538197085
               }
            }
         },
         "place_id" : "ChIJ4d3Had-wyhQROuNU13NX0oo",
         "plus_code" : {
            "compound_code" : "3WHM+XG Eyüpsultan/İstanbul, Turkey",
            "global_code" : "8GHC3WHM+XG"
         },
         "types" : [ "street_address" ]
      },
      {
         "address_components" : [
            {
               "long_name" : "No:26",
               "short_name" : "No:26",
               "types" : [ "street_number" ]
            },
            {
               "long_name" : "Aşık Veysel Caddesi",
               "short_name" : "Aşık Veysel Cd.",
               "types" : [ "route" ]
            },
            {
               "long_name" : "Çırçır",
               "short_name" : "Çırçır",
               "types" : [ "administrative_area_level_4", "political" ]
            },
            {
               "long_name" : "Eyüpsultan",
               "short_name" : "Eyüpsultan",
               "types" : [ "administrative_area_level_2", "political" ]
            },
            {
               "long_name" : "İstanbul",
               "short_name" : "İstanbul",
               "types" : [ "administrative_area_level_1", "political" ]
            },
            {
               "long_name" : "Turkey",
               "short_name" : "TR",
               "types" : [ "country", "political" ]
            },
            {
               "long_name" : "34070",
               "short_name" : "34070",
               "types" : [ "postal_code" ]
            }
         ],
         "formatted_address" : "Çırçır, Aşık Veysel Cd. No:26, 34070 Eyüpsultan/İstanbul, Turkey",
         "geometry" : {
            "location" : {
               "lat" : 41.0798583,
               "lng" : 28.9345652
            },
            "location_type" : "ROOFTOP",
            "viewport" : {
               "northeast" : {
                  "lat" : 41.0812072802915,
                  "lng" : 28.9359141802915
               },
               "southwest" : {
                  "lat" : 41.0785093197085,
                  "lng" : 28.9332162197085
               }
            }
         },
         "place_id" : "ChIJw1bk9QexyhQRabwKksAGM-Y",
         "plus_code" : {
            "compound_code" : "3WHM+WR Eyüpsultan/İstanbul, Turkey",
            "global_code" : "8GHC3WHM+WR"
         },
         "types" : [ "car_dealer", "establishment", "point_of_interest", "store" ]
      },
      {
         "address_components" : [
            {
               "long_name" : "9",
               "short_name" : "9",
               "types" : [ "street_number" ]
            },
            {
               "long_name" : "Atatürk Bulvarı",
               "short_name" : "Atatürk Blv",
               "types" : [ "route" ]
            },
            {
               "long_name" : "Çırçır",
               "short_name" : "Çırçır",
               "types" : [ "administrative_area_level_4", "political" ]
            },
            {
               "long_name" : "Eyüpsultan",
               "short_name" : "Eyüpsultan",
               "types" : [ "administrative_area_level_2", "political" ]
            },
            {
               "long_name" : "İstanbul",
               "short_name" : "İstanbul",
               "types" : [ "administrative_area_level_1", "political" ]
            },
            {
               "long_name" : "Turkey",
               "short_name" : "TR",
               "types" : [ "country", "political" ]
            },
            {
               "long_name" : "34070",
               "short_name" : "34070",
               "types" : [ "postal_code" ]
            }
         ],
         "formatted_address" : "Çırçır, Atatürk Blv No:9, 34070 Eyüpsultan/İstanbul, Turkey",
         "geometry" : {
            "location" : {
               "lat" : 41.0800825,
               "lng" : 28.9340429
            },
            "location_type" : "RANGE_INTERPOLATED",
            "viewport" : {
               "northeast" : {
                  "lat" : 41.0814314802915,
                  "lng" : 28.9353918802915
               },
               "southwest" : {
                  "lat" : 41.0787335197085,
                  "lng" : 28.9326939197085
               }
            }
         },
         "place_id" : "EkLDh8SxcsOnxLFyLCBBdGF0w7xyayBCbHYgTm86OSwgMzQwNzAgRXnDvHBzdWx0YW4vxLBzdGFuYnVsLCBUdXJrZXkiGhIYChQKEgmrma1C37DKFBHxlZ9wWRtEFBAJ",
         "types" : [ "street_address" ]
      },
      {
         "address_components" : [
            {
               "long_name" : "Atatürk Bulvarı",
               "short_name" : "Atatürk Blv",
               "types" : [ "route" ]
            },
            {
               "long_name" : "Çırçır",
               "short_name" : "Çırçır",
               "types" : [ "administrative_area_level_4", "political" ]
            },
            {
               "long_name" : "Eyüpsultan",
               "short_name" : "Eyüpsultan",
               "types" : [ "administrative_area_level_2", "political" ]
            },
            {
               "long_name" : "İstanbul",
               "short_name" : "İstanbul",
               "types" : [ "administrative_area_level_1", "political" ]
            },
            {
               "long_name" : "Turkey",
               "short_name" : "TR",
               "types" : [ "country", "political" ]
            },
            {
               "long_name" : "34070",
               "short_name" : "34070",
               "types" : [ "postal_code" ]
            }
         ],
         "formatted_address" : "Çırçır, Atatürk Blv, 34070 Eyüpsultan/İstanbul, Turkey",
         "geometry" : {
            "bounds" : {
               "northeast" : {
                  "lat" : 41.080092,
                  "lng" : 28.9341668
               },
               "southwest" : {
                  "lat" : 41.0800786,
                  "lng" : 28.9339913
               }
            },
            "location" : {
               "lat" : 41.0800853,
               "lng" : 28.934079
            },
            "location_type" : "GEOMETRIC_CENTER",
            "viewport" : {
               "northeast" : {
                  "lat" : 41.0814342802915,
                  "lng" : 28.9354280302915
               },
               "southwest" : {
                  "lat" : 41.0787363197085,
                  "lng" : 28.93273006970851
               }
            }
         },
         "place_id" : "ChIJq5mtQt-wyhQR8JWfcFkbRBQ",
         "types" : [ "route" ]
      },
      {
         "address_components" : [
            {
               "long_name" : "34070",
               "short_name" : "34070",
               "types" : [ "postal_code" ]
            },
            {
               "long_name" : "Çırçır",
               "short_name" : "Çırçır",
               "types" : [ "administrative_area_level_4", "political" ]
            },
            {
               "long_name" : "Eyüpsultan",
               "short_name" : "Eyüpsultan",
               "types" : [ "administrative_area_level_2", "political" ]
            },
            {
               "long_name" : "İstanbul",
               "short_name" : "İstanbul",
               "types" : [ "administrative_area_level_1", "political" ]
            },
            {
               "long_name" : "Turkey",
               "short_name" : "TR",
               "types" : [ "country", "political" ]
            }
         ],
         "formatted_address" : "Çırçır, 34070 Eyüpsultan/İstanbul, Turkey",
         "geometry" : {
            "bounds" : {
               "northeast" : {
                  "lat" : 41.088972,
                  "lng" : 28.944414
               },
               "southwest" : {
                  "lat" : 41.076164,
                  "lng" : 28.9284571
               }
            },
            "location" : {
               "lat" : 41.0810389,
               "lng" : 28.9368525
            },
            "location_type" : "APPROXIMATE",
            "viewport" : {
               "northeast" : {
                  "lat" : 41.088972,
                  "lng" : 28.944414
               },
               "southwest" : {
                  "lat" : 41.076164,
                  "lng" : 28.9284571
               }
            }
         },
         "place_id" : "ChIJT8Ja2SaxyhQRnGCYaQA-wL0",
         "types" : [ "postal_code" ]
      },
      {
         "address_components" : [
            {
               "long_name" : "Çırçır",
               "short_name" : "Çırçır",
               "types" : [ "administrative_area_level_4", "political" ]
            },
            {
               "long_name" : "Eyüpsultan",
               "short_name" : "Eyüpsultan",
               "types" : [ "administrative_area_level_2", "political" ]
            },
            {
               "long_name" : "İstanbul",
               "short_name" : "İstanbul",
               "types" : [ "administrative_area_level_1", "political" ]
            },
            {
               "long_name" : "Turkey",
               "short_name" : "TR",
               "types" : [ "country", "political" ]
            },
            {
               "long_name" : "34070",
               "short_name" : "34070",
               "types" : [ "postal_code" ]
            }
         ],
         "formatted_address" : "Çırçır, 34070 Eyüpsultan/İstanbul, Turkey",
         "geometry" : {
            "bounds" : {
               "northeast" : {
                  "lat" : 41.088972,
                  "lng" : 28.944414
               },
               "southwest" : {
                  "lat" : 41.076164,
                  "lng" : 28.9284571
               }
            },
            "location" : {
               "lat" : 41.0810389,
               "lng" : 28.9368525
            },
            "location_type" : "APPROXIMATE",
            "viewport" : {
               "northeast" : {
                  "lat" : 41.088972,
                  "lng" : 28.944414
               },
               "southwest" : {
                  "lat" : 41.076164,
                  "lng" : 28.9284571
               }
            }
         },
         "place_id" : "ChIJT8Ja2SaxyhQRhIQpJC85OZI",
         "types" : [ "administrative_area_level_4", "political" ]
      },
      {
         "address_components" : [
            {
               "long_name" : "Eyüpsultan",
               "short_name" : "Eyüpsultan",
               "types" : [ "administrative_area_level_2", "political" ]
            },
            {
               "long_name" : "İstanbul",
               "short_name" : "İstanbul",
               "types" : [ "administrative_area_level_1", "political" ]
            },
            {
               "long_name" : "Turkey",
               "short_name" : "TR",
               "types" : [ "country", "political" ]
            }
         ],
         "formatted_address" : "Eyüpsultan/İstanbul, Turkey",
         "geometry" : {
            "bounds" : {
               "northeast" : {
                  "lat" : 41.308697,
                  "lng" : 28.9762831
               },
               "southwest" : {
                  "lat" : 41.0243391,
                  "lng" : 28.770507
               }
            },
            "location" : {
               "lat" : 41.1871598,
               "lng" : 28.8829816
            },
            "location_type" : "APPROXIMATE",
            "viewport" : {
               "northeast" : {
                  "lat" : 41.308697,
                  "lng" : 28.9762831
               },
               "southwest" : {
                  "lat" : 41.0243391,
                  "lng" : 28.770507
               }
            }
         },
         "place_id" : "ChIJZRLW7GSyyhQRB0Z9KwRKCJs",
         "types" : [ "administrative_area_level_2", "political" ]
      },
      {
         "address_components" : [
            {
               "long_name" : "European Side",
               "short_name" : "European Side",
               "types" : [ "neighborhood", "political" ]
            },
            {
               "long_name" : "İstanbul",
               "short_name" : "İstanbul",
               "types" : [ "administrative_area_level_1", "political" ]
            },
            {
               "long_name" : "Turkey",
               "short_name" : "TR",
               "types" : [ "country", "political" ]
            }
         ],
         "formatted_address" : "European Side, İstanbul, Turkey",
         "geometry" : {
            "bounds" : {
               "northeast" : {
                  "lat" : 41.199239,
                  "lng" : 29.077487
               },
               "southwest" : {
                  "lat" : 40.954508,
                  "lng" : 28.595554
               }
            },
            "location" : {
               "lat" : 41.0286909,
               "lng" : 28.92404269999999
            },
            "location_type" : "APPROXIMATE",
            "viewport" : {
               "northeast" : {
                  "lat" : 41.199239,
                  "lng" : 29.077487
               },
               "southwest" : {
                  "lat" : 40.954508,
                  "lng" : 28.595554
               }
            }
         },
         "place_id" : "ChIJhTq6hpGkyhQRC5OjsPQ0MVY",
         "types" : [ "neighborhood", "political" ]
      },
      {
         "address_components" : [
            {
               "long_name" : "İstanbul",
               "short_name" : "İstanbul",
               "types" : [ "locality", "political" ]
            },
            {
               "long_name" : "İstanbul",
               "short_name" : "İstanbul",
               "types" : [ "administrative_area_level_1", "political" ]
            },
            {
               "long_name" : "Turkey",
               "short_name" : "TR",
               "types" : [ "country", "political" ]
            }
         ],
         "formatted_address" : "İstanbul, Turkey",
         "geometry" : {
            "bounds" : {
               "northeast" : {
                  "lat" : 41.199239,
                  "lng" : 29.4288049
               },
               "southwest" : {
                  "lat" : 40.811404,
                  "lng" : 28.595554
               }
            },
            "location" : {
               "lat" : 41.0082376,
               "lng" : 28.9783589
            },
            "location_type" : "APPROXIMATE",
            "viewport" : {
               "northeast" : {
                  "lat" : 41.199239,
                  "lng" : 29.4288049
               },
               "southwest" : {
                  "lat" : 40.811404,
                  "lng" : 28.595554
               }
            }
         },
         "place_id" : "ChIJawhoAASnyhQR0LABvJj-zOE",
         "types" : [ "locality", "political" ]
      },
      {
         "address_components" : [
            {
               "long_name" : "İstanbul",
               "short_name" : "İstanbul",
               "types" : [ "administrative_area_level_1", "political" ]
            },
            {
               "long_name" : "Turkey",
               "short_name" : "TR",
               "types" : [ "country", "political" ]
            }
         ],
         "formatted_address" : "İstanbul, Turkey",
         "geometry" : {
            "bounds" : {
               "northeast" : {
                  "lat" : 41.58461,
                  "lng" : 29.915705
               },
               "southwest" : {
                  "lat" : 40.8026889,
                  "lng" : 27.971373
               }
            },
            "location" : {
               "lat" : 41.1634302,
               "lng" : 28.7664408
            },
            "location_type" : "APPROXIMATE",
            "viewport" : {
               "northeast" : {
                  "lat" : 41.58461,
                  "lng" : 29.915705
               },
               "southwest" : {
                  "lat" : 40.8026889,
                  "lng" : 27.971373
               }
            }
         },
         "place_id" : "ChIJexVgWlG2yhQR6B1akfSarCI",
         "types" : [ "administrative_area_level_1", "political" ]
      },
      {
         "address_components" : [
            {
               "long_name" : "Turkey",
               "short_name" : "TR",
               "types" : [ "country", "political" ]
            }
         ],
         "formatted_address" : "Turkey",
         "geometry" : {
            "bounds" : {
               "northeast" : {
                  "lat" : 42.3666999,
                  "lng" : 44.8178449
               },
               "southwest" : {
                  "lat" : 35.808592,
                  "lng" : 25.5377
               }
            },
            "location" : {
               "lat" : 38.963745,
               "lng" : 35.243322
            },
            "location_type" : "APPROXIMATE",
            "viewport" : {
               "northeast" : {
                  "lat" : 42.3666999,
                  "lng" : 44.8178449
               },
               "southwest" : {
                  "lat" : 35.808592,
                  "lng" : 25.5377
               }
            }
         },
         "place_id" : "ChIJcSZPllwVsBQRKl9iKtTb2UA",
         "types" : [ "country", "political" ]
      },
      {
         "address_components" : [
            {
               "long_name" : "3WJM+2H",
               "short_name" : "3WJM+2H",
               "types" : [ "plus_code" ]
            },
            {
               "long_name" : "Eyüpsultan",
               "short_name" : "Eyüpsultan",
               "types" : [ "administrative_area_level_2", "political" ]
            },
            {
               "long_name" : "İstanbul",
               "short_name" : "İstanbul",
               "types" : [ "administrative_area_level_1", "political" ]
            },
            {
               "long_name" : "Turkey",
               "short_name" : "TR",
               "types" : [ "country", "political" ]
            }
         ],
         "formatted_address" : "3WJM+2H Eyüpsultan/İstanbul, Turkey",
         "geometry" : {
            "bounds" : {
               "northeast" : {
                  "lat" : 41.080125,
                  "lng" : 28.934
               },
               "southwest" : {
                  "lat" : 41.08000000000001,
                  "lng" : 28.933875
               }
            },
            "location" : {
               "lat" : 41.080079,
               "lng" : 28.9339918
            },
            "location_type" : "ROOFTOP",
            "viewport" : {
               "northeast" : {
                  "lat" : 41.0814114802915,
                  "lng" : 28.9352864802915
               },
               "southwest" : {
                  "lat" : 41.0787135197085,
                  "lng" : 28.9325885197085
               }
            }
         },
         "place_id" : "GhIJVgxXB0CKREARcLsrFhrvPEA",
         "plus_code" : {
            "compound_code" : "3WJM+2H Eyüpsultan/İstanbul, Turkey",
            "global_code" : "8GHC3WJM+2H"
         },
         "types" : [ "plus_code" ]
      }
   ],
   "status" : "OK"
}
