{
   "plus_code" : {
      "compound_code" : "MCVP+H8R Erenler/Sakarya, Turkey",
      "global_code" : "8GGGMCVP+H8R"
   },
   "results" : [
      {
         "address_components" : [
            {
               "long_name" : "MCVP+H8",
               "short_name" : "MCVP+H8",
               "types" : [ "plus_code" ]
            },
            {
               "long_name" : "Erenler",
               "short_name" : "Erenler",
               "types" : [ "administrative_area_level_2", "political" ]
            },
            {
               "long_name" : "Sakarya",
               "short_name" : "Sakarya",
               "types" : [ "administrative_area_level_1", "political" ]
            },
            {
               "long_name" : "Turkey",
               "short_name" : "TR",
               "types" : [ "country", "political" ]
            }
         ],
         "formatted_address" : "MCVP+H8 Erenler/Sakarya, Turkey",
         "geometry" : {
            "bounds" : {
               "northeast" : {
                  "lat" : 40.694,
                  "lng" : 30.435875
               },
               "southwest" : {
                  "lat" : 40.693875,
                  "lng" : 30.43575
               }
            },
            "location" : {
               "lat" : 40.6939973,
               "lng" : 30.4357631
            },
            "location_type" : "GEOMETRIC_CENTER",
            "viewport" : {
               "northeast" : {
                  "lat" : 40.6952864802915,
                  "lng" : 30.4371614802915
               },
               "southwest" : {
                  "lat" : 40.6925885197085,
                  "lng" : 30.4344635197085
               }
            }
         },
         "place_id" : "GhIJk4FN59RYREARuE2nK45vPkA",
         "plus_code" : {
            "compound_code" : "MCVP+H8 Erenler/Sakarya, Turkey",
            "global_code" : "8GGGMCVP+H8"
         },
         "types" : [ "plus_code" ]
      },
      {
         "address_components" : [
            {
               "long_name" : "Kayalarreşitbey Köyü İç Yolu",
               "short_name" : "Kayalarreşitbey Köyü İç Yolu",
               "types" : [ "route" ]
            },
            {
               "long_name" : "Çaybaşıyeniköy",
               "short_name" : "Çaybaşıyeniköy",
               "types" : [ "administrative_area_level_4", "political" ]
            },
            {
               "long_name" : "Erenler",
               "short_name" : "Erenler",
               "types" : [ "administrative_area_level_2", "political" ]
            },
            {
               "long_name" : "Sakarya",
               "short_name" : "Sakarya",
               "types" : [ "administrative_area_level_1", "political" ]
            },
            {
               "long_name" : "Turkey",
               "short_name" : "TR",
               "types" : [ "country", "political" ]
            },
            {
               "long_name" : "54200",
               "short_name" : "54200",
               "types" : [ "postal_code" ]
            }
         ],
         "formatted_address" : "Çaybaşıyeniköy, Kayalarreşitbey Köyü İç Yolu, 54200 Erenler/Sakarya, Turkey",
         "geometry" : {
            "bounds" : {
               "northeast" : {
                  "lat" : 40.694874,
                  "lng" : 30.43545469999999
               },
               "southwest" : {
                  "lat" : 40.693015,
                  "lng" : 30.4351555
               }
            },
            "location" : {
               "lat" : 40.694001,
               "lng" : 30.43519509999999
            },
            "location_type" : "GEOMETRIC_CENTER",
            "viewport" : {
               "northeast" : {
                  "lat" : 40.6952934802915,
                  "lng" : 30.4366540802915
               },
               "southwest" : {
                  "lat" : 40.6925955197085,
                  "lng" : 30.4339561197085
               }
            }
         },
         "place_id" : "ChIJQYFwVVWxzBQRbCDRViI93aY",
         "types" : [ "route" ]
      },
      {
         "address_components" : [
            {
               "long_name" : "Çaybaşıyeniköy",
               "short_name" : "Çaybaşıyeniköy",
               "types" : [ "administrative_area_level_4", "political" ]
            },
            {
               "long_name" : "Erenler",
               "short_name" : "Erenler",
               "types" : [ "administrative_area_level_2", "political" ]
            },
            {
               "long_name" : "Sakarya",
               "short_name" : "Sakarya",
               "types" : [ "administrative_area_level_1", "political" ]
            },
            {
               "long_name" : "Turkey",
               "short_name" : "TR",
               "types" : [ "country", "political" ]
            }
         ],
         "formatted_address" : "Çaybaşıyeniköy, Erenler/Sakarya, Turkey",
         "geometry" : {
            "bounds" : {
               "northeast" : {
                  "lat" : 40.704454,
                  "lng" : 30.4443609
               },
               "southwest" : {
                  "lat" : 40.6739491,
                  "lng" : 30.42726589999999
               }
            },
            "location" : {
               "lat" : 40.6954693,
               "lng" : 30.4386437
            },
            "location_type" : "APPROXIMATE",
            "viewport" : {
               "northeast" : {
                  "lat" : 40.704454,
                  "lng" : 30.4443609
               },
               "southwest" : {
                  "lat" : 40.6739491,
                  "lng" : 30.42726589999999
               }
            }
         },
         "place_id" : "ChIJveAlq6y2zBQR2lOC_xd64go",
         "types" : [ "administrative_area_level_4", "political" ]
      },
      {
         "address_components" : [
            {
               "long_name" : "54200",
               "short_name" : "54200",
               "types" : [ "postal_code" ]
            },
            {
               "long_name" : "Erenler",
               "short_name" : "Erenler",
               "types" : [ "administrative_area_level_2", "political" ]
            },
            {
               "long_name" : "Sakarya",
               "short_name" : "Sakarya",
               "types" : [ "administrative_area_level_1", "political" ]
            },
            {
               "long_name" : "Turkey",
               "short_name" : "TR",
               "types" : [ "country", "political" ]
            }
         ],
         "formatted_address" : "54200 Erenler/Sakarya, Turkey",
         "geometry" : {
            "bounds" : {
               "northeast" : {
                  "lat" : 40.719872,
                  "lng" : 30.4484879
               },
               "southwest" : {
                  "lat" : 40.691345,
                  "lng" : 30.4329419
               }
            },
            "location" : {
               "lat" : 40.70470359999999,
               "lng" : 30.4386437
            },
            "location_type" : "APPROXIMATE",
            "viewport" : {
               "northeast" : {
                  "lat" : 40.719872,
                  "lng" : 30.4484879
               },
               "southwest" : {
                  "lat" : 40.691345,
                  "lng" : 30.4329419
               }
            }
         },
         "place_id" : "ChIJFYHqRQm0zBQRZPNRPXPptLg",
         "types" : [ "postal_code" ]
      },
      {
         "address_components" : [
            {
               "long_name" : "Kayalarreşitbey",
               "short_name" : "Kayalarreşitbey",
               "types" : [ "locality", "political" ]
            },
            {
               "long_name" : "Kayalarreşitbey",
               "short_name" : "Kayalarreşitbey",
               "types" : [ "administrative_area_level_4", "political" ]
            },
            {
               "long_name" : "Erenler",
               "short_name" : "Erenler",
               "types" : [ "administrative_area_level_2", "political" ]
            },
            {
               "long_name" : "Sakarya",
               "short_name" : "Sakarya",
               "types" : [ "administrative_area_level_1", "political" ]
            },
            {
               "long_name" : "Turkey",
               "short_name" : "TR",
               "types" : [ "country", "political" ]
            }
         ],
         "formatted_address" : "Kayalarreşitbey, Erenler/Sakarya, Turkey",
         "geometry" : {
            "bounds" : {
               "northeast" : {
                  "lat" : 40.704273,
                  "lng" : 30.46444
               },
               "southwest" : {
                  "lat" : 40.666194,
                  "lng" : 30.4240909
               }
            },
            "location" : {
               "lat" : 40.6863,
               "lng" : 30.4521
            },
            "location_type" : "APPROXIMATE",
            "viewport" : {
               "northeast" : {
                  "lat" : 40.704273,
                  "lng" : 30.46444
               },
               "southwest" : {
                  "lat" : 40.666194,
                  "lng" : 30.4240909
               }
            }
         },
         "place_id" : "ChIJn9mI0aa2zBQRnn8KP9Qv8XM",
         "types" : [ "locality", "political" ]
      },
      {
         "address_components" : [
            {
               "long_name" : "Erenler",
               "short_name" : "Erenler",
               "types" : [ "administrative_area_level_2", "political" ]
            },
            {
               "long_name" : "Sakarya",
               "short_name" : "Sakarya",
               "types" : [ "administrative_area_level_1", "political" ]
            },
            {
               "long_name" : "Turkey",
               "short_name" : "TR",
               "types" : [ "country", "political" ]
            }
         ],
         "formatted_address" : "Erenler/Sakarya, Turkey",
         "geometry" : {
            "bounds" : {
               "northeast" : {
                  "lat" : 40.778344,
                  "lng" : 30.52937
               },
               "southwest" : {
                  "lat" : 40.608327,
                  "lng" : 30.383472
               }
            },
            "location" : {
               "lat" : 40.7426859,
               "lng" : 30.45880589999999
            },
            "location_type" : "APPROXIMATE",
            "viewport" : {
               "northeast" : {
                  "lat" : 40.778344,
                  "lng" : 30.52937
               },
               "southwest" : {
                  "lat" : 40.608327,
                  "lng" : 30.383472
               }
            }
         },
         "place_id" : "ChIJx6z60Bi0zBQRlg9SFB3BgVM",
         "types" : [ "administrative_area_level_2", "political" ]
      },
      {
         "address_components" : [
            {
               "long_name" : "Sakarya",
               "short_name" : "Sakarya",
               "types" : [ "administrative_area_level_1", "political" ]
            },
            {
               "long_name" : "Turkey",
               "short_name" : "TR",
               "types" : [ "country", "political" ]
            }
         ],
         "formatted_address" : "Sakarya, Turkey",
         "geometry" : {
            "bounds" : {
               "northeast" : {
                  "lat" : 41.17934,
                  "lng" : 31.013034
               },
               "southwest" : {
                  "lat" : 40.2880759,
                  "lng" : 29.928125
               }
            },
            "location" : {
               "lat" : 40.6939973,
               "lng" : 30.4357631
            },
            "location_type" : "APPROXIMATE",
            "viewport" : {
               "northeast" : {
                  "lat" : 41.17934,
                  "lng" : 31.013034
               },
               "southwest" : {
                  "lat" : 40.2880759,
                  "lng" : 29.928125
               }
            }
         },
         "place_id" : "ChIJGxhSlha1zBQRAZKNx6UHqOs",
         "types" : [ "administrative_area_level_1", "political" ]
      },
      {
         "address_components" : [
            {
               "long_name" : "Turkey",
               "short_name" : "TR",
               "types" : [ "country", "political" ]
            }
         ],
         "formatted_address" : "Turkey",
         "geometry" : {
            "bounds" : {
               "northeast" : {
                  "lat" : 42.3666999,
                  "lng" : 44.8178449
               },
               "southwest" : {
                  "lat" : 35.808592,
                  "lng" : 25.5377
               }
            },
            "location" : {
               "lat" : 38.963745,
               "lng" : 35.243322
            },
            "location_type" : "APPROXIMATE",
            "viewport" : {
               "northeast" : {
                  "lat" : 42.3666999,
                  "lng" : 44.8178449
               },
               "southwest" : {
                  "lat" : 35.808592,
                  "lng" : 25.5377
               }
            }
         },
         "place_id" : "ChIJcSZPllwVsBQRKl9iKtTb2UA",
         "types" : [ "country", "political" ]
      }
   ],
   "status" : "OK"
}
