{
   "plus_code" : {
      "compound_code" : "25H2+5M Sinop Merkez/Sinop, Turkey",
      "global_code" : "8GJQ25H2+5M"
   },
   "results" : [
      {
         "address_components" : [
            {
               "long_name" : "4 A",
               "short_name" : "4 A",
               "types" : [ "street_number" ]
            },
            {
               "long_name" : "Okullar Caddesi",
               "short_name" : "Okullar Cd.",
               "types" : [ "route" ]
            },
            {
               "long_name" : "Kefevi",
               "short_name" : "Kefevi",
               "types" : [ "administrative_area_level_4", "political" ]
            },
            {
               "long_name" : "Sinop Merkez",
               "short_name" : "Sinop Merkez",
               "types" : [ "administrative_area_level_2", "political" ]
            },
            {
               "long_name" : "Sinop",
               "short_name" : "Sinop",
               "types" : [ "administrative_area_level_1", "political" ]
            },
            {
               "long_name" : "Turkey",
               "short_name" : "TR",
               "types" : [ "country", "political" ]
            },
            {
               "long_name" : "57000",
               "short_name" : "57000",
               "types" : [ "postal_code" ]
            }
         ],
         "formatted_address" : "Kefevi, Okullar Cd. 4 A, 57000 Sinop Merkez/Sinop, Turkey",
         "geometry" : {
            "location" : {
               "lat" : 42.027927,
               "lng" : 35.151869
            },
            "location_type" : "ROOFTOP",
            "viewport" : {
               "northeast" : {
                  "lat" : 42.02927598029149,
                  "lng" : 35.1532179802915
               },
               "southwest" : {
                  "lat" : 42.0265780197085,
                  "lng" : 35.1505200197085
               }
            }
         },
         "place_id" : "ChIJd2_AhegSj0ARLTWG-JJe5lE",
         "plus_code" : {
            "compound_code" : "25H2+5P Sinop Merkez/Sinop, Turkey",
            "global_code" : "8GJQ25H2+5P"
         },
         "types" : [ "street_address" ]
      },
      {
         "address_components" : [
            {
               "long_name" : "2",
               "short_name" : "2",
               "types" : [ "street_number" ]
            },
            {
               "long_name" : "Okullar Caddesi",
               "short_name" : "Okullar Cd.",
               "types" : [ "route" ]
            },
            {
               "long_name" : "Kefevi",
               "short_name" : "Kefevi",
               "types" : [ "administrative_area_level_4", "political" ]
            },
            {
               "long_name" : "Bostancılı",
               "short_name" : "Bostancılı",
               "types" : [ "administrative_area_level_3", "political" ]
            },
            {
               "long_name" : "Sinop Merkez",
               "short_name" : "Sinop Merkez",
               "types" : [ "administrative_area_level_2", "political" ]
            },
            {
               "long_name" : "Sinop",
               "short_name" : "Sinop",
               "types" : [ "administrative_area_level_1", "political" ]
            },
            {
               "long_name" : "Turkey",
               "short_name" : "TR",
               "types" : [ "country", "political" ]
            },
            {
               "long_name" : "57000",
               "short_name" : "57000",
               "types" : [ "postal_code" ]
            }
         ],
         "formatted_address" : "Kefevi, Okullar Cd. No:2, 57000 Bostancılı/Sinop Merkez/Sinop, Turkey",
         "geometry" : {
            "location" : {
               "lat" : 42.0279623,
               "lng" : 35.151706
            },
            "location_type" : "RANGE_INTERPOLATED",
            "viewport" : {
               "northeast" : {
                  "lat" : 42.0293112802915,
                  "lng" : 35.1530549802915
               },
               "southwest" : {
                  "lat" : 42.0266133197085,
                  "lng" : 35.1503570197085
               }
            }
         },
         "place_id" : "EkdLZWZldmksIE9rdWxsYXIgQ2QuIE5vOjIsIDU3MDAwIEJvc3RhbmPEsWzEsS9TaW5vcCBNZXJrZXovU2lub3AsIFR1cmtleSIaEhgKFAoSCb2SRY_oEo9AEUFDEjWNtVt3EAI",
         "types" : [ "street_address" ]
      },
      {
         "address_components" : [
            {
               "long_name" : "13",
               "short_name" : "13",
               "types" : [ "street_number" ]
            },
            {
               "long_name" : "Okullar Caddesi",
               "short_name" : "Okullar Cd.",
               "types" : [ "route" ]
            },
            {
               "long_name" : "İncedayı",
               "short_name" : "İncedayı",
               "types" : [ "administrative_area_level_4", "political" ]
            },
            {
               "long_name" : "Bostancılı",
               "short_name" : "Bostancılı",
               "types" : [ "administrative_area_level_3", "political" ]
            },
            {
               "long_name" : "Sinop Merkez",
               "short_name" : "Sinop Merkez",
               "types" : [ "administrative_area_level_2", "political" ]
            },
            {
               "long_name" : "Sinop",
               "short_name" : "Sinop",
               "types" : [ "administrative_area_level_1", "political" ]
            },
            {
               "long_name" : "Turkey",
               "short_name" : "TR",
               "types" : [ "country", "political" ]
            },
            {
               "long_name" : "57000",
               "short_name" : "57000",
               "types" : [ "postal_code" ]
            }
         ],
         "formatted_address" : "İncedayı, Okullar Cd. No:13, 57000 Bostancılı/Sinop Merkez/Sinop, Turkey",
         "geometry" : {
            "bounds" : {
               "northeast" : {
                  "lat" : 42.027981,
                  "lng" : 35.1517793
               },
               "southwest" : {
                  "lat" : 42.0279623,
                  "lng" : 35.151706
               }
            },
            "location" : {
               "lat" : 42.02797169999999,
               "lng" : 35.1517426
            },
            "location_type" : "GEOMETRIC_CENTER",
            "viewport" : {
               "northeast" : {
                  "lat" : 42.02932063029149,
                  "lng" : 35.1530916302915
               },
               "southwest" : {
                  "lat" : 42.0266226697085,
                  "lng" : 35.1503936697085
               }
            }
         },
         "place_id" : "ChIJvZJFj-gSj0ARQEMSNY21W3c",
         "types" : [ "route" ]
      },
      {
         "address_components" : [
            {
               "long_name" : "25H2+5M",
               "short_name" : "25H2+5M",
               "types" : [ "plus_code" ]
            },
            {
               "long_name" : "Sinop Merkez",
               "short_name" : "Sinop Merkez",
               "types" : [ "administrative_area_level_2", "political" ]
            },
            {
               "long_name" : "Sinop",
               "short_name" : "Sinop",
               "types" : [ "administrative_area_level_1", "political" ]
            },
            {
               "long_name" : "Turkey",
               "short_name" : "TR",
               "types" : [ "country", "political" ]
            }
         ],
         "formatted_address" : "25H2+5M Sinop Merkez/Sinop, Turkey",
         "geometry" : {
            "bounds" : {
               "northeast" : {
                  "lat" : 42.028,
                  "lng" : 35.15175
               },
               "southwest" : {
                  "lat" : 42.027875,
                  "lng" : 35.151625
               }
            },
            "location" : {
               "lat" : 42.02797400000001,
               "lng" : 35.151725
            },
            "location_type" : "ROOFTOP",
            "viewport" : {
               "northeast" : {
                  "lat" : 42.0292864802915,
                  "lng" : 35.1530364802915
               },
               "southwest" : {
                  "lat" : 42.0265885197085,
                  "lng" : 35.1503385197085
               }
            }
         },
         "place_id" : "GhIJtZHrppQDRUARKH6MuWuTQUA",
         "plus_code" : {
            "compound_code" : "25H2+5M Sinop Merkez/Sinop, Turkey",
            "global_code" : "8GJQ25H2+5M"
         },
         "types" : [ "plus_code" ]
      },
      {
         "address_components" : [
            {
               "long_name" : "57000",
               "short_name" : "57000",
               "types" : [ "postal_code" ]
            },
            {
               "long_name" : "Sinop Merkez",
               "short_name" : "Sinop Merkez",
               "types" : [ "administrative_area_level_2", "political" ]
            },
            {
               "long_name" : "Sinop",
               "short_name" : "Sinop",
               "types" : [ "administrative_area_level_1", "political" ]
            },
            {
               "long_name" : "Turkey",
               "short_name" : "TR",
               "types" : [ "country", "political" ]
            }
         ],
         "formatted_address" : "57000 Sinop Merkez/Sinop, Turkey",
         "geometry" : {
            "bounds" : {
               "northeast" : {
                  "lat" : 42.02919,
                  "lng" : 35.159353
               },
               "southwest" : {
                  "lat" : 42.0226511,
                  "lng" : 35.1502789
               }
            },
            "location" : {
               "lat" : 42.0270911,
               "lng" : 35.1549245
            },
            "location_type" : "APPROXIMATE",
            "viewport" : {
               "northeast" : {
                  "lat" : 42.02919,
                  "lng" : 35.159353
               },
               "southwest" : {
                  "lat" : 42.0226511,
                  "lng" : 35.1502789
               }
            }
         },
         "place_id" : "ChIJBcIbBucSj0ARoS_JEBax70M",
         "types" : [ "postal_code" ]
      },
      {
         "address_components" : [
            {
               "long_name" : "Kefevi",
               "short_name" : "Kefevi",
               "types" : [ "administrative_area_level_4", "political" ]
            },
            {
               "long_name" : "Sinop Merkez",
               "short_name" : "Sinop Merkez",
               "types" : [ "administrative_area_level_2", "political" ]
            },
            {
               "long_name" : "Sinop",
               "short_name" : "Sinop",
               "types" : [ "administrative_area_level_1", "political" ]
            },
            {
               "long_name" : "Turkey",
               "short_name" : "TR",
               "types" : [ "country", "political" ]
            }
         ],
         "formatted_address" : "Kefevi, Sinop Merkez/Sinop, Turkey",
         "geometry" : {
            "bounds" : {
               "northeast" : {
                  "lat" : 42.03188,
                  "lng" : 35.1647839
               },
               "southwest" : {
                  "lat" : 42.0225961,
                  "lng" : 35.1502761
               }
            },
            "location" : {
               "lat" : 42.0267324,
               "lng" : 35.1577084
            },
            "location_type" : "APPROXIMATE",
            "viewport" : {
               "northeast" : {
                  "lat" : 42.03188,
                  "lng" : 35.1647839
               },
               "southwest" : {
                  "lat" : 42.0225961,
                  "lng" : 35.1502761
               }
            }
         },
         "place_id" : "ChIJ_91OBucSj0ARzJgGNzJDj18",
         "types" : [ "administrative_area_level_4", "political" ]
      },
      {
         "address_components" : [
            {
               "long_name" : "Sinop",
               "short_name" : "Sinop",
               "types" : [ "locality", "political" ]
            },
            {
               "long_name" : "Sinop Merkez",
               "short_name" : "Sinop Merkez",
               "types" : [ "administrative_area_level_2", "political" ]
            },
            {
               "long_name" : "Sinop",
               "short_name" : "Sinop",
               "types" : [ "administrative_area_level_1", "political" ]
            },
            {
               "long_name" : "Turkey",
               "short_name" : "TR",
               "types" : [ "country", "political" ]
            }
         ],
         "formatted_address" : "Sinop, Sinop Merkez/Sinop, Turkey",
         "geometry" : {
            "bounds" : {
               "northeast" : {
                  "lat" : 42.034432,
                  "lng" : 35.192284
               },
               "southwest" : {
                  "lat" : 41.993839,
                  "lng" : 35.067527
               }
            },
            "location" : {
               "lat" : 42.02797400000001,
               "lng" : 35.151725
            },
            "location_type" : "APPROXIMATE",
            "viewport" : {
               "northeast" : {
                  "lat" : 42.034432,
                  "lng" : 35.192284
               },
               "southwest" : {
                  "lat" : 41.993839,
                  "lng" : 35.067527
               }
            }
         },
         "place_id" : "ChIJjXOGa94Sj0AR-0DG790uoc8",
         "types" : [ "locality", "political" ]
      },
      {
         "address_components" : [
            {
               "long_name" : "Sinop Merkez",
               "short_name" : "Sinop Merkez",
               "types" : [ "administrative_area_level_2", "political" ]
            },
            {
               "long_name" : "Sinop",
               "short_name" : "Sinop",
               "types" : [ "administrative_area_level_1", "political" ]
            },
            {
               "long_name" : "Turkey",
               "short_name" : "TR",
               "types" : [ "country", "political" ]
            }
         ],
         "formatted_address" : "Sinop Merkez/Sinop, Turkey",
         "geometry" : {
            "bounds" : {
               "northeast" : {
                  "lat" : 42.0983409,
                  "lng" : 35.211346
               },
               "southwest" : {
                  "lat" : 41.673322,
                  "lng" : 34.827623
               }
            },
            "location" : {
               "lat" : 41.9507792,
               "lng" : 35.0262998
            },
            "location_type" : "APPROXIMATE",
            "viewport" : {
               "northeast" : {
                  "lat" : 42.0983409,
                  "lng" : 35.211346
               },
               "southwest" : {
                  "lat" : 41.673322,
                  "lng" : 34.827623
               }
            }
         },
         "place_id" : "ChIJ5yIcQvBlj0ARuRDbQM2JHhg",
         "types" : [ "administrative_area_level_2", "political" ]
      },
      {
         "address_components" : [
            {
               "long_name" : "Sinop",
               "short_name" : "Sinop",
               "types" : [ "administrative_area_level_1", "political" ]
            },
            {
               "long_name" : "Turkey",
               "short_name" : "TR",
               "types" : [ "country", "political" ]
            }
         ],
         "formatted_address" : "Sinop, Turkey",
         "geometry" : {
            "bounds" : {
               "northeast" : {
                  "lat" : 42.098063,
                  "lng" : 35.452408
               },
               "southwest" : {
                  "lat" : 41.206098,
                  "lng" : 34.2281881
               }
            },
            "location" : {
               "lat" : 41.5594749,
               "lng" : 34.8580532
            },
            "location_type" : "APPROXIMATE",
            "viewport" : {
               "northeast" : {
                  "lat" : 42.098063,
                  "lng" : 35.452408
               },
               "southwest" : {
                  "lat" : 41.206098,
                  "lng" : 34.2281881
               }
            }
         },
         "place_id" : "ChIJh6ciCVKNhUARXCW1s5P8-g4",
         "types" : [ "administrative_area_level_1", "political" ]
      },
      {
         "address_components" : [
            {
               "long_name" : "Turkey",
               "short_name" : "TR",
               "types" : [ "country", "political" ]
            }
         ],
         "formatted_address" : "Turkey",
         "geometry" : {
            "bounds" : {
               "northeast" : {
                  "lat" : 42.3666999,
                  "lng" : 44.8178449
               },
               "southwest" : {
                  "lat" : 35.808592,
                  "lng" : 25.5377
               }
            },
            "location" : {
               "lat" : 38.963745,
               "lng" : 35.243322
            },
            "location_type" : "APPROXIMATE",
            "viewport" : {
               "northeast" : {
                  "lat" : 42.3666999,
                  "lng" : 44.8178449
               },
               "southwest" : {
                  "lat" : 35.808592,
                  "lng" : 25.5377
               }
            }
         },
         "place_id" : "ChIJcSZPllwVsBQRKl9iKtTb2UA",
         "types" : [ "country", "political" ]
      }
   ],
   "status" : "OK"
}
