{
   "plus_code" : {
      "compound_code" : "J32W+GXP Çakmak/Kars Merkez/Kars, Turkey",
      "global_code" : "8HG5J32W+GXP"
   },
   "results" : [
      {
         "address_components" : [
            {
               "long_name" : "11",
               "short_name" : "11",
               "types" : [ "street_number" ]
            },
            {
               "long_name" : "İsmet İnönü Caddesi",
               "short_name" : "İsmet İnönü Cd.",
               "types" : [ "route" ]
            },
            {
               "long_name" : "Cumhuriyet",
               "short_name" : "Cumhuriyet",
               "types" : [ "administrative_area_level_4", "political" ]
            },
            {
               "long_name" : "Kars Merkez",
               "short_name" : "Kars Merkez",
               "types" : [ "administrative_area_level_2", "political" ]
            },
            {
               "long_name" : "Kars",
               "short_name" : "Kars",
               "types" : [ "administrative_area_level_1", "political" ]
            },
            {
               "long_name" : "Turkey",
               "short_name" : "TR",
               "types" : [ "country", "political" ]
            },
            {
               "long_name" : "36000",
               "short_name" : "36000",
               "types" : [ "postal_code" ]
            }
         ],
         "formatted_address" : "Cumhuriyet, İsmet İnönü Cd. No:11, 36000 Kars Merkez/Kars, Turkey",
         "geometry" : {
            "location" : {
               "lat" : 40.6011836,
               "lng" : 43.0974226
            },
            "location_type" : "ROOFTOP",
            "viewport" : {
               "northeast" : {
                  "lat" : 40.6025325802915,
                  "lng" : 43.0987715802915
               },
               "southwest" : {
                  "lat" : 40.5998346197085,
                  "lng" : 43.0960736197085
               }
            }
         },
         "place_id" : "ChIJUeETZ9eOaUAR7vmhYZAGBR0",
         "plus_code" : {
            "compound_code" : "J32W+FX Çakmak/Kars Merkez/Kars, Turkey",
            "global_code" : "8HG5J32W+FX"
         },
         "types" : [ "street_address" ]
      },
      {
         "address_components" : [
            {
               "long_name" : "12",
               "short_name" : "12",
               "types" : [ "street_number" ]
            },
            {
               "long_name" : "İsmet İnönü Caddesi",
               "short_name" : "İsmet İnönü Cd.",
               "types" : [ "route" ]
            },
            {
               "long_name" : "Cumhuriyet",
               "short_name" : "Cumhuriyet",
               "types" : [ "administrative_area_level_4", "political" ]
            },
            {
               "long_name" : "Kars Merkez",
               "short_name" : "Kars Merkez",
               "types" : [ "administrative_area_level_2", "political" ]
            },
            {
               "long_name" : "Kars",
               "short_name" : "Kars",
               "types" : [ "administrative_area_level_1", "political" ]
            },
            {
               "long_name" : "Turkey",
               "short_name" : "TR",
               "types" : [ "country", "political" ]
            },
            {
               "long_name" : "36000",
               "short_name" : "36000",
               "types" : [ "postal_code" ]
            }
         ],
         "formatted_address" : "Cumhuriyet, İsmet İnönü Cd. No:12, 36000 Kars Merkez/Kars, Turkey",
         "geometry" : {
            "location" : {
               "lat" : 40.6012795,
               "lng" : 43.0973414
            },
            "location_type" : "RANGE_INTERPOLATED",
            "viewport" : {
               "northeast" : {
                  "lat" : 40.60262848029149,
                  "lng" : 43.09869038029149
               },
               "southwest" : {
                  "lat" : 40.59993051970849,
                  "lng" : 43.09599241970849
               }
            }
         },
         "place_id" : "EkVDdW1odXJpeWV0LCDEsHNtZXQgxLBuw7Zuw7wgQ2QuIE5vOjEyLCAzNjAwMCBLYXJzIE1lcmtlei9LYXJzLCBUdXJrZXkiGhIYChQKEglBA_16145pQBHUySivFhj7cBAM",
         "types" : [ "street_address" ]
      },
      {
         "address_components" : [
            {
               "long_name" : "12-18",
               "short_name" : "12-18",
               "types" : [ "street_number" ]
            },
            {
               "long_name" : "İsmet İnönü Caddesi",
               "short_name" : "İsmet İnönü Cd.",
               "types" : [ "route" ]
            },
            {
               "long_name" : "Cumhuriyet",
               "short_name" : "Cumhuriyet",
               "types" : [ "administrative_area_level_4", "political" ]
            },
            {
               "long_name" : "Kars Merkez",
               "short_name" : "Kars Merkez",
               "types" : [ "administrative_area_level_2", "political" ]
            },
            {
               "long_name" : "Kars",
               "short_name" : "Kars",
               "types" : [ "administrative_area_level_1", "political" ]
            },
            {
               "long_name" : "Turkey",
               "short_name" : "TR",
               "types" : [ "country", "political" ]
            },
            {
               "long_name" : "36000",
               "short_name" : "36000",
               "types" : [ "postal_code" ]
            }
         ],
         "formatted_address" : "Cumhuriyet, İsmet İnönü Cd. 12-18, 36000 Kars Merkez/Kars, Turkey",
         "geometry" : {
            "bounds" : {
               "northeast" : {
                  "lat" : 40.6013491,
                  "lng" : 43.0974152
               },
               "southwest" : {
                  "lat" : 40.6008141,
                  "lng" : 43.0968478
               }
            },
            "location" : {
               "lat" : 40.6010816,
               "lng" : 43.0971315
            },
            "location_type" : "GEOMETRIC_CENTER",
            "viewport" : {
               "northeast" : {
                  "lat" : 40.6024305802915,
                  "lng" : 43.0984804802915
               },
               "southwest" : {
                  "lat" : 40.5997326197085,
                  "lng" : 43.0957825197085
               }
            }
         },
         "place_id" : "ChIJQQP9eteOaUAR1MkorxYY-3A",
         "types" : [ "route" ]
      },
      {
         "address_components" : [
            {
               "long_name" : "J32W+GX",
               "short_name" : "J32W+GX",
               "types" : [ "plus_code" ]
            },
            {
               "long_name" : "Çakmak",
               "short_name" : "Çakmak",
               "types" : [ "administrative_area_level_3", "political" ]
            },
            {
               "long_name" : "Kars Merkez",
               "short_name" : "Kars Merkez",
               "types" : [ "administrative_area_level_2", "political" ]
            },
            {
               "long_name" : "Kars",
               "short_name" : "Kars",
               "types" : [ "administrative_area_level_1", "political" ]
            },
            {
               "long_name" : "Turkey",
               "short_name" : "TR",
               "types" : [ "country", "political" ]
            }
         ],
         "formatted_address" : "J32W+GX Çakmak/Kars Merkez/Kars, Turkey",
         "geometry" : {
            "bounds" : {
               "northeast" : {
                  "lat" : 40.601375,
                  "lng" : 43.0975
               },
               "southwest" : {
                  "lat" : 40.60125,
                  "lng" : 43.097375
               }
            },
            "location" : {
               "lat" : 40.6013378,
               "lng" : 43.0974525
            },
            "location_type" : "GEOMETRIC_CENTER",
            "viewport" : {
               "northeast" : {
                  "lat" : 40.60266148029149,
                  "lng" : 43.09878648029149
               },
               "southwest" : {
                  "lat" : 40.5999635197085,
                  "lng" : 43.0960885197085
               }
            }
         },
         "place_id" : "GhIJnmwUo_hMREAR6zTSUnmMRUA",
         "plus_code" : {
            "compound_code" : "J32W+GX Çakmak/Kars Merkez/Kars, Turkey",
            "global_code" : "8HG5J32W+GX"
         },
         "types" : [ "plus_code" ]
      },
      {
         "address_components" : [
            {
               "long_name" : "36000",
               "short_name" : "36000",
               "types" : [ "postal_code" ]
            },
            {
               "long_name" : "Cumhuriyet",
               "short_name" : "Cumhuriyet",
               "types" : [ "administrative_area_level_4", "political" ]
            },
            {
               "long_name" : "Kars Merkez",
               "short_name" : "Kars Merkez",
               "types" : [ "administrative_area_level_2", "political" ]
            },
            {
               "long_name" : "Kars",
               "short_name" : "Kars",
               "types" : [ "administrative_area_level_1", "political" ]
            },
            {
               "long_name" : "Turkey",
               "short_name" : "TR",
               "types" : [ "country", "political" ]
            }
         ],
         "formatted_address" : "Cumhuriyet, 36000 Kars Merkez/Kars, Turkey",
         "geometry" : {
            "bounds" : {
               "northeast" : {
                  "lat" : 40.607497,
                  "lng" : 43.10315200000001
               },
               "southwest" : {
                  "lat" : 40.59566299999999,
                  "lng" : 43.0911939
               }
            },
            "location" : {
               "lat" : 40.5994455,
               "lng" : 43.0958407
            },
            "location_type" : "APPROXIMATE",
            "viewport" : {
               "northeast" : {
                  "lat" : 40.607497,
                  "lng" : 43.10315200000001
               },
               "southwest" : {
                  "lat" : 40.59566299999999,
                  "lng" : 43.0911939
               }
            }
         },
         "place_id" : "ChIJG-S54dmOaUARoNRJeCXABYA",
         "types" : [ "postal_code" ]
      },
      {
         "address_components" : [
            {
               "long_name" : "Cumhuriyet",
               "short_name" : "Cumhuriyet",
               "types" : [ "administrative_area_level_4", "political" ]
            },
            {
               "long_name" : "Kars Merkez",
               "short_name" : "Kars Merkez",
               "types" : [ "administrative_area_level_2", "political" ]
            },
            {
               "long_name" : "Kars",
               "short_name" : "Kars",
               "types" : [ "administrative_area_level_1", "political" ]
            },
            {
               "long_name" : "Turkey",
               "short_name" : "TR",
               "types" : [ "country", "political" ]
            },
            {
               "long_name" : "36000",
               "short_name" : "36000",
               "types" : [ "postal_code" ]
            }
         ],
         "formatted_address" : "Cumhuriyet, 36000 Kars Merkez/Kars, Turkey",
         "geometry" : {
            "bounds" : {
               "northeast" : {
                  "lat" : 40.607497,
                  "lng" : 43.10315200000001
               },
               "southwest" : {
                  "lat" : 40.59566299999999,
                  "lng" : 43.0911939
               }
            },
            "location" : {
               "lat" : 40.5994455,
               "lng" : 43.0958407
            },
            "location_type" : "APPROXIMATE",
            "viewport" : {
               "northeast" : {
                  "lat" : 40.607497,
                  "lng" : 43.10315200000001
               },
               "southwest" : {
                  "lat" : 40.59566299999999,
                  "lng" : 43.0911939
               }
            }
         },
         "place_id" : "ChIJG-S54dmOaUAROjn2tzXvfbw",
         "types" : [ "administrative_area_level_4", "political" ]
      },
      {
         "address_components" : [
            {
               "long_name" : "Kars",
               "short_name" : "Kars",
               "types" : [ "locality", "political" ]
            },
            {
               "long_name" : "Kars Merkez",
               "short_name" : "Kars Merkez",
               "types" : [ "administrative_area_level_2", "political" ]
            },
            {
               "long_name" : "Kars",
               "short_name" : "Kars",
               "types" : [ "administrative_area_level_1", "political" ]
            },
            {
               "long_name" : "Turkey",
               "short_name" : "TR",
               "types" : [ "country", "political" ]
            }
         ],
         "formatted_address" : "Kars, Kars Merkez/Kars, Turkey",
         "geometry" : {
            "bounds" : {
               "northeast" : {
                  "lat" : 40.6233371,
                  "lng" : 43.13252380000001
               },
               "southwest" : {
                  "lat" : 40.570057,
                  "lng" : 43.071051
               }
            },
            "location" : {
               "lat" : 40.6013378,
               "lng" : 43.0974525
            },
            "location_type" : "APPROXIMATE",
            "viewport" : {
               "northeast" : {
                  "lat" : 40.6233371,
                  "lng" : 43.13252380000001
               },
               "southwest" : {
                  "lat" : 40.570057,
                  "lng" : 43.071051
               }
            }
         },
         "place_id" : "ChIJZyJzzdmOaUARFtKE6RdRbQQ",
         "types" : [ "locality", "political" ]
      },
      {
         "address_components" : [
            {
               "long_name" : "Kars Merkez",
               "short_name" : "Kars Merkez",
               "types" : [ "administrative_area_level_2", "political" ]
            },
            {
               "long_name" : "Kars",
               "short_name" : "Kars",
               "types" : [ "administrative_area_level_1", "political" ]
            },
            {
               "long_name" : "Turkey",
               "short_name" : "TR",
               "types" : [ "country", "political" ]
            }
         ],
         "formatted_address" : "Kars Merkez/Kars, Turkey",
         "geometry" : {
            "bounds" : {
               "northeast" : {
                  "lat" : 40.81604,
                  "lng" : 43.7060709
               },
               "southwest" : {
                  "lat" : 40.308506,
                  "lng" : 42.800113
               }
            },
            "location" : {
               "lat" : 40.6161599,
               "lng" : 43.1451679
            },
            "location_type" : "APPROXIMATE",
            "viewport" : {
               "northeast" : {
                  "lat" : 40.81604,
                  "lng" : 43.7060709
               },
               "southwest" : {
                  "lat" : 40.308506,
                  "lng" : 42.800113
               }
            }
         },
         "place_id" : "ChIJgfrU_fImakARuDVT-gOcxd0",
         "types" : [ "administrative_area_level_2", "political" ]
      },
      {
         "address_components" : [
            {
               "long_name" : "Kars",
               "short_name" : "Kars",
               "types" : [ "administrative_area_level_1", "political" ]
            },
            {
               "long_name" : "Turkey",
               "short_name" : "TR",
               "types" : [ "country", "political" ]
            }
         ],
         "formatted_address" : "Kars, Turkey",
         "geometry" : {
            "bounds" : {
               "northeast" : {
                  "lat" : 41.104951,
                  "lng" : 43.7498509
               },
               "southwest" : {
                  "lat" : 39.9131069,
                  "lng" : 42.118287
               }
            },
            "location" : {
               "lat" : 40.2807636,
               "lng" : 42.9919527
            },
            "location_type" : "APPROXIMATE",
            "viewport" : {
               "northeast" : {
                  "lat" : 41.104951,
                  "lng" : 43.7498509
               },
               "southwest" : {
                  "lat" : 39.9131069,
                  "lng" : 42.118287
               }
            }
         },
         "place_id" : "ChIJm0ygH9SDaUARlmwDpJ9iD2o",
         "types" : [ "administrative_area_level_1", "political" ]
      },
      {
         "address_components" : [
            {
               "long_name" : "Turkey",
               "short_name" : "TR",
               "types" : [ "country", "political" ]
            }
         ],
         "formatted_address" : "Turkey",
         "geometry" : {
            "bounds" : {
               "northeast" : {
                  "lat" : 42.3666999,
                  "lng" : 44.8178449
               },
               "southwest" : {
                  "lat" : 35.808592,
                  "lng" : 25.5377
               }
            },
            "location" : {
               "lat" : 38.963745,
               "lng" : 35.243322
            },
            "location_type" : "APPROXIMATE",
            "viewport" : {
               "northeast" : {
                  "lat" : 42.3666999,
                  "lng" : 44.8178449
               },
               "southwest" : {
                  "lat" : 35.808592,
                  "lng" : 25.5377
               }
            }
         },
         "place_id" : "ChIJcSZPllwVsBQRKl9iKtTb2UA",
         "types" : [ "country", "political" ]
      }
   ],
   "status" : "OK"
}
