{
   "plus_code" : {
      "compound_code" : "36FX+F4H Silivri/İstanbul, Turkey",
      "global_code" : "8GHC36FX+F4H"
   },
   "results" : [
      {
         "address_components" : [
            {
               "long_name" : "72",
               "short_name" : "72",
               "types" : [ "street_number" ]
            },
            {
               "long_name" : "Başkomutan Caddesi",
               "short_name" : "Başkomutan Cd",
               "types" : [ "route" ]
            },
            {
               "long_name" : "Alibey",
               "short_name" : "Alibey",
               "types" : [ "administrative_area_level_4", "political" ]
            },
            {
               "long_name" : "Silivri",
               "short_name" : "Silivri",
               "types" : [ "administrative_area_level_2", "political" ]
            },
            {
               "long_name" : "İstanbul",
               "short_name" : "İstanbul",
               "types" : [ "administrative_area_level_1", "political" ]
            },
            {
               "long_name" : "Turkey",
               "short_name" : "TR",
               "types" : [ "country", "political" ]
            },
            {
               "long_name" : "34570",
               "short_name" : "34570",
               "types" : [ "postal_code" ]
            }
         ],
         "formatted_address" : "Alibey, Başkomutan Cd No:72, 34570 Silivri/İstanbul, Turkey",
         "geometry" : {
            "location" : {
               "lat" : 41.0736852,
               "lng" : 28.2478597
            },
            "location_type" : "RANGE_INTERPOLATED",
            "viewport" : {
               "northeast" : {
                  "lat" : 41.0750341802915,
                  "lng" : 28.2492086802915
               },
               "southwest" : {
                  "lat" : 41.0723362197085,
                  "lng" : 28.2465107197085
               }
            }
         },
         "place_id" : "Ej1BbGliZXksIEJhxZ9rb211dGFuIENkIE5vOjcyLCAzNDU3MCBTaWxpdnJpL8Swc3RhbmJ1bCwgVHVya2V5IhoSGAoUChIJscPmm4MVtRQRxN7LS-pciKAQSA",
         "types" : [ "street_address" ]
      },
      {
         "address_components" : [
            {
               "long_name" : "72",
               "short_name" : "72",
               "types" : [ "street_number" ]
            },
            {
               "long_name" : "Başkomutan Caddesi",
               "short_name" : "Başkomutan Cd",
               "types" : [ "route" ]
            },
            {
               "long_name" : "Alibey",
               "short_name" : "Alibey",
               "types" : [ "administrative_area_level_4", "political" ]
            },
            {
               "long_name" : "Silivri",
               "short_name" : "Silivri",
               "types" : [ "administrative_area_level_2", "political" ]
            },
            {
               "long_name" : "İstanbul",
               "short_name" : "İstanbul",
               "types" : [ "administrative_area_level_1", "political" ]
            },
            {
               "long_name" : "Turkey",
               "short_name" : "TR",
               "types" : [ "country", "political" ]
            },
            {
               "long_name" : "34570",
               "short_name" : "34570",
               "types" : [ "postal_code" ]
            }
         ],
         "formatted_address" : "Alibey, Başkomutan Cd No:72, 34570 Silivri/İstanbul, Turkey",
         "geometry" : {
            "bounds" : {
               "northeast" : {
                  "lat" : 41.0736852,
                  "lng" : 28.247927
               },
               "southwest" : {
                  "lat" : 41.073663,
                  "lng" : 28.2478597
               }
            },
            "location" : {
               "lat" : 41.0736741,
               "lng" : 28.2478934
            },
            "location_type" : "GEOMETRIC_CENTER",
            "viewport" : {
               "northeast" : {
                  "lat" : 41.07502308029149,
                  "lng" : 28.2492423302915
               },
               "southwest" : {
                  "lat" : 41.0723251197085,
                  "lng" : 28.2465443697085
               }
            }
         },
         "place_id" : "ChIJscPmm4MVtRQRxN7LS-pciKA",
         "types" : [ "route" ]
      },
      {
         "address_components" : [
            {
               "long_name" : "36FX+F4",
               "short_name" : "36FX+F4",
               "types" : [ "plus_code" ]
            },
            {
               "long_name" : "Silivri",
               "short_name" : "Silivri",
               "types" : [ "administrative_area_level_2", "political" ]
            },
            {
               "long_name" : "İstanbul",
               "short_name" : "İstanbul",
               "types" : [ "administrative_area_level_1", "political" ]
            },
            {
               "long_name" : "Turkey",
               "short_name" : "TR",
               "types" : [ "country", "political" ]
            }
         ],
         "formatted_address" : "36FX+F4 Silivri/İstanbul, Turkey",
         "geometry" : {
            "bounds" : {
               "northeast" : {
                  "lat" : 41.07375,
                  "lng" : 28.247875
               },
               "southwest" : {
                  "lat" : 41.073625,
                  "lng" : 28.24775
               }
            },
            "location" : {
               "lat" : 41.073678,
               "lng" : 28.247868
            },
            "location_type" : "GEOMETRIC_CENTER",
            "viewport" : {
               "northeast" : {
                  "lat" : 41.07503648029149,
                  "lng" : 28.2491614802915
               },
               "southwest" : {
                  "lat" : 41.0723385197085,
                  "lng" : 28.2464635197085
               }
            }
         },
         "place_id" : "GhIJpDfcR26JREARlbn5RnQ_PEA",
         "plus_code" : {
            "compound_code" : "36FX+F4 Silivri/İstanbul, Turkey",
            "global_code" : "8GHC36FX+F4"
         },
         "types" : [ "plus_code" ]
      },
      {
         "address_components" : [
            {
               "long_name" : "Alibey",
               "short_name" : "Alibey",
               "types" : [ "administrative_area_level_4", "political" ]
            },
            {
               "long_name" : "Silivri",
               "short_name" : "Silivri",
               "types" : [ "administrative_area_level_2", "political" ]
            },
            {
               "long_name" : "İstanbul",
               "short_name" : "İstanbul",
               "types" : [ "administrative_area_level_1", "political" ]
            },
            {
               "long_name" : "Turkey",
               "short_name" : "TR",
               "types" : [ "country", "political" ]
            },
            {
               "long_name" : "34570",
               "short_name" : "34570",
               "types" : [ "postal_code" ]
            }
         ],
         "formatted_address" : "Alibey, 34570 Silivri/İstanbul, Turkey",
         "geometry" : {
            "bounds" : {
               "northeast" : {
                  "lat" : 41.0764891,
                  "lng" : 28.26595
               },
               "southwest" : {
                  "lat" : 41.06917,
                  "lng" : 28.2471359
               }
            },
            "location" : {
               "lat" : 41.0704928,
               "lng" : 28.2541241
            },
            "location_type" : "APPROXIMATE",
            "viewport" : {
               "northeast" : {
                  "lat" : 41.0764891,
                  "lng" : 28.26595
               },
               "southwest" : {
                  "lat" : 41.06917,
                  "lng" : 28.2471359
               }
            }
         },
         "place_id" : "ChIJzQZMDV4VtRQRtOKBko3wDQA",
         "types" : [ "administrative_area_level_4", "political" ]
      },
      {
         "address_components" : [
            {
               "long_name" : "34570",
               "short_name" : "34570",
               "types" : [ "postal_code" ]
            },
            {
               "long_name" : "Alibey",
               "short_name" : "Alibey",
               "types" : [ "administrative_area_level_4", "political" ]
            },
            {
               "long_name" : "Silivri",
               "short_name" : "Silivri",
               "types" : [ "administrative_area_level_2", "political" ]
            },
            {
               "long_name" : "İstanbul",
               "short_name" : "İstanbul",
               "types" : [ "administrative_area_level_1", "political" ]
            },
            {
               "long_name" : "Turkey",
               "short_name" : "TR",
               "types" : [ "country", "political" ]
            }
         ],
         "formatted_address" : "Alibey, 34570 Silivri/İstanbul, Turkey",
         "geometry" : {
            "bounds" : {
               "northeast" : {
                  "lat" : 41.0764891,
                  "lng" : 28.26595
               },
               "southwest" : {
                  "lat" : 41.06917,
                  "lng" : 28.2471359
               }
            },
            "location" : {
               "lat" : 41.0728178,
               "lng" : 28.2541241
            },
            "location_type" : "APPROXIMATE",
            "viewport" : {
               "northeast" : {
                  "lat" : 41.0764891,
                  "lng" : 28.26595
               },
               "southwest" : {
                  "lat" : 41.06917,
                  "lng" : 28.2471359
               }
            }
         },
         "place_id" : "ChIJU67yMHkVtRQRrV5kZZnwPfI",
         "types" : [ "postal_code" ]
      },
      {
         "address_components" : [
            {
               "long_name" : "Silivri",
               "short_name" : "Silivri",
               "types" : [ "locality", "political" ]
            },
            {
               "long_name" : "Silivri",
               "short_name" : "Silivri",
               "types" : [ "administrative_area_level_2", "political" ]
            },
            {
               "long_name" : "İstanbul",
               "short_name" : "İstanbul",
               "types" : [ "administrative_area_level_1", "political" ]
            },
            {
               "long_name" : "Turkey",
               "short_name" : "TR",
               "types" : [ "country", "political" ]
            }
         ],
         "formatted_address" : "Silivri, İstanbul, Turkey",
         "geometry" : {
            "bounds" : {
               "northeast" : {
                  "lat" : 41.11255209999999,
                  "lng" : 28.395504
               },
               "southwest" : {
                  "lat" : 41.03134,
                  "lng" : 28.006102
               }
            },
            "location" : {
               "lat" : 41.073678,
               "lng" : 28.247868
            },
            "location_type" : "APPROXIMATE",
            "viewport" : {
               "northeast" : {
                  "lat" : 41.11255209999999,
                  "lng" : 28.395504
               },
               "southwest" : {
                  "lat" : 41.03134,
                  "lng" : 28.006102
               }
            }
         },
         "place_id" : "ChIJAem_xNs_tRQRtlXaOf5_Y28",
         "types" : [ "locality", "political" ]
      },
      {
         "address_components" : [
            {
               "long_name" : "Silivri",
               "short_name" : "Silivri",
               "types" : [ "administrative_area_level_2", "political" ]
            },
            {
               "long_name" : "İstanbul",
               "short_name" : "İstanbul",
               "types" : [ "administrative_area_level_1", "political" ]
            },
            {
               "long_name" : "Turkey",
               "short_name" : "TR",
               "types" : [ "country", "political" ]
            }
         ],
         "formatted_address" : "Silivri/İstanbul, Turkey",
         "geometry" : {
            "bounds" : {
               "northeast" : {
                  "lat" : 41.3590389,
                  "lng" : 28.395472
               },
               "southwest" : {
                  "lat" : 41.03134,
                  "lng" : 27.971373
               }
            },
            "location" : {
               "lat" : 41.1658079,
               "lng" : 28.2058768
            },
            "location_type" : "APPROXIMATE",
            "viewport" : {
               "northeast" : {
                  "lat" : 41.3590389,
                  "lng" : 28.395472
               },
               "southwest" : {
                  "lat" : 41.03134,
                  "lng" : 27.971373
               }
            }
         },
         "place_id" : "ChIJxawq5J85tRQRTxaaa5CEH2c",
         "types" : [ "administrative_area_level_2", "political" ]
      },
      {
         "address_components" : [
            {
               "long_name" : "İstanbul",
               "short_name" : "İstanbul",
               "types" : [ "administrative_area_level_1", "political" ]
            },
            {
               "long_name" : "Turkey",
               "short_name" : "TR",
               "types" : [ "country", "political" ]
            }
         ],
         "formatted_address" : "İstanbul, Turkey",
         "geometry" : {
            "bounds" : {
               "northeast" : {
                  "lat" : 41.58461,
                  "lng" : 29.915705
               },
               "southwest" : {
                  "lat" : 40.8026889,
                  "lng" : 27.971373
               }
            },
            "location" : {
               "lat" : 41.1634302,
               "lng" : 28.7664408
            },
            "location_type" : "APPROXIMATE",
            "viewport" : {
               "northeast" : {
                  "lat" : 41.58461,
                  "lng" : 29.915705
               },
               "southwest" : {
                  "lat" : 40.8026889,
                  "lng" : 27.971373
               }
            }
         },
         "place_id" : "ChIJexVgWlG2yhQR6B1akfSarCI",
         "types" : [ "administrative_area_level_1", "political" ]
      },
      {
         "address_components" : [
            {
               "long_name" : "Turkey",
               "short_name" : "TR",
               "types" : [ "country", "political" ]
            }
         ],
         "formatted_address" : "Turkey",
         "geometry" : {
            "bounds" : {
               "northeast" : {
                  "lat" : 42.3666999,
                  "lng" : 44.8178449
               },
               "southwest" : {
                  "lat" : 35.808592,
                  "lng" : 25.5377
               }
            },
            "location" : {
               "lat" : 38.963745,
               "lng" : 35.243322
            },
            "location_type" : "APPROXIMATE",
            "viewport" : {
               "northeast" : {
                  "lat" : 42.3666999,
                  "lng" : 44.8178449
               },
               "southwest" : {
                  "lat" : 35.808592,
                  "lng" : 25.5377
               }
            }
         },
         "place_id" : "ChIJcSZPllwVsBQRKl9iKtTb2UA",
         "types" : [ "country", "political" ]
      }
   ],
   "status" : "OK"
}
