{
   "plus_code" : {
      "compound_code" : "3W6M+593 Gaziosmanpaşa/İstanbul, Turkey",
      "global_code" : "8GHC3W6M+593"
   },
   "results" : [
      {
         "address_components" : [
            {
               "long_name" : "34",
               "short_name" : "34",
               "types" : [ "street_number" ]
            },
            {
               "long_name" : "Şehnaz Caddesi",
               "short_name" : "Şehnaz Cd.",
               "types" : [ "route" ]
            },
            {
               "long_name" : "Pazariçi",
               "short_name" : "Pazariçi",
               "types" : [ "administrative_area_level_4", "political" ]
            },
            {
               "long_name" : "Gaziosmanpaşa",
               "short_name" : "Gaziosmanpaşa",
               "types" : [ "administrative_area_level_2", "political" ]
            },
            {
               "long_name" : "İstanbul",
               "short_name" : "İstanbul",
               "types" : [ "administrative_area_level_1", "political" ]
            },
            {
               "long_name" : "Turkey",
               "short_name" : "TR",
               "types" : [ "country", "political" ]
            },
            {
               "long_name" : "34240",
               "short_name" : "34240",
               "types" : [ "postal_code" ]
            }
         ],
         "formatted_address" : "Pazariçi, Şehnaz Cd. No:34, 34240 Gaziosmanpaşa/İstanbul, Turkey",
         "geometry" : {
            "location" : {
               "lat" : 41.0603525,
               "lng" : 28.9334931
            },
            "location_type" : "ROOFTOP",
            "viewport" : {
               "northeast" : {
                  "lat" : 41.0617014802915,
                  "lng" : 28.9348420802915
               },
               "southwest" : {
                  "lat" : 41.0590035197085,
                  "lng" : 28.9321441197085
               }
            }
         },
         "place_id" : "ChIJRYl9Ar-wyhQRwBAh5JXE3RA",
         "plus_code" : {
            "compound_code" : "3W6M+49 Gaziosmanpaşa/İstanbul, Turkey",
            "global_code" : "8GHC3W6M+49"
         },
         "types" : [ "street_address" ]
      },
      {
         "address_components" : [
            {
               "long_name" : "Şehnaz Caddesi",
               "short_name" : "Şehnaz Caddesi",
               "types" : [ "establishment", "point_of_interest", "transit_station" ]
            },
            {
               "long_name" : "Pazariçi",
               "short_name" : "Pazariçi",
               "types" : [ "administrative_area_level_4", "political" ]
            },
            {
               "long_name" : "Gaziosmanpaşa",
               "short_name" : "Gaziosmanpaşa",
               "types" : [ "administrative_area_level_2", "political" ]
            },
            {
               "long_name" : "İstanbul",
               "short_name" : "İstanbul",
               "types" : [ "administrative_area_level_1", "political" ]
            },
            {
               "long_name" : "Turkey",
               "short_name" : "TR",
               "types" : [ "country", "political" ]
            },
            {
               "long_name" : "34240",
               "short_name" : "34240",
               "types" : [ "postal_code" ]
            }
         ],
         "formatted_address" : "Pazariçi, Şehnaz Caddesi, 34240 Gaziosmanpaşa/İstanbul, Turkey",
         "geometry" : {
            "location" : {
               "lat" : 41.06052,
               "lng" : 28.93352
            },
            "location_type" : "GEOMETRIC_CENTER",
            "viewport" : {
               "northeast" : {
                  "lat" : 41.0618689802915,
                  "lng" : 28.9348689802915
               },
               "southwest" : {
                  "lat" : 41.0591710197085,
                  "lng" : 28.9321710197085
               }
            }
         },
         "place_id" : "ChIJnR0JGr-wyhQRRk6TbJlfX-c",
         "plus_code" : {
            "compound_code" : "3W6M+6C Gaziosmanpaşa/İstanbul, Turkey",
            "global_code" : "8GHC3W6M+6C"
         },
         "types" : [ "establishment", "point_of_interest", "transit_station" ]
      },
      {
         "address_components" : [
            {
               "long_name" : "101",
               "short_name" : "101",
               "types" : [ "street_number" ]
            },
            {
               "long_name" : "Şehnaz Caddesi",
               "short_name" : "Şehnaz Cd.",
               "types" : [ "route" ]
            },
            {
               "long_name" : "Pazariçi",
               "short_name" : "Pazariçi",
               "types" : [ "administrative_area_level_4", "political" ]
            },
            {
               "long_name" : "Gaziosmanpaşa",
               "short_name" : "Gaziosmanpaşa",
               "types" : [ "administrative_area_level_2", "political" ]
            },
            {
               "long_name" : "İstanbul",
               "short_name" : "İstanbul",
               "types" : [ "administrative_area_level_1", "political" ]
            },
            {
               "long_name" : "Turkey",
               "short_name" : "TR",
               "types" : [ "country", "political" ]
            },
            {
               "long_name" : "34240",
               "short_name" : "34240",
               "types" : [ "postal_code" ]
            }
         ],
         "formatted_address" : "Pazariçi, Şehnaz Cd. No:101, 34240 Gaziosmanpaşa/İstanbul, Turkey",
         "geometry" : {
            "location" : {
               "lat" : 41.0604352,
               "lng" : 28.9333161
            },
            "location_type" : "RANGE_INTERPOLATED",
            "viewport" : {
               "northeast" : {
                  "lat" : 41.0617841802915,
                  "lng" : 28.9346650802915
               },
               "southwest" : {
                  "lat" : 41.0590862197085,
                  "lng" : 28.9319671197085
               }
            }
         },
         "place_id" : "EkVQYXphcmnDp2ksIMWeZWhuYXogQ2QuIE5vOjEwMSwgMzQyNDAgR2F6aW9zbWFucGHFn2EvxLBzdGFuYnVsLCBUdXJrZXkiGhIYChQKEgmP46QEv7DKFBHi6lJ6utu7phBl",
         "types" : [ "street_address" ]
      },
      {
         "address_components" : [
            {
               "long_name" : "26-34",
               "short_name" : "26-34",
               "types" : [ "street_number" ]
            },
            {
               "long_name" : "Gül Bahar Sokak",
               "short_name" : "Gül Bahar Sk.",
               "types" : [ "route" ]
            },
            {
               "long_name" : "Pazariçi",
               "short_name" : "Pazariçi",
               "types" : [ "administrative_area_level_4", "political" ]
            },
            {
               "long_name" : "Gaziosmanpaşa",
               "short_name" : "Gaziosmanpaşa",
               "types" : [ "administrative_area_level_2", "political" ]
            },
            {
               "long_name" : "İstanbul",
               "short_name" : "İstanbul",
               "types" : [ "administrative_area_level_1", "political" ]
            },
            {
               "long_name" : "Turkey",
               "short_name" : "TR",
               "types" : [ "country", "political" ]
            },
            {
               "long_name" : "34240",
               "short_name" : "34240",
               "types" : [ "postal_code" ]
            }
         ],
         "formatted_address" : "Pazariçi, Gül Bahar Sk. 26-34, 34240 Gaziosmanpaşa/İstanbul, Turkey",
         "geometry" : {
            "bounds" : {
               "northeast" : {
                  "lat" : 41.0603915,
                  "lng" : 28.9336649
               },
               "southwest" : {
                  "lat" : 41.06002480000001,
                  "lng" : 28.933424
               }
            },
            "location" : {
               "lat" : 41.0602082,
               "lng" : 28.9335445
            },
            "location_type" : "GEOMETRIC_CENTER",
            "viewport" : {
               "northeast" : {
                  "lat" : 41.0615571302915,
                  "lng" : 28.9348934302915
               },
               "southwest" : {
                  "lat" : 41.05885916970851,
                  "lng" : 28.9321954697085
               }
            }
         },
         "place_id" : "ChIJRZEPHL-wyhQRNr1XoYR0Iw8",
         "types" : [ "route" ]
      },
      {
         "address_components" : [
            {
               "long_name" : "3W6M+59",
               "short_name" : "3W6M+59",
               "types" : [ "plus_code" ]
            },
            {
               "long_name" : "Gaziosmanpaşa",
               "short_name" : "Gaziosmanpaşa",
               "types" : [ "administrative_area_level_2", "political" ]
            },
            {
               "long_name" : "İstanbul",
               "short_name" : "İstanbul",
               "types" : [ "administrative_area_level_1", "political" ]
            },
            {
               "long_name" : "Turkey",
               "short_name" : "TR",
               "types" : [ "country", "political" ]
            }
         ],
         "formatted_address" : "3W6M+59 Gaziosmanpaşa/İstanbul, Turkey",
         "geometry" : {
            "bounds" : {
               "northeast" : {
                  "lat" : 41.0605,
                  "lng" : 28.9335
               },
               "southwest" : {
                  "lat" : 41.060375,
                  "lng" : 28.933375
               }
            },
            "location" : {
               "lat" : 41.0603915,
               "lng" : 28.933424
            },
            "location_type" : "GEOMETRIC_CENTER",
            "viewport" : {
               "northeast" : {
                  "lat" : 41.0617864802915,
                  "lng" : 28.9347864802915
               },
               "southwest" : {
                  "lat" : 41.0590885197085,
                  "lng" : 28.9320885197085
               }
            }
         },
         "place_id" : "GhIJa7qe6LqHREARLk0R4PTuPEA",
         "plus_code" : {
            "compound_code" : "3W6M+59 Gaziosmanpaşa/İstanbul, Turkey",
            "global_code" : "8GHC3W6M+59"
         },
         "types" : [ "plus_code" ]
      },
      {
         "address_components" : [
            {
               "long_name" : "34240",
               "short_name" : "34240",
               "types" : [ "postal_code" ]
            },
            {
               "long_name" : "Pazariçi",
               "short_name" : "Pazariçi",
               "types" : [ "administrative_area_level_4", "political" ]
            },
            {
               "long_name" : "Gaziosmanpaşa",
               "short_name" : "Gaziosmanpaşa",
               "types" : [ "administrative_area_level_2", "political" ]
            },
            {
               "long_name" : "İstanbul",
               "short_name" : "İstanbul",
               "types" : [ "administrative_area_level_1", "political" ]
            },
            {
               "long_name" : "Turkey",
               "short_name" : "TR",
               "types" : [ "country", "political" ]
            }
         ],
         "formatted_address" : "Pazariçi, 34240 Gaziosmanpaşa/İstanbul, Turkey",
         "geometry" : {
            "bounds" : {
               "northeast" : {
                  "lat" : 41.062812,
                  "lng" : 28.939144
               },
               "southwest" : {
                  "lat" : 41.056585,
                  "lng" : 28.93056289999999
               }
            },
            "location" : {
               "lat" : 41.0590593,
               "lng" : 28.9346689
            },
            "location_type" : "APPROXIMATE",
            "viewport" : {
               "northeast" : {
                  "lat" : 41.062812,
                  "lng" : 28.939144
               },
               "southwest" : {
                  "lat" : 41.056585,
                  "lng" : 28.93056289999999
               }
            }
         },
         "place_id" : "ChIJEVCtKb-wyhQRVsTXt-XpMo0",
         "types" : [ "postal_code" ]
      },
      {
         "address_components" : [
            {
               "long_name" : "Pazariçi",
               "short_name" : "Pazariçi",
               "types" : [ "administrative_area_level_4", "political" ]
            },
            {
               "long_name" : "Gaziosmanpaşa",
               "short_name" : "Gaziosmanpaşa",
               "types" : [ "administrative_area_level_2", "political" ]
            },
            {
               "long_name" : "İstanbul",
               "short_name" : "İstanbul",
               "types" : [ "administrative_area_level_1", "political" ]
            },
            {
               "long_name" : "Turkey",
               "short_name" : "TR",
               "types" : [ "country", "political" ]
            },
            {
               "long_name" : "34240",
               "short_name" : "34240",
               "types" : [ "postal_code" ]
            }
         ],
         "formatted_address" : "Pazariçi, 34240 Gaziosmanpaşa/İstanbul, Turkey",
         "geometry" : {
            "bounds" : {
               "northeast" : {
                  "lat" : 41.062812,
                  "lng" : 28.939144
               },
               "southwest" : {
                  "lat" : 41.056585,
                  "lng" : 28.93056289999999
               }
            },
            "location" : {
               "lat" : 41.0590593,
               "lng" : 28.9346689
            },
            "location_type" : "APPROXIMATE",
            "viewport" : {
               "northeast" : {
                  "lat" : 41.062812,
                  "lng" : 28.939144
               },
               "southwest" : {
                  "lat" : 41.056585,
                  "lng" : 28.93056289999999
               }
            }
         },
         "place_id" : "ChIJI5WuKb-wyhQRwipdDw7cFqo",
         "types" : [ "administrative_area_level_4", "political" ]
      },
      {
         "address_components" : [
            {
               "long_name" : "Gaziosmanpaşa",
               "short_name" : "Gaziosmanpaşa",
               "types" : [ "administrative_area_level_2", "political" ]
            },
            {
               "long_name" : "İstanbul",
               "short_name" : "İstanbul",
               "types" : [ "administrative_area_level_1", "political" ]
            },
            {
               "long_name" : "Turkey",
               "short_name" : "TR",
               "types" : [ "country", "political" ]
            }
         ],
         "formatted_address" : "Gaziosmanpaşa/İstanbul, Turkey",
         "geometry" : {
            "bounds" : {
               "northeast" : {
                  "lat" : 41.096245,
                  "lng" : 28.939144
               },
               "southwest" : {
                  "lat" : 41.051592,
                  "lng" : 28.874389
               }
            },
            "location" : {
               "lat" : 41.075956,
               "lng" : 28.9004545
            },
            "location_type" : "APPROXIMATE",
            "viewport" : {
               "northeast" : {
                  "lat" : 41.096245,
                  "lng" : 28.939144
               },
               "southwest" : {
                  "lat" : 41.051592,
                  "lng" : 28.874389
               }
            }
         },
         "place_id" : "ChIJn7Ob_fWwyhQRJKTVSb2iuFA",
         "types" : [ "administrative_area_level_2", "political" ]
      },
      {
         "address_components" : [
            {
               "long_name" : "European Side",
               "short_name" : "European Side",
               "types" : [ "neighborhood", "political" ]
            },
            {
               "long_name" : "İstanbul",
               "short_name" : "İstanbul",
               "types" : [ "administrative_area_level_1", "political" ]
            },
            {
               "long_name" : "Turkey",
               "short_name" : "TR",
               "types" : [ "country", "political" ]
            }
         ],
         "formatted_address" : "European Side, İstanbul, Turkey",
         "geometry" : {
            "bounds" : {
               "northeast" : {
                  "lat" : 41.199239,
                  "lng" : 29.077487
               },
               "southwest" : {
                  "lat" : 40.954508,
                  "lng" : 28.595554
               }
            },
            "location" : {
               "lat" : 41.0286909,
               "lng" : 28.92404269999999
            },
            "location_type" : "APPROXIMATE",
            "viewport" : {
               "northeast" : {
                  "lat" : 41.199239,
                  "lng" : 29.077487
               },
               "southwest" : {
                  "lat" : 40.954508,
                  "lng" : 28.595554
               }
            }
         },
         "place_id" : "ChIJhTq6hpGkyhQRC5OjsPQ0MVY",
         "types" : [ "neighborhood", "political" ]
      },
      {
         "address_components" : [
            {
               "long_name" : "İstanbul",
               "short_name" : "İstanbul",
               "types" : [ "locality", "political" ]
            },
            {
               "long_name" : "İstanbul",
               "short_name" : "İstanbul",
               "types" : [ "administrative_area_level_1", "political" ]
            },
            {
               "long_name" : "Turkey",
               "short_name" : "TR",
               "types" : [ "country", "political" ]
            }
         ],
         "formatted_address" : "İstanbul, Turkey",
         "geometry" : {
            "bounds" : {
               "northeast" : {
                  "lat" : 41.199239,
                  "lng" : 29.4288049
               },
               "southwest" : {
                  "lat" : 40.811404,
                  "lng" : 28.595554
               }
            },
            "location" : {
               "lat" : 41.0082376,
               "lng" : 28.9783589
            },
            "location_type" : "APPROXIMATE",
            "viewport" : {
               "northeast" : {
                  "lat" : 41.199239,
                  "lng" : 29.4288049
               },
               "southwest" : {
                  "lat" : 40.811404,
                  "lng" : 28.595554
               }
            }
         },
         "place_id" : "ChIJawhoAASnyhQR0LABvJj-zOE",
         "types" : [ "locality", "political" ]
      },
      {
         "address_components" : [
            {
               "long_name" : "İstanbul",
               "short_name" : "İstanbul",
               "types" : [ "administrative_area_level_1", "political" ]
            },
            {
               "long_name" : "Turkey",
               "short_name" : "TR",
               "types" : [ "country", "political" ]
            }
         ],
         "formatted_address" : "İstanbul, Turkey",
         "geometry" : {
            "bounds" : {
               "northeast" : {
                  "lat" : 41.58461,
                  "lng" : 29.915705
               },
               "southwest" : {
                  "lat" : 40.8026889,
                  "lng" : 27.971373
               }
            },
            "location" : {
               "lat" : 41.1634302,
               "lng" : 28.7664408
            },
            "location_type" : "APPROXIMATE",
            "viewport" : {
               "northeast" : {
                  "lat" : 41.58461,
                  "lng" : 29.915705
               },
               "southwest" : {
                  "lat" : 40.8026889,
                  "lng" : 27.971373
               }
            }
         },
         "place_id" : "ChIJexVgWlG2yhQR6B1akfSarCI",
         "types" : [ "administrative_area_level_1", "political" ]
      },
      {
         "address_components" : [
            {
               "long_name" : "Turkey",
               "short_name" : "TR",
               "types" : [ "country", "political" ]
            }
         ],
         "formatted_address" : "Turkey",
         "geometry" : {
            "bounds" : {
               "northeast" : {
                  "lat" : 42.3666999,
                  "lng" : 44.8178449
               },
               "southwest" : {
                  "lat" : 35.808592,
                  "lng" : 25.5377
               }
            },
            "location" : {
               "lat" : 38.963745,
               "lng" : 35.243322
            },
            "location_type" : "APPROXIMATE",
            "viewport" : {
               "northeast" : {
                  "lat" : 42.3666999,
                  "lng" : 44.8178449
               },
               "southwest" : {
                  "lat" : 35.808592,
                  "lng" : 25.5377
               }
            }
         },
         "place_id" : "ChIJcSZPllwVsBQRKl9iKtTb2UA",
         "types" : [ "country", "political" ]
      }
   ],
   "status" : "OK"
}
