{
   "plus_code" : {
      "compound_code" : "49FV+PJQ Şehitkamil/Gaziantep, Turkey",
      "global_code" : "8G9V49FV+PJQ"
   },
   "results" : [
      {
         "address_components" : [
            {
               "long_name" : "49FV+PJ",
               "short_name" : "49FV+PJ",
               "types" : [ "plus_code" ]
            },
            {
               "long_name" : "Şehitkamil",
               "short_name" : "Şehitkamil",
               "types" : [ "administrative_area_level_2", "political" ]
            },
            {
               "long_name" : "Gaziantep",
               "short_name" : "Gaziantep",
               "types" : [ "administrative_area_level_1", "political" ]
            },
            {
               "long_name" : "Turkey",
               "short_name" : "TR",
               "types" : [ "country", "political" ]
            }
         ],
         "formatted_address" : "49FV+PJ Şehitkamil/Gaziantep, Turkey",
         "geometry" : {
            "bounds" : {
               "northeast" : {
                  "lat" : 37.124375,
                  "lng" : 37.394125
               },
               "southwest" : {
                  "lat" : 37.12425,
                  "lng" : 37.394
               }
            },
            "location" : {
               "lat" : 37.1243282,
               "lng" : 37.3941135
            },
            "location_type" : "GEOMETRIC_CENTER",
            "viewport" : {
               "northeast" : {
                  "lat" : 37.1256614802915,
                  "lng" : 37.39541148029149
               },
               "southwest" : {
                  "lat" : 37.1229635197085,
                  "lng" : 37.3927135197085
               }
            }
         },
         "place_id" : "GhIJO3yI_OmPQkARv7SoT3KyQkA",
         "plus_code" : {
            "compound_code" : "49FV+PJ Şehitkamil/Gaziantep, Turkey",
            "global_code" : "8G9V49FV+PJ"
         },
         "types" : [ "plus_code" ]
      },
      {
         "address_components" : [
            {
               "long_name" : "10 Nolu Caddesi",
               "short_name" : "10 Nolu Cd.",
               "types" : [ "route" ]
            },
            {
               "long_name" : "Yukarıbeylerbeyi",
               "short_name" : "Yukarıbeylerbeyi",
               "types" : [ "administrative_area_level_4", "political" ]
            },
            {
               "long_name" : "Şehitkamil",
               "short_name" : "Şehitkamil",
               "types" : [ "administrative_area_level_2", "political" ]
            },
            {
               "long_name" : "Gaziantep",
               "short_name" : "Gaziantep",
               "types" : [ "administrative_area_level_1", "political" ]
            },
            {
               "long_name" : "Turkey",
               "short_name" : "TR",
               "types" : [ "country", "political" ]
            },
            {
               "long_name" : "27630",
               "short_name" : "27630",
               "types" : [ "postal_code" ]
            }
         ],
         "formatted_address" : "Yukarıbeylerbeyi, 10 Nolu Cd., 27630 Şehitkamil/Gaziantep, Turkey",
         "geometry" : {
            "bounds" : {
               "northeast" : {
                  "lat" : 37.1249209,
                  "lng" : 37.3940657
               },
               "southwest" : {
                  "lat" : 37.1246669,
                  "lng" : 37.3935364
               }
            },
            "location" : {
               "lat" : 37.1247939,
               "lng" : 37.393801
            },
            "location_type" : "GEOMETRIC_CENTER",
            "viewport" : {
               "northeast" : {
                  "lat" : 37.1261428802915,
                  "lng" : 37.39515003029149
               },
               "southwest" : {
                  "lat" : 37.1234449197085,
                  "lng" : 37.3924520697085
               }
            }
         },
         "place_id" : "ChIJhVViZJfkMRURQlhED6rtxsQ",
         "types" : [ "route" ]
      },
      {
         "address_components" : [
            {
               "long_name" : "27580",
               "short_name" : "27580",
               "types" : [ "postal_code" ]
            },
            {
               "long_name" : "Şehitkamil",
               "short_name" : "Şehitkamil",
               "types" : [ "administrative_area_level_2", "political" ]
            },
            {
               "long_name" : "Gaziantep",
               "short_name" : "Gaziantep",
               "types" : [ "administrative_area_level_1", "political" ]
            },
            {
               "long_name" : "Turkey",
               "short_name" : "TR",
               "types" : [ "country", "political" ]
            }
         ],
         "formatted_address" : "27580 Şehitkamil/Gaziantep, Turkey",
         "geometry" : {
            "bounds" : {
               "northeast" : {
                  "lat" : 37.145332,
                  "lng" : 37.405608
               },
               "southwest" : {
                  "lat" : 37.108802,
                  "lng" : 37.388668
               }
            },
            "location" : {
               "lat" : 37.1286552,
               "lng" : 37.3947413
            },
            "location_type" : "APPROXIMATE",
            "viewport" : {
               "northeast" : {
                  "lat" : 37.145332,
                  "lng" : 37.405608
               },
               "southwest" : {
                  "lat" : 37.108802,
                  "lng" : 37.388668
               }
            }
         },
         "place_id" : "ChIJMQXMjb3kMRURiyaMSifBZqo",
         "types" : [ "postal_code" ]
      },
      {
         "address_components" : [
            {
               "long_name" : "Yukarıbeylerbeyi",
               "short_name" : "Yukarıbeylerbeyi",
               "types" : [ "administrative_area_level_4", "political" ]
            },
            {
               "long_name" : "Şehitkamil",
               "short_name" : "Şehitkamil",
               "types" : [ "administrative_area_level_2", "political" ]
            },
            {
               "long_name" : "Gaziantep",
               "short_name" : "Gaziantep",
               "types" : [ "administrative_area_level_1", "political" ]
            },
            {
               "long_name" : "Turkey",
               "short_name" : "TR",
               "types" : [ "country", "political" ]
            }
         ],
         "formatted_address" : "Yukarıbeylerbeyi, Şehitkamil/Gaziantep, Turkey",
         "geometry" : {
            "bounds" : {
               "northeast" : {
                  "lat" : 37.149795,
                  "lng" : 37.4018681
               },
               "southwest" : {
                  "lat" : 37.0854589,
                  "lng" : 37.308587
               }
            },
            "location" : {
               "lat" : 37.1146766,
               "lng" : 37.3666964
            },
            "location_type" : "APPROXIMATE",
            "viewport" : {
               "northeast" : {
                  "lat" : 37.149795,
                  "lng" : 37.4018681
               },
               "southwest" : {
                  "lat" : 37.0854589,
                  "lng" : 37.308587
               }
            }
         },
         "place_id" : "ChIJi4kHl5nkMRUR5FhQkMv6NaU",
         "types" : [ "administrative_area_level_4", "political" ]
      },
      {
         "address_components" : [
            {
               "long_name" : "Şehitkamil",
               "short_name" : "Şehitkamil",
               "types" : [ "administrative_area_level_2", "political" ]
            },
            {
               "long_name" : "Gaziantep",
               "short_name" : "Gaziantep",
               "types" : [ "administrative_area_level_1", "political" ]
            },
            {
               "long_name" : "Turkey",
               "short_name" : "TR",
               "types" : [ "country", "political" ]
            }
         ],
         "formatted_address" : "Şehitkamil/Gaziantep, Turkey",
         "geometry" : {
            "bounds" : {
               "northeast" : {
                  "lat" : 37.346473,
                  "lng" : 37.6856279
               },
               "southwest" : {
                  "lat" : 36.993664,
                  "lng" : 36.9962619
               }
            },
            "location" : {
               "lat" : 37.203126,
               "lng" : 37.3399768
            },
            "location_type" : "APPROXIMATE",
            "viewport" : {
               "northeast" : {
                  "lat" : 37.346473,
                  "lng" : 37.6856279
               },
               "southwest" : {
                  "lat" : 36.993664,
                  "lng" : 36.9962619
               }
            }
         },
         "place_id" : "ChIJPxAVGR_9MRURJK8jIUkeV2w",
         "types" : [ "administrative_area_level_2", "political" ]
      },
      {
         "address_components" : [
            {
               "long_name" : "Gaziantep",
               "short_name" : "Gaziantep",
               "types" : [ "administrative_area_level_1", "political" ]
            },
            {
               "long_name" : "Turkey",
               "short_name" : "TR",
               "types" : [ "country", "political" ]
            }
         ],
         "formatted_address" : "Gaziantep, Turkey",
         "geometry" : {
            "bounds" : {
               "northeast" : {
                  "lat" : 37.538598,
                  "lng" : 38.081021
               },
               "southwest" : {
                  "lat" : 36.7067668,
                  "lng" : 36.4434159
               }
            },
            "location" : {
               "lat" : 37.0763882,
               "lng" : 37.3827234
            },
            "location_type" : "APPROXIMATE",
            "viewport" : {
               "northeast" : {
                  "lat" : 37.538598,
                  "lng" : 38.081021
               },
               "southwest" : {
                  "lat" : 36.7067668,
                  "lng" : 36.4434159
               }
            }
         },
         "place_id" : "ChIJe8jvhnAeLhURlcmNGgvZAMA",
         "types" : [ "administrative_area_level_1", "political" ]
      },
      {
         "address_components" : [
            {
               "long_name" : "Turkey",
               "short_name" : "TR",
               "types" : [ "country", "political" ]
            }
         ],
         "formatted_address" : "Turkey",
         "geometry" : {
            "bounds" : {
               "northeast" : {
                  "lat" : 42.3666999,
                  "lng" : 44.8178449
               },
               "southwest" : {
                  "lat" : 35.808592,
                  "lng" : 25.5377
               }
            },
            "location" : {
               "lat" : 38.963745,
               "lng" : 35.243322
            },
            "location_type" : "APPROXIMATE",
            "viewport" : {
               "northeast" : {
                  "lat" : 42.3666999,
                  "lng" : 44.8178449
               },
               "southwest" : {
                  "lat" : 35.808592,
                  "lng" : 25.5377
               }
            }
         },
         "place_id" : "ChIJcSZPllwVsBQRKl9iKtTb2UA",
         "types" : [ "country", "political" ]
      }
   ],
   "status" : "OK"
}
