{
   "plus_code" : {
      "compound_code" : "2X5H+78X Fatih/İstanbul, Turkey",
      "global_code" : "8GHC2X5H+78X"
   },
   "results" : [
      {
         "address_components" : [
            {
               "long_name" : "38",
               "short_name" : "38",
               "types" : [ "street_number" ]
            },
            {
               "long_name" : "Yerebatan Caddesi",
               "short_name" : "Yerebatan Cd.",
               "types" : [ "route" ]
            },
            {
               "long_name" : "Alemdar",
               "short_name" : "Alemdar",
               "types" : [ "administrative_area_level_4", "political" ]
            },
            {
               "long_name" : "Fatih",
               "short_name" : "Fatih",
               "types" : [ "administrative_area_level_2", "political" ]
            },
            {
               "long_name" : "İstanbul",
               "short_name" : "İstanbul",
               "types" : [ "administrative_area_level_1", "political" ]
            },
            {
               "long_name" : "Turkey",
               "short_name" : "TR",
               "types" : [ "country", "political" ]
            },
            {
               "long_name" : "34110",
               "short_name" : "34110",
               "types" : [ "postal_code" ]
            }
         ],
         "formatted_address" : "Alemdar, Yerebatan Cd. No:38, 34110 Fatih/İstanbul, Turkey",
         "geometry" : {
            "location" : {
               "lat" : 41.0084553,
               "lng" : 28.9782538
            },
            "location_type" : "ROOFTOP",
            "viewport" : {
               "northeast" : {
                  "lat" : 41.0098042802915,
                  "lng" : 28.9796027802915
               },
               "southwest" : {
                  "lat" : 41.00710631970851,
                  "lng" : 28.9769048197085
               }
            }
         },
         "place_id" : "ChIJpQgEDb65yhQRuSdIAao0cdI",
         "plus_code" : {
            "compound_code" : "2X5H+98 Fatih/İstanbul, Turkey",
            "global_code" : "8GHC2X5H+98"
         },
         "types" : [ "street_address" ]
      },
      {
         "address_components" : [
            {
               "long_name" : "2",
               "short_name" : "2",
               "types" : [ "street_number" ]
            },
            {
               "long_name" : "Divan Yolu Caddesi",
               "short_name" : "Divan Yolu Cd.",
               "types" : [ "route" ]
            },
            {
               "long_name" : "Alemdar",
               "short_name" : "Alemdar",
               "types" : [ "administrative_area_level_4", "political" ]
            },
            {
               "long_name" : "Fatih",
               "short_name" : "Fatih",
               "types" : [ "administrative_area_level_2", "political" ]
            },
            {
               "long_name" : "İstanbul",
               "short_name" : "İstanbul",
               "types" : [ "administrative_area_level_1", "political" ]
            },
            {
               "long_name" : "Turkey",
               "short_name" : "TR",
               "types" : [ "country", "political" ]
            },
            {
               "long_name" : "34122",
               "short_name" : "34122",
               "types" : [ "postal_code" ]
            }
         ],
         "formatted_address" : "Alemdar, Divan Yolu Cd. No:2, 34122 Fatih/İstanbul, Turkey",
         "geometry" : {
            "location" : {
               "lat" : 41.0081204,
               "lng" : 28.9781591
            },
            "location_type" : "RANGE_INTERPOLATED",
            "viewport" : {
               "northeast" : {
                  "lat" : 41.00946938029149,
                  "lng" : 28.9795080802915
               },
               "southwest" : {
                  "lat" : 41.00677141970849,
                  "lng" : 28.9768101197085
               }
            }
         },
         "place_id" : "EjtBbGVtZGFyLCBEaXZhbiBZb2x1IENkLiBObzoyLCAzNDEyMiBGYXRpaC_EsHN0YW5idWwsIFR1cmtleSIaEhgKFAoSCbHJrN29ucoUEVwvFjwGot8zEAI",
         "types" : [ "street_address" ]
      },
      {
         "address_components" : [
            {
               "long_name" : "Alemdar Caddesi",
               "short_name" : "Alemdar Cd.",
               "types" : [ "route" ]
            },
            {
               "long_name" : "Cankurtaran",
               "short_name" : "Cankurtaran",
               "types" : [ "administrative_area_level_4", "political" ]
            },
            {
               "long_name" : "Fatih",
               "short_name" : "Fatih",
               "types" : [ "administrative_area_level_2", "political" ]
            },
            {
               "long_name" : "İstanbul",
               "short_name" : "İstanbul",
               "types" : [ "administrative_area_level_1", "political" ]
            },
            {
               "long_name" : "Turkey",
               "short_name" : "TR",
               "types" : [ "country", "political" ]
            },
            {
               "long_name" : "34110",
               "short_name" : "34110",
               "types" : [ "postal_code" ]
            }
         ],
         "formatted_address" : "Cankurtaran, Alemdar Cd., 34110 Fatih/İstanbul, Turkey",
         "geometry" : {
            "bounds" : {
               "northeast" : {
                  "lat" : 41.0085069,
                  "lng" : 28.9785778
               },
               "southwest" : {
                  "lat" : 41.0082,
                  "lng" : 28.9782748
               }
            },
            "location" : {
               "lat" : 41.0083523,
               "lng" : 28.9784283
            },
            "location_type" : "GEOMETRIC_CENTER",
            "viewport" : {
               "northeast" : {
                  "lat" : 41.0097024302915,
                  "lng" : 28.9797752802915
               },
               "southwest" : {
                  "lat" : 41.0070044697085,
                  "lng" : 28.9770773197085
               }
            }
         },
         "place_id" : "ChIJ72YKeL65yhQRGpbIQ8LwzV0",
         "types" : [ "route" ]
      },
      {
         "address_components" : [
            {
               "long_name" : "2X5H+78",
               "short_name" : "2X5H+78",
               "types" : [ "plus_code" ]
            },
            {
               "long_name" : "Fatih",
               "short_name" : "Fatih",
               "types" : [ "administrative_area_level_2", "political" ]
            },
            {
               "long_name" : "İstanbul",
               "short_name" : "İstanbul",
               "types" : [ "administrative_area_level_1", "political" ]
            },
            {
               "long_name" : "Turkey",
               "short_name" : "TR",
               "types" : [ "country", "political" ]
            }
         ],
         "formatted_address" : "2X5H+78 Fatih/İstanbul, Turkey",
         "geometry" : {
            "bounds" : {
               "northeast" : {
                  "lat" : 41.00825,
                  "lng" : 28.978375
               },
               "southwest" : {
                  "lat" : 41.008125,
                  "lng" : 28.97825
               }
            },
            "location" : {
               "lat" : 41.0082377,
               "lng" : 28.9783589
            },
            "location_type" : "GEOMETRIC_CENTER",
            "viewport" : {
               "northeast" : {
                  "lat" : 41.0095364802915,
                  "lng" : 28.9796614802915
               },
               "southwest" : {
                  "lat" : 41.0068385197085,
                  "lng" : 28.9769635197085
               }
            }
         },
         "place_id" : "GhIJEAzW7g2BREARI0CXunX6PEA",
         "plus_code" : {
            "compound_code" : "2X5H+78 Fatih/İstanbul, Turkey",
            "global_code" : "8GHC2X5H+78"
         },
         "types" : [ "plus_code" ]
      },
      {
         "address_components" : [
            {
               "long_name" : "Alemdar",
               "short_name" : "Alemdar",
               "types" : [ "administrative_area_level_4", "political" ]
            },
            {
               "long_name" : "Fatih",
               "short_name" : "Fatih",
               "types" : [ "administrative_area_level_2", "political" ]
            },
            {
               "long_name" : "İstanbul",
               "short_name" : "İstanbul",
               "types" : [ "administrative_area_level_1", "political" ]
            },
            {
               "long_name" : "Turkey",
               "short_name" : "TR",
               "types" : [ "country", "political" ]
            },
            {
               "long_name" : "34110",
               "short_name" : "34110",
               "types" : [ "postal_code" ]
            }
         ],
         "formatted_address" : "Alemdar, 34110 Fatih/İstanbul, Turkey",
         "geometry" : {
            "bounds" : {
               "northeast" : {
                  "lat" : 41.011878,
                  "lng" : 28.9787411
               },
               "southwest" : {
                  "lat" : 41.007826,
                  "lng" : 28.9733469
               }
            },
            "location" : {
               "lat" : 41.0096655,
               "lng" : 28.9754242
            },
            "location_type" : "APPROXIMATE",
            "viewport" : {
               "northeast" : {
                  "lat" : 41.011878,
                  "lng" : 28.9787411
               },
               "southwest" : {
                  "lat" : 41.007826,
                  "lng" : 28.9733469
               }
            }
         },
         "place_id" : "ChIJ-enA9ZW5yhQRAiZXs_jAbz8",
         "types" : [ "administrative_area_level_4", "political" ]
      },
      {
         "address_components" : [
            {
               "long_name" : "34110",
               "short_name" : "34110",
               "types" : [ "postal_code" ]
            },
            {
               "long_name" : "Fatih",
               "short_name" : "Fatih",
               "types" : [ "administrative_area_level_2", "political" ]
            },
            {
               "long_name" : "İstanbul",
               "short_name" : "İstanbul",
               "types" : [ "administrative_area_level_1", "political" ]
            },
            {
               "long_name" : "Turkey",
               "short_name" : "TR",
               "types" : [ "country", "political" ]
            }
         ],
         "formatted_address" : "34110 Fatih/İstanbul, Turkey",
         "geometry" : {
            "bounds" : {
               "northeast" : {
                  "lat" : 41.0177659,
                  "lng" : 28.986053
               },
               "southwest" : {
                  "lat" : 41.0078126,
                  "lng" : 28.9733469
               }
            },
            "location" : {
               "lat" : 41.0127426,
               "lng" : 28.9768795
            },
            "location_type" : "APPROXIMATE",
            "viewport" : {
               "northeast" : {
                  "lat" : 41.0177659,
                  "lng" : 28.986053
               },
               "southwest" : {
                  "lat" : 41.0078126,
                  "lng" : 28.9733469
               }
            }
         },
         "place_id" : "ChIJj7kuRZW5yhQRNuqQapsaYLE",
         "types" : [ "postal_code" ]
      },
      {
         "address_components" : [
            {
               "long_name" : "Fatih",
               "short_name" : "Fatih",
               "types" : [ "administrative_area_level_2", "political" ]
            },
            {
               "long_name" : "İstanbul",
               "short_name" : "İstanbul",
               "types" : [ "administrative_area_level_1", "political" ]
            },
            {
               "long_name" : "Turkey",
               "short_name" : "TR",
               "types" : [ "country", "political" ]
            }
         ],
         "formatted_address" : "Fatih/İstanbul, Turkey",
         "geometry" : {
            "bounds" : {
               "northeast" : {
                  "lat" : 41.040882,
                  "lng" : 28.9880719
               },
               "southwest" : {
                  "lat" : 40.987637,
                  "lng" : 28.919171
               }
            },
            "location" : {
               "lat" : 41.0168639,
               "lng" : 28.9470422
            },
            "location_type" : "APPROXIMATE",
            "viewport" : {
               "northeast" : {
                  "lat" : 41.040882,
                  "lng" : 28.9880719
               },
               "southwest" : {
                  "lat" : 40.987637,
                  "lng" : 28.919171
               }
            }
         },
         "place_id" : "ChIJmeP65Ym5yhQR4CKL7X6E8DQ",
         "types" : [ "administrative_area_level_2", "political" ]
      },
      {
         "address_components" : [
            {
               "long_name" : "European Side",
               "short_name" : "European Side",
               "types" : [ "neighborhood", "political" ]
            },
            {
               "long_name" : "İstanbul",
               "short_name" : "İstanbul",
               "types" : [ "administrative_area_level_1", "political" ]
            },
            {
               "long_name" : "Turkey",
               "short_name" : "TR",
               "types" : [ "country", "political" ]
            }
         ],
         "formatted_address" : "European Side, İstanbul, Turkey",
         "geometry" : {
            "bounds" : {
               "northeast" : {
                  "lat" : 41.199239,
                  "lng" : 29.077487
               },
               "southwest" : {
                  "lat" : 40.954508,
                  "lng" : 28.595554
               }
            },
            "location" : {
               "lat" : 41.0286909,
               "lng" : 28.92404269999999
            },
            "location_type" : "APPROXIMATE",
            "viewport" : {
               "northeast" : {
                  "lat" : 41.199239,
                  "lng" : 29.077487
               },
               "southwest" : {
                  "lat" : 40.954508,
                  "lng" : 28.595554
               }
            }
         },
         "place_id" : "ChIJhTq6hpGkyhQRC5OjsPQ0MVY",
         "types" : [ "neighborhood", "political" ]
      },
      {
         "address_components" : [
            {
               "long_name" : "İstanbul",
               "short_name" : "İstanbul",
               "types" : [ "locality", "political" ]
            },
            {
               "long_name" : "İstanbul",
               "short_name" : "İstanbul",
               "types" : [ "administrative_area_level_1", "political" ]
            },
            {
               "long_name" : "Turkey",
               "short_name" : "TR",
               "types" : [ "country", "political" ]
            }
         ],
         "formatted_address" : "İstanbul, Turkey",
         "geometry" : {
            "bounds" : {
               "northeast" : {
                  "lat" : 41.199239,
                  "lng" : 29.4288049
               },
               "southwest" : {
                  "lat" : 40.811404,
                  "lng" : 28.595554
               }
            },
            "location" : {
               "lat" : 41.0082376,
               "lng" : 28.9783589
            },
            "location_type" : "APPROXIMATE",
            "viewport" : {
               "northeast" : {
                  "lat" : 41.199239,
                  "lng" : 29.4288049
               },
               "southwest" : {
                  "lat" : 40.811404,
                  "lng" : 28.595554
               }
            }
         },
         "place_id" : "ChIJawhoAASnyhQR0LABvJj-zOE",
         "types" : [ "locality", "political" ]
      },
      {
         "address_components" : [
            {
               "long_name" : "İstanbul",
               "short_name" : "İstanbul",
               "types" : [ "administrative_area_level_1", "political" ]
            },
            {
               "long_name" : "Turkey",
               "short_name" : "TR",
               "types" : [ "country", "political" ]
            }
         ],
         "formatted_address" : "İstanbul, Turkey",
         "geometry" : {
            "bounds" : {
               "northeast" : {
                  "lat" : 41.58461,
                  "lng" : 29.915705
               },
               "southwest" : {
                  "lat" : 40.8026889,
                  "lng" : 27.971373
               }
            },
            "location" : {
               "lat" : 41.1634302,
               "lng" : 28.7664408
            },
            "location_type" : "APPROXIMATE",
            "viewport" : {
               "northeast" : {
                  "lat" : 41.58461,
                  "lng" : 29.915705
               },
               "southwest" : {
                  "lat" : 40.8026889,
                  "lng" : 27.971373
               }
            }
         },
         "place_id" : "ChIJexVgWlG2yhQR6B1akfSarCI",
         "types" : [ "administrative_area_level_1", "political" ]
      },
      {
         "address_components" : [
            {
               "long_name" : "Turkey",
               "short_name" : "TR",
               "types" : [ "country", "political" ]
            }
         ],
         "formatted_address" : "Turkey",
         "geometry" : {
            "bounds" : {
               "northeast" : {
                  "lat" : 42.3666999,
                  "lng" : 44.8178449
               },
               "southwest" : {
                  "lat" : 35.808592,
                  "lng" : 25.5377
               }
            },
            "location" : {
               "lat" : 38.963745,
               "lng" : 35.243322
            },
            "location_type" : "APPROXIMATE",
            "viewport" : {
               "northeast" : {
                  "lat" : 42.3666999,
                  "lng" : 44.8178449
               },
               "southwest" : {
                  "lat" : 35.808592,
                  "lng" : 25.5377
               }
            }
         },
         "place_id" : "ChIJcSZPllwVsBQRKl9iKtTb2UA",
         "types" : [ "country", "political" ]
      }
   ],
   "status" : "OK"
}
