{
   "plus_code" : {
      "compound_code" : "2WQ3+98Q Pursaklar/Ankara, Turkey",
      "global_code" : "8GGJ2WQ3+98Q"
   },
   "results" : [
      {
         "address_components" : [
            {
               "long_name" : "19",
               "short_name" : "19",
               "types" : [ "street_number" ]
            },
            {
               "long_name" : "Belediye Caddesi",
               "short_name" : "Belediye Cd.",
               "types" : [ "route" ]
            },
            {
               "long_name" : "Merkez",
               "short_name" : "Merkez",
               "types" : [ "administrative_area_level_4", "political" ]
            },
            {
               "long_name" : "Pursaklar",
               "short_name" : "Pursaklar",
               "types" : [ "administrative_area_level_2", "political" ]
            },
            {
               "long_name" : "Ankara",
               "short_name" : "Ankara",
               "types" : [ "administrative_area_level_1", "political" ]
            },
            {
               "long_name" : "Turkey",
               "short_name" : "TR",
               "types" : [ "country", "political" ]
            },
            {
               "long_name" : "06145",
               "short_name" : "06145",
               "types" : [ "postal_code" ]
            }
         ],
         "formatted_address" : "Merkez, Belediye Cd. No:19, 06145 Pursaklar/Ankara, Turkey",
         "geometry" : {
            "location" : {
               "lat" : 40.0383341,
               "lng" : 32.9032532
            },
            "location_type" : "RANGE_INTERPOLATED",
            "viewport" : {
               "northeast" : {
                  "lat" : 40.0396830802915,
                  "lng" : 32.9046021802915
               },
               "southwest" : {
                  "lat" : 40.0369851197085,
                  "lng" : 32.90190421970851
               }
            }
         },
         "place_id" : "EjpNZXJrZXosIEJlbGVkaXllIENkLiBObzoxOSwgMDYxNDUgUHVyc2FrbGFyL0Fua2FyYSwgVHVya2V5IhoSGAoUChIJq7JhFGwIgkARokmOPtsMxfcQEw",
         "types" : [ "street_address" ]
      },
      {
         "address_components" : [
            {
               "long_name" : "2-4",
               "short_name" : "2-4",
               "types" : [ "street_number" ]
            },
            {
               "long_name" : "Yunus Emre Caddesi",
               "short_name" : "Yunus Emre Cd.",
               "types" : [ "route" ]
            },
            {
               "long_name" : "Fatih",
               "short_name" : "Fatih",
               "types" : [ "administrative_area_level_4", "political" ]
            },
            {
               "long_name" : "Pursaklar",
               "short_name" : "Pursaklar",
               "types" : [ "administrative_area_level_2", "political" ]
            },
            {
               "long_name" : "Ankara",
               "short_name" : "Ankara",
               "types" : [ "administrative_area_level_1", "political" ]
            },
            {
               "long_name" : "Turkey",
               "short_name" : "TR",
               "types" : [ "country", "political" ]
            },
            {
               "long_name" : "06145",
               "short_name" : "06145",
               "types" : [ "postal_code" ]
            }
         ],
         "formatted_address" : "Fatih, Yunus Emre Cd. 2-4, 06145 Pursaklar/Ankara, Turkey",
         "geometry" : {
            "bounds" : {
               "northeast" : {
                  "lat" : 40.0385109,
                  "lng" : 32.9044299
               },
               "southwest" : {
                  "lat" : 40.0382754,
                  "lng" : 32.9033071
               }
            },
            "location" : {
               "lat" : 40.0384,
               "lng" : 32.9038708
            },
            "location_type" : "GEOMETRIC_CENTER",
            "viewport" : {
               "northeast" : {
                  "lat" : 40.0397421302915,
                  "lng" : 32.90521748029149
               },
               "southwest" : {
                  "lat" : 40.0370441697085,
                  "lng" : 32.90251951970849
               }
            }
         },
         "place_id" : "ChIJWaQJPGwIgkARfEAk0x1iRtc",
         "types" : [ "route" ]
      },
      {
         "address_components" : [
            {
               "long_name" : "2WQ3+98",
               "short_name" : "2WQ3+98",
               "types" : [ "plus_code" ]
            },
            {
               "long_name" : "Pursaklar",
               "short_name" : "Pursaklar",
               "types" : [ "administrative_area_level_2", "political" ]
            },
            {
               "long_name" : "Ankara",
               "short_name" : "Ankara",
               "types" : [ "administrative_area_level_1", "political" ]
            },
            {
               "long_name" : "Turkey",
               "short_name" : "TR",
               "types" : [ "country", "political" ]
            }
         ],
         "formatted_address" : "2WQ3+98 Pursaklar/Ankara, Turkey",
         "geometry" : {
            "bounds" : {
               "northeast" : {
                  "lat" : 40.0385,
                  "lng" : 32.903375
               },
               "southwest" : {
                  "lat" : 40.03837499999999,
                  "lng" : 32.90325
               }
            },
            "location" : {
               "lat" : 40.038463,
               "lng" : 32.9033561
            },
            "location_type" : "GEOMETRIC_CENTER",
            "viewport" : {
               "northeast" : {
                  "lat" : 40.0397864802915,
                  "lng" : 32.90466148029149
               },
               "southwest" : {
                  "lat" : 40.0370885197085,
                  "lng" : 32.9019635197085
               }
            }
         },
         "place_id" : "GhIJk40HW-wEREARMRI1LKFzQEA",
         "plus_code" : {
            "compound_code" : "2WQ3+98 Pursaklar/Ankara, Turkey",
            "global_code" : "8GGJ2WQ3+98"
         },
         "types" : [ "plus_code" ]
      },
      {
         "address_components" : [
            {
               "long_name" : "Merkez",
               "short_name" : "Merkez",
               "types" : [ "administrative_area_level_4", "political" ]
            },
            {
               "long_name" : "Pursaklar",
               "short_name" : "Pursaklar",
               "types" : [ "administrative_area_level_2", "political" ]
            },
            {
               "long_name" : "Ankara",
               "short_name" : "Ankara",
               "types" : [ "administrative_area_level_1", "political" ]
            },
            {
               "long_name" : "Turkey",
               "short_name" : "TR",
               "types" : [ "country", "political" ]
            },
            {
               "long_name" : "06145",
               "short_name" : "06145",
               "types" : [ "postal_code" ]
            }
         ],
         "formatted_address" : "Merkez, 06145 Pursaklar/Ankara, Turkey",
         "geometry" : {
            "bounds" : {
               "northeast" : {
                  "lat" : 40.045989,
                  "lng" : 32.906381
               },
               "southwest" : {
                  "lat" : 40.03304199999999,
                  "lng" : 32.8862089
               }
            },
            "location" : {
               "lat" : 40.0373245,
               "lng" : 32.8881954
            },
            "location_type" : "APPROXIMATE",
            "viewport" : {
               "northeast" : {
                  "lat" : 40.045989,
                  "lng" : 32.906381
               },
               "southwest" : {
                  "lat" : 40.03304199999999,
                  "lng" : 32.8862089
               }
            }
         },
         "place_id" : "ChIJ27Wiq28IgkAROOHpA2ZsZoM",
         "types" : [ "administrative_area_level_4", "political" ]
      },
      {
         "address_components" : [
            {
               "long_name" : "06145",
               "short_name" : "06145",
               "types" : [ "postal_code" ]
            },
            {
               "long_name" : "Pursaklar",
               "short_name" : "Pursaklar",
               "types" : [ "administrative_area_level_2", "political" ]
            },
            {
               "long_name" : "Ankara",
               "short_name" : "Ankara",
               "types" : [ "administrative_area_level_1", "political" ]
            },
            {
               "long_name" : "Turkey",
               "short_name" : "TR",
               "types" : [ "country", "political" ]
            }
         ],
         "formatted_address" : "06145 Pursaklar/Ankara, Turkey",
         "geometry" : {
            "bounds" : {
               "northeast" : {
                  "lat" : 40.047313,
                  "lng" : 32.906381
               },
               "southwest" : {
                  "lat" : 40.03304199999999,
                  "lng" : 32.88446390000001
               }
            },
            "location" : {
               "lat" : 40.0393053,
               "lng" : 32.8927958
            },
            "location_type" : "APPROXIMATE",
            "viewport" : {
               "northeast" : {
                  "lat" : 40.047313,
                  "lng" : 32.906381
               },
               "southwest" : {
                  "lat" : 40.03304199999999,
                  "lng" : 32.88446390000001
               }
            }
         },
         "place_id" : "ChIJCZmr0EEIgkARqaD13DcXNGg",
         "types" : [ "postal_code" ]
      },
      {
         "address_components" : [
            {
               "long_name" : "Pursaklar",
               "short_name" : "Pursaklar",
               "types" : [ "locality", "political" ]
            },
            {
               "long_name" : "Pursaklar",
               "short_name" : "Pursaklar",
               "types" : [ "administrative_area_level_2", "political" ]
            },
            {
               "long_name" : "Ankara",
               "short_name" : "Ankara",
               "types" : [ "administrative_area_level_1", "political" ]
            },
            {
               "long_name" : "Turkey",
               "short_name" : "TR",
               "types" : [ "country", "political" ]
            }
         ],
         "formatted_address" : "Pursaklar, Ankara, Turkey",
         "geometry" : {
            "bounds" : {
               "northeast" : {
                  "lat" : 40.054344,
                  "lng" : 32.929042
               },
               "southwest" : {
                  "lat" : 40.019497,
                  "lng" : 32.8750901
               }
            },
            "location" : {
               "lat" : 40.038463,
               "lng" : 32.9033561
            },
            "location_type" : "APPROXIMATE",
            "viewport" : {
               "northeast" : {
                  "lat" : 40.054344,
                  "lng" : 32.929042
               },
               "southwest" : {
                  "lat" : 40.019497,
                  "lng" : 32.8750901
               }
            }
         },
         "place_id" : "ChIJD525KW0IgkARegD95tolma4",
         "types" : [ "locality", "political" ]
      },
      {
         "address_components" : [
            {
               "long_name" : "Pursaklar",
               "short_name" : "Pursaklar",
               "types" : [ "administrative_area_level_2", "political" ]
            },
            {
               "long_name" : "Ankara",
               "short_name" : "Ankara",
               "types" : [ "administrative_area_level_1", "political" ]
            },
            {
               "long_name" : "Turkey",
               "short_name" : "TR",
               "types" : [ "country", "political" ]
            }
         ],
         "formatted_address" : "Pursaklar/Ankara, Turkey",
         "geometry" : {
            "bounds" : {
               "northeast" : {
                  "lat" : 40.200247,
                  "lng" : 32.99957790000001
               },
               "southwest" : {
                  "lat" : 40.021343,
                  "lng" : 32.798268
               }
            },
            "location" : {
               "lat" : 40.1187161,
               "lng" : 32.8709294
            },
            "location_type" : "APPROXIMATE",
            "viewport" : {
               "northeast" : {
                  "lat" : 40.200247,
                  "lng" : 32.99957790000001
               },
               "southwest" : {
                  "lat" : 40.021343,
                  "lng" : 32.798268
               }
            }
         },
         "place_id" : "ChIJByMw6ZEOgkARzkZJ-20yc8A",
         "types" : [ "administrative_area_level_2", "political" ]
      },
      {
         "address_components" : [
            {
               "long_name" : "Ankara",
               "short_name" : "Ankara",
               "types" : [ "administrative_area_level_1", "political" ]
            },
            {
               "long_name" : "Turkey",
               "short_name" : "TR",
               "types" : [ "country", "political" ]
            }
         ],
         "formatted_address" : "Ankara, Turkey",
         "geometry" : {
            "bounds" : {
               "northeast" : {
                  "lat" : 40.756282,
                  "lng" : 33.871969
               },
               "southwest" : {
                  "lat" : 38.6699421,
                  "lng" : 30.8240371
               }
            },
            "location" : {
               "lat" : 39.7805245,
               "lng" : 32.7181375
            },
            "location_type" : "APPROXIMATE",
            "viewport" : {
               "northeast" : {
                  "lat" : 40.756282,
                  "lng" : 33.871969
               },
               "southwest" : {
                  "lat" : 38.6699421,
                  "lng" : 30.8240371
               }
            }
         },
         "place_id" : "ChIJ2UbubYMC0xQRePrg-9apYgY",
         "types" : [ "administrative_area_level_1", "political" ]
      },
      {
         "address_components" : [
            {
               "long_name" : "Turkey",
               "short_name" : "TR",
               "types" : [ "country", "political" ]
            }
         ],
         "formatted_address" : "Turkey",
         "geometry" : {
            "bounds" : {
               "northeast" : {
                  "lat" : 42.3666999,
                  "lng" : 44.8178449
               },
               "southwest" : {
                  "lat" : 35.808592,
                  "lng" : 25.5377
               }
            },
            "location" : {
               "lat" : 38.963745,
               "lng" : 35.243322
            },
            "location_type" : "APPROXIMATE",
            "viewport" : {
               "northeast" : {
                  "lat" : 42.3666999,
                  "lng" : 44.8178449
               },
               "southwest" : {
                  "lat" : 35.808592,
                  "lng" : 25.5377
               }
            }
         },
         "place_id" : "ChIJcSZPllwVsBQRKl9iKtTb2UA",
         "types" : [ "country", "political" ]
      }
   ],
   "status" : "OK"
}
