{
   "plus_code" : {
      "compound_code" : "Q228+626 Çelebiler/Sivas Merkez/Sivas, Turkey",
      "global_code" : "8GFVQ228+626"
   },
   "results" : [
      {
         "address_components" : [
            {
               "long_name" : "Sivas Merkez",
               "short_name" : "Sivas Merkez",
               "types" : [ "administrative_area_level_2", "political" ]
            },
            {
               "long_name" : "Mehmetpaşa",
               "short_name" : "Mehmetpaşa",
               "types" : [ "administrative_area_level_4", "political" ]
            },
            {
               "long_name" : "Sivas",
               "short_name" : "Sivas",
               "types" : [ "administrative_area_level_1", "political" ]
            },
            {
               "long_name" : "Turkey",
               "short_name" : "TR",
               "types" : [ "country", "political" ]
            },
            {
               "long_name" : "58040",
               "short_name" : "58040",
               "types" : [ "postal_code" ]
            }
         ],
         "formatted_address" : "PAŞABEY MAH. bezazlar sok. Anadolu 7 apt 3b, Mehmetpaşa, 58040 Sivas Merkez/Sivas, Turkey",
         "geometry" : {
            "location" : {
               "lat" : 39.7505449,
               "lng" : 37.0150217
            },
            "location_type" : "GEOMETRIC_CENTER",
            "viewport" : {
               "northeast" : {
                  "lat" : 39.7518938802915,
                  "lng" : 37.01637068029149
               },
               "southwest" : {
                  "lat" : 39.74919591970851,
                  "lng" : 37.0136727197085
               }
            }
         },
         "place_id" : "ChIJC3fMMyGrfkARIX1xZ8rUNjE",
         "plus_code" : {
            "compound_code" : "Q228+62 Çelebiler/Sivas Merkez/Sivas, Turkey",
            "global_code" : "8GFVQ228+62"
         },
         "types" : [ "cafe", "establishment", "food", "point_of_interest" ]
      },
      {
         "address_components" : [
            {
               "long_name" : "2",
               "short_name" : "2",
               "types" : [ "street_number" ]
            },
            {
               "long_name" : "Atatürk Bulvarı",
               "short_name" : "Atatürk Blv.",
               "types" : [ "route" ]
            },
            {
               "long_name" : "Eskikale",
               "short_name" : "Eskikale",
               "types" : [ "administrative_area_level_4", "political" ]
            },
            {
               "long_name" : "Sivas Merkez",
               "short_name" : "Sivas Merkez",
               "types" : [ "administrative_area_level_2", "political" ]
            },
            {
               "long_name" : "Sivas",
               "short_name" : "Sivas",
               "types" : [ "administrative_area_level_1", "political" ]
            },
            {
               "long_name" : "Turkey",
               "short_name" : "TR",
               "types" : [ "country", "political" ]
            },
            {
               "long_name" : "58070",
               "short_name" : "58070",
               "types" : [ "postal_code" ]
            }
         ],
         "formatted_address" : "Eskikale, Atatürk Blv. No:2, 58070 Sivas Merkez/Sivas, Turkey",
         "geometry" : {
            "location" : {
               "lat" : 39.7504931,
               "lng" : 37.0150478
            },
            "location_type" : "ROOFTOP",
            "viewport" : {
               "northeast" : {
                  "lat" : 39.7518420802915,
                  "lng" : 37.01639678029149
               },
               "southwest" : {
                  "lat" : 39.7491441197085,
                  "lng" : 37.01369881970849
               }
            }
         },
         "place_id" : "ChIJ1a6kMyGrfkAR6nhIqMkKkow",
         "plus_code" : {
            "compound_code" : "Q228+52 Çelebiler/Sivas Merkez/Sivas, Turkey",
            "global_code" : "8GFVQ228+52"
         },
         "types" : [ "street_address" ]
      },
      {
         "address_components" : [
            {
               "long_name" : "2",
               "short_name" : "2",
               "types" : [ "street_number" ]
            },
            {
               "long_name" : "Atatürk Bulvarı",
               "short_name" : "Atatürk Blv.",
               "types" : [ "route" ]
            },
            {
               "long_name" : "Sularbaşı",
               "short_name" : "Sularbaşı",
               "types" : [ "administrative_area_level_4", "political" ]
            },
            {
               "long_name" : "Sivas Merkez",
               "short_name" : "Sivas Merkez",
               "types" : [ "administrative_area_level_2", "political" ]
            },
            {
               "long_name" : "Sivas",
               "short_name" : "Sivas",
               "types" : [ "administrative_area_level_1", "political" ]
            },
            {
               "long_name" : "Turkey",
               "short_name" : "TR",
               "types" : [ "country", "political" ]
            },
            {
               "long_name" : "58040",
               "short_name" : "58040",
               "types" : [ "postal_code" ]
            }
         ],
         "formatted_address" : "Sularbaşı, Atatürk Blv. No:2, 58040 Sivas Merkez/Sivas, Turkey",
         "geometry" : {
            "location" : {
               "lat" : 39.7506638,
               "lng" : 37.0149503
            },
            "location_type" : "RANGE_INTERPOLATED",
            "viewport" : {
               "northeast" : {
                  "lat" : 39.75201278029149,
                  "lng" : 37.01629928029149
               },
               "southwest" : {
                  "lat" : 39.7493148197085,
                  "lng" : 37.01360131970849
               }
            }
         },
         "place_id" : "EkFTdWxhcmJhxZ_EsSwgQXRhdMO8cmsgQmx2LiBObzoyLCA1ODA0MCBTaXZhcyBNZXJrZXovU2l2YXMsIFR1cmtleSIaEhgKFAoSCe_tsSYhq35AEVcXjpDUSGAkEAI",
         "types" : [ "street_address" ]
      },
      {
         "address_components" : [
            {
               "long_name" : "Q228+62",
               "short_name" : "Q228+62",
               "types" : [ "plus_code" ]
            },
            {
               "long_name" : "Çelebiler",
               "short_name" : "Çelebiler",
               "types" : [ "administrative_area_level_3", "political" ]
            },
            {
               "long_name" : "Sivas Merkez",
               "short_name" : "Sivas Merkez",
               "types" : [ "administrative_area_level_2", "political" ]
            },
            {
               "long_name" : "Sivas",
               "short_name" : "Sivas",
               "types" : [ "administrative_area_level_1", "political" ]
            },
            {
               "long_name" : "Turkey",
               "short_name" : "TR",
               "types" : [ "country", "political" ]
            }
         ],
         "formatted_address" : "Q228+62 Çelebiler/Sivas Merkez/Sivas, Turkey",
         "geometry" : {
            "bounds" : {
               "northeast" : {
                  "lat" : 39.750625,
                  "lng" : 37.015125
               },
               "southwest" : {
                  "lat" : 39.7505,
                  "lng" : 37.015
               }
            },
            "location" : {
               "lat" : 39.750545,
               "lng" : 37.0150217
            },
            "location_type" : "GEOMETRIC_CENTER",
            "viewport" : {
               "northeast" : {
                  "lat" : 39.75191148029149,
                  "lng" : 37.0164114802915
               },
               "southwest" : {
                  "lat" : 39.7492135197085,
                  "lng" : 37.0137135197085
               }
            }
         },
         "place_id" : "GhIJkZbK2xHgQ0ARex0nO-yBQkA",
         "plus_code" : {
            "compound_code" : "Q228+62 Çelebiler/Sivas Merkez/Sivas, Turkey",
            "global_code" : "8GFVQ228+62"
         },
         "types" : [ "plus_code" ]
      },
      {
         "address_components" : [
            {
               "long_name" : "Atatürk Bulvarı",
               "short_name" : "Atatürk Blv.",
               "types" : [ "route" ]
            },
            {
               "long_name" : "Mehmetpaşa",
               "short_name" : "Mehmetpaşa",
               "types" : [ "administrative_area_level_4", "political" ]
            },
            {
               "long_name" : "Sivas Merkez",
               "short_name" : "Sivas Merkez",
               "types" : [ "administrative_area_level_2", "political" ]
            },
            {
               "long_name" : "Sivas",
               "short_name" : "Sivas",
               "types" : [ "administrative_area_level_1", "political" ]
            },
            {
               "long_name" : "Turkey",
               "short_name" : "TR",
               "types" : [ "country", "political" ]
            },
            {
               "long_name" : "58040",
               "short_name" : "58040",
               "types" : [ "postal_code" ]
            }
         ],
         "formatted_address" : "Mehmetpaşa, Atatürk Blv., 58040 Sivas Merkez/Sivas, Turkey",
         "geometry" : {
            "bounds" : {
               "northeast" : {
                  "lat" : 39.7513406,
                  "lng" : 37.0149503
               },
               "southwest" : {
                  "lat" : 39.7506638,
                  "lng" : 37.0147453
               }
            },
            "location" : {
               "lat" : 39.75099549999999,
               "lng" : 37.0148125
            },
            "location_type" : "GEOMETRIC_CENTER",
            "viewport" : {
               "northeast" : {
                  "lat" : 39.7523511802915,
                  "lng" : 37.0161967802915
               },
               "southwest" : {
                  "lat" : 39.7496532197085,
                  "lng" : 37.0134988197085
               }
            }
         },
         "place_id" : "ChIJ7-2xJiGrfkARVheOkNRIYCQ",
         "types" : [ "route" ]
      },
      {
         "address_components" : [
            {
               "long_name" : "58040",
               "short_name" : "58040",
               "types" : [ "postal_code" ]
            },
            {
               "long_name" : "Mehmetpaşa",
               "short_name" : "Mehmetpaşa",
               "types" : [ "administrative_area_level_4", "political" ]
            },
            {
               "long_name" : "Sivas Merkez",
               "short_name" : "Sivas Merkez",
               "types" : [ "administrative_area_level_2", "political" ]
            },
            {
               "long_name" : "Sivas",
               "short_name" : "Sivas",
               "types" : [ "administrative_area_level_1", "political" ]
            },
            {
               "long_name" : "Turkey",
               "short_name" : "TR",
               "types" : [ "country", "political" ]
            }
         ],
         "formatted_address" : "Mehmetpaşa, 58040 Sivas Merkez/Sivas, Turkey",
         "geometry" : {
            "bounds" : {
               "northeast" : {
                  "lat" : 39.753229,
                  "lng" : 37.0150971
               },
               "southwest" : {
                  "lat" : 39.7486729,
                  "lng" : 37.0071981
               }
            },
            "location" : {
               "lat" : 39.7510699,
               "lng" : 37.0108614
            },
            "location_type" : "APPROXIMATE",
            "viewport" : {
               "northeast" : {
                  "lat" : 39.753229,
                  "lng" : 37.0150971
               },
               "southwest" : {
                  "lat" : 39.7486729,
                  "lng" : 37.0071981
               }
            }
         },
         "place_id" : "ChIJ822yhCGrfkAReQ31uNDcZpM",
         "types" : [ "postal_code" ]
      },
      {
         "address_components" : [
            {
               "long_name" : "Mehmetpaşa",
               "short_name" : "Mehmetpaşa",
               "types" : [ "administrative_area_level_4", "political" ]
            },
            {
               "long_name" : "Sivas Merkez",
               "short_name" : "Sivas Merkez",
               "types" : [ "administrative_area_level_2", "political" ]
            },
            {
               "long_name" : "Sivas",
               "short_name" : "Sivas",
               "types" : [ "administrative_area_level_1", "political" ]
            },
            {
               "long_name" : "Turkey",
               "short_name" : "TR",
               "types" : [ "country", "political" ]
            }
         ],
         "formatted_address" : "Mehmetpaşa, Sivas Merkez/Sivas, Turkey",
         "geometry" : {
            "bounds" : {
               "northeast" : {
                  "lat" : 39.753268,
                  "lng" : 37.0150971
               },
               "southwest" : {
                  "lat" : 39.7486729,
                  "lng" : 37.0072
               }
            },
            "location" : {
               "lat" : 39.7510699,
               "lng" : 37.0108614
            },
            "location_type" : "APPROXIMATE",
            "viewport" : {
               "northeast" : {
                  "lat" : 39.753268,
                  "lng" : 37.0150971
               },
               "southwest" : {
                  "lat" : 39.7486729,
                  "lng" : 37.0072
               }
            }
         },
         "place_id" : "ChIJpYJMmyGrfkARQnjMewEMzAU",
         "types" : [ "administrative_area_level_4", "political" ]
      },
      {
         "address_components" : [
            {
               "long_name" : "Sivas",
               "short_name" : "Sivas",
               "types" : [ "locality", "political" ]
            },
            {
               "long_name" : "Sivas Merkez",
               "short_name" : "Sivas Merkez",
               "types" : [ "administrative_area_level_2", "political" ]
            },
            {
               "long_name" : "Sivas",
               "short_name" : "Sivas",
               "types" : [ "administrative_area_level_1", "political" ]
            },
            {
               "long_name" : "Turkey",
               "short_name" : "TR",
               "types" : [ "country", "political" ]
            }
         ],
         "formatted_address" : "Sivas, Sivas Merkez/Sivas, Turkey",
         "geometry" : {
            "bounds" : {
               "northeast" : {
                  "lat" : 39.781486,
                  "lng" : 37.064739
               },
               "southwest" : {
                  "lat" : 39.715307,
                  "lng" : 36.9270799
               }
            },
            "location" : {
               "lat" : 39.750545,
               "lng" : 37.0150217
            },
            "location_type" : "APPROXIMATE",
            "viewport" : {
               "northeast" : {
                  "lat" : 39.781486,
                  "lng" : 37.064739
               },
               "southwest" : {
                  "lat" : 39.715307,
                  "lng" : 36.9270799
               }
            }
         },
         "place_id" : "ChIJZexQYGqrfkARm-pSRgQU94M",
         "types" : [ "locality", "political" ]
      },
      {
         "address_components" : [
            {
               "long_name" : "Sivas Merkez",
               "short_name" : "Sivas Merkez",
               "types" : [ "administrative_area_level_2", "political" ]
            },
            {
               "long_name" : "Sivas",
               "short_name" : "Sivas",
               "types" : [ "administrative_area_level_1", "political" ]
            },
            {
               "long_name" : "Turkey",
               "short_name" : "TR",
               "types" : [ "country", "political" ]
            }
         ],
         "formatted_address" : "Sivas Merkez/Sivas, Turkey",
         "geometry" : {
            "bounds" : {
               "northeast" : {
                  "lat" : 40.23357,
                  "lng" : 37.469529
               },
               "southwest" : {
                  "lat" : 39.33468300000001,
                  "lng" : 36.511279
               }
            },
            "location" : {
               "lat" : 39.6896148,
               "lng" : 37.0862239
            },
            "location_type" : "APPROXIMATE",
            "viewport" : {
               "northeast" : {
                  "lat" : 40.23357,
                  "lng" : 37.469529
               },
               "southwest" : {
                  "lat" : 39.33468300000001,
                  "lng" : 36.511279
               }
            }
         },
         "place_id" : "ChIJEwafEiiqfkARK6rdo-_88uI",
         "types" : [ "administrative_area_level_2", "political" ]
      },
      {
         "address_components" : [
            {
               "long_name" : "Sivas",
               "short_name" : "Sivas",
               "types" : [ "administrative_area_level_1", "political" ]
            },
            {
               "long_name" : "Turkey",
               "short_name" : "TR",
               "types" : [ "country", "political" ]
            }
         ],
         "formatted_address" : "Sivas, Turkey",
         "geometry" : {
            "bounds" : {
               "northeast" : {
                  "lat" : 40.526905,
                  "lng" : 38.77151000000001
               },
               "southwest" : {
                  "lat" : 38.5361819,
                  "lng" : 35.8384771
               }
            },
            "location" : {
               "lat" : 39.4488039,
               "lng" : 37.1294497
            },
            "location_type" : "APPROXIMATE",
            "viewport" : {
               "northeast" : {
                  "lat" : 40.526905,
                  "lng" : 38.77151000000001
               },
               "southwest" : {
                  "lat" : 38.5361819,
                  "lng" : 35.8384771
               }
            }
         },
         "place_id" : "ChIJsz6fBVdneUARwi2Iuj7GQok",
         "types" : [ "administrative_area_level_1", "political" ]
      },
      {
         "address_components" : [
            {
               "long_name" : "Turkey",
               "short_name" : "TR",
               "types" : [ "country", "political" ]
            }
         ],
         "formatted_address" : "Turkey",
         "geometry" : {
            "bounds" : {
               "northeast" : {
                  "lat" : 42.3666999,
                  "lng" : 44.8178449
               },
               "southwest" : {
                  "lat" : 35.808592,
                  "lng" : 25.5377
               }
            },
            "location" : {
               "lat" : 38.963745,
               "lng" : 35.243322
            },
            "location_type" : "APPROXIMATE",
            "viewport" : {
               "northeast" : {
                  "lat" : 42.3666999,
                  "lng" : 44.8178449
               },
               "southwest" : {
                  "lat" : 35.808592,
                  "lng" : 25.5377
               }
            }
         },
         "place_id" : "ChIJcSZPllwVsBQRKl9iKtTb2UA",
         "types" : [ "country", "political" ]
      }
   ],
   "status" : "OK"
}
