{
   "plus_code" : {
      "compound_code" : "2GG9+633 Rize Merkez/Rize, Turkey",
      "global_code" : "8HH22GG9+633"
   },
   "results" : [
      {
         "address_components" : [
            {
               "long_name" : "101",
               "short_name" : "101",
               "types" : [ "street_number" ]
            },
            {
               "long_name" : "Cumhuriyet Caddesi",
               "short_name" : "Cumhuriyet Cd.",
               "types" : [ "route" ]
            },
            {
               "long_name" : "Çarşı",
               "short_name" : "Çarşı",
               "types" : [ "administrative_area_level_4", "political" ]
            },
            {
               "long_name" : "Rize Merkez",
               "short_name" : "Rize Merkez",
               "types" : [ "administrative_area_level_2", "political" ]
            },
            {
               "long_name" : "Rize",
               "short_name" : "Rize",
               "types" : [ "administrative_area_level_1", "political" ]
            },
            {
               "long_name" : "Turkey",
               "short_name" : "TR",
               "types" : [ "country", "political" ]
            },
            {
               "long_name" : "53020",
               "short_name" : "53020",
               "types" : [ "postal_code" ]
            }
         ],
         "formatted_address" : "Çarşı, Cumhuriyet Cd. No:101, 53020 Rize Merkez/Rize, Turkey",
         "geometry" : {
            "location" : {
               "lat" : 41.0254943,
               "lng" : 40.5176823
            },
            "location_type" : "ROOFTOP",
            "viewport" : {
               "northeast" : {
                  "lat" : 41.0268432802915,
                  "lng" : 40.5190312802915
               },
               "southwest" : {
                  "lat" : 41.0241453197085,
                  "lng" : 40.5163333197085
               }
            }
         },
         "place_id" : "ChIJRdkVD-Z6ZkARLmRzhfhoUSw",
         "plus_code" : {
            "compound_code" : "2GG9+53 Rize Merkez/Rize, Turkey",
            "global_code" : "8HH22GG9+53"
         },
         "types" : [ "street_address" ]
      },
      {
         "address_components" : [
            {
               "long_name" : "101",
               "short_name" : "101",
               "types" : [ "street_number" ]
            },
            {
               "long_name" : "Cumhuriyet Caddesi",
               "short_name" : "Cumhuriyet Cd.",
               "types" : [ "route" ]
            },
            {
               "long_name" : "Çarşı",
               "short_name" : "Çarşı",
               "types" : [ "administrative_area_level_4", "political" ]
            },
            {
               "long_name" : "Rize Merkez",
               "short_name" : "Rize Merkez",
               "types" : [ "administrative_area_level_2", "political" ]
            },
            {
               "long_name" : "Rize",
               "short_name" : "Rize",
               "types" : [ "administrative_area_level_1", "political" ]
            },
            {
               "long_name" : "Turkey",
               "short_name" : "TR",
               "types" : [ "country", "political" ]
            },
            {
               "long_name" : "53020",
               "short_name" : "53020",
               "types" : [ "postal_code" ]
            }
         ],
         "formatted_address" : "Çarşı, Cumhuriyet Cd. No:101, 53020 Rize Merkez/Rize, Turkey",
         "geometry" : {
            "location" : {
               "lat" : 41.0255717,
               "lng" : 40.5177296
            },
            "location_type" : "RANGE_INTERPOLATED",
            "viewport" : {
               "northeast" : {
                  "lat" : 41.0269206802915,
                  "lng" : 40.51907858029149
               },
               "southwest" : {
                  "lat" : 41.0242227197085,
                  "lng" : 40.51638061970849
               }
            }
         },
         "place_id" : "Ej_Dh2FyxZ_EsSwgQ3VtaHVyaXlldCBDZC4gTm86MTAxLCA1MzAyMCBSaXplIE1lcmtlei9SaXplLCBUdXJrZXkiGhIYChQKEgnZVl0D5npmQBEg8Mse0qHHVxBl",
         "types" : [ "street_address" ]
      },
      {
         "address_components" : [
            {
               "long_name" : "2",
               "short_name" : "2",
               "types" : [ "street_number" ]
            },
            {
               "long_name" : "Fevzi Çakmak Caddesi",
               "short_name" : "Fevzi Çakmak Cd.",
               "types" : [ "route" ]
            },
            {
               "long_name" : "Çarşı",
               "short_name" : "Çarşı",
               "types" : [ "administrative_area_level_4", "political" ]
            },
            {
               "long_name" : "Rize Merkez",
               "short_name" : "Rize Merkez",
               "types" : [ "administrative_area_level_2", "political" ]
            },
            {
               "long_name" : "Rize",
               "short_name" : "Rize",
               "types" : [ "administrative_area_level_1", "political" ]
            },
            {
               "long_name" : "Turkey",
               "short_name" : "TR",
               "types" : [ "country", "political" ]
            },
            {
               "long_name" : "53020",
               "short_name" : "53020",
               "types" : [ "postal_code" ]
            }
         ],
         "formatted_address" : "Çarşı, Fevzi Çakmak Cd. No:2, 53020 Rize Merkez/Rize, Turkey",
         "geometry" : {
            "bounds" : {
               "northeast" : {
                  "lat" : 41.0255882,
                  "lng" : 40.5176822
               },
               "southwest" : {
                  "lat" : 41.024998,
                  "lng" : 40.5173674
               }
            },
            "location" : {
               "lat" : 41.0252931,
               "lng" : 40.5175248
            },
            "location_type" : "GEOMETRIC_CENTER",
            "viewport" : {
               "northeast" : {
                  "lat" : 41.0266420802915,
                  "lng" : 40.5188737802915
               },
               "southwest" : {
                  "lat" : 41.0239441197085,
                  "lng" : 40.5161758197085
               }
            }
         },
         "place_id" : "ChIJZX7cB-Z6ZkARktdWkfSXkt0",
         "types" : [ "route" ]
      },
      {
         "address_components" : [
            {
               "long_name" : "2GG9+63",
               "short_name" : "2GG9+63",
               "types" : [ "plus_code" ]
            },
            {
               "long_name" : "Rize Merkez",
               "short_name" : "Rize Merkez",
               "types" : [ "administrative_area_level_2", "political" ]
            },
            {
               "long_name" : "Rize",
               "short_name" : "Rize",
               "types" : [ "administrative_area_level_1", "political" ]
            },
            {
               "long_name" : "Turkey",
               "short_name" : "TR",
               "types" : [ "country", "political" ]
            }
         ],
         "formatted_address" : "2GG9+63 Rize Merkez/Rize, Turkey",
         "geometry" : {
            "bounds" : {
               "northeast" : {
                  "lat" : 41.025625,
                  "lng" : 40.51775
               },
               "southwest" : {
                  "lat" : 41.0255,
                  "lng" : 40.517625
               }
            },
            "location" : {
               "lat" : 41.0255111,
               "lng" : 40.517666
            },
            "location_type" : "GEOMETRIC_CENTER",
            "viewport" : {
               "northeast" : {
                  "lat" : 41.0269114802915,
                  "lng" : 40.5190364802915
               },
               "southwest" : {
                  "lat" : 41.0242135197085,
                  "lng" : 40.5163385197085
               }
            }
         },
         "place_id" : "GhIJrRee8kODREARJSAm4UJCREA",
         "plus_code" : {
            "compound_code" : "2GG9+63 Rize Merkez/Rize, Turkey",
            "global_code" : "8HH22GG9+63"
         },
         "types" : [ "plus_code" ]
      },
      {
         "address_components" : [
            {
               "long_name" : "Çarşı",
               "short_name" : "Çarşı",
               "types" : [ "administrative_area_level_4", "political" ]
            },
            {
               "long_name" : "Rize Merkez",
               "short_name" : "Rize Merkez",
               "types" : [ "administrative_area_level_2", "political" ]
            },
            {
               "long_name" : "Rize",
               "short_name" : "Rize",
               "types" : [ "administrative_area_level_1", "political" ]
            },
            {
               "long_name" : "Turkey",
               "short_name" : "TR",
               "types" : [ "country", "political" ]
            }
         ],
         "formatted_address" : "Çarşı, Rize Merkez/Rize, Turkey",
         "geometry" : {
            "bounds" : {
               "northeast" : {
                  "lat" : 41.026685,
                  "lng" : 40.520478
               },
               "southwest" : {
                  "lat" : 41.018566,
                  "lng" : 40.513033
               }
            },
            "location" : {
               "lat" : 41.022182,
               "lng" : 40.5170181
            },
            "location_type" : "APPROXIMATE",
            "viewport" : {
               "northeast" : {
                  "lat" : 41.026685,
                  "lng" : 40.520478
               },
               "southwest" : {
                  "lat" : 41.018566,
                  "lng" : 40.513033
               }
            }
         },
         "place_id" : "ChIJyYWLoe96ZkARjPRSwsAjMPY",
         "types" : [ "administrative_area_level_4", "political" ]
      },
      {
         "address_components" : [
            {
               "long_name" : "53020",
               "short_name" : "53020",
               "types" : [ "postal_code" ]
            },
            {
               "long_name" : "Rize Merkez",
               "short_name" : "Rize Merkez",
               "types" : [ "administrative_area_level_2", "political" ]
            },
            {
               "long_name" : "Rize",
               "short_name" : "Rize",
               "types" : [ "administrative_area_level_1", "political" ]
            },
            {
               "long_name" : "Turkey",
               "short_name" : "TR",
               "types" : [ "country", "political" ]
            }
         ],
         "formatted_address" : "53020 Rize Merkez/Rize, Turkey",
         "geometry" : {
            "bounds" : {
               "northeast" : {
                  "lat" : 41.027054,
                  "lng" : 40.5181419
               },
               "southwest" : {
                  "lat" : 41.0204499,
                  "lng" : 40.5069831
               }
            },
            "location" : {
               "lat" : 41.0239437,
               "lng" : 40.5128547
            },
            "location_type" : "APPROXIMATE",
            "viewport" : {
               "northeast" : {
                  "lat" : 41.027054,
                  "lng" : 40.5181419
               },
               "southwest" : {
                  "lat" : 41.0204499,
                  "lng" : 40.5069831
               }
            }
         },
         "place_id" : "ChIJ01VTF-V6ZkAR_GBwWwEdWNY",
         "types" : [ "postal_code" ]
      },
      {
         "address_components" : [
            {
               "long_name" : "Rize",
               "short_name" : "Rize",
               "types" : [ "locality", "political" ]
            },
            {
               "long_name" : "Rize Merkez",
               "short_name" : "Rize Merkez",
               "types" : [ "administrative_area_level_2", "political" ]
            },
            {
               "long_name" : "Rize",
               "short_name" : "Rize",
               "types" : [ "administrative_area_level_1", "political" ]
            },
            {
               "long_name" : "Turkey",
               "short_name" : "TR",
               "types" : [ "country", "political" ]
            }
         ],
         "formatted_address" : "Rize, Rize Merkez/Rize, Turkey",
         "geometry" : {
            "bounds" : {
               "northeast" : {
                  "lat" : 41.052146,
                  "lng" : 40.614641
               },
               "southwest" : {
                  "lat" : 41.010782,
                  "lng" : 40.478578
               }
            },
            "location" : {
               "lat" : 41.025511,
               "lng" : 40.517666
            },
            "location_type" : "APPROXIMATE",
            "viewport" : {
               "northeast" : {
                  "lat" : 41.052146,
                  "lng" : 40.614641
               },
               "southwest" : {
                  "lat" : 41.010782,
                  "lng" : 40.478578
               }
            }
         },
         "place_id" : "ChIJN0Ky98N6ZkARVJv7mbgAWQE",
         "types" : [ "locality", "political" ]
      },
      {
         "address_components" : [
            {
               "long_name" : "Rize Merkez",
               "short_name" : "Rize Merkez",
               "types" : [ "administrative_area_level_2", "political" ]
            },
            {
               "long_name" : "Rize",
               "short_name" : "Rize",
               "types" : [ "administrative_area_level_1", "political" ]
            },
            {
               "long_name" : "Turkey",
               "short_name" : "TR",
               "types" : [ "country", "political" ]
            }
         ],
         "formatted_address" : "Rize Merkez/Rize, Turkey",
         "geometry" : {
            "bounds" : {
               "northeast" : {
                  "lat" : 41.0703311,
                  "lng" : 40.713069
               },
               "southwest" : {
                  "lat" : 40.834698,
                  "lng" : 40.398935
               }
            },
            "location" : {
               "lat" : 40.8596647,
               "lng" : 40.6354312
            },
            "location_type" : "APPROXIMATE",
            "viewport" : {
               "northeast" : {
                  "lat" : 41.0703311,
                  "lng" : 40.713069
               },
               "southwest" : {
                  "lat" : 40.834698,
                  "lng" : 40.398935
               }
            }
         },
         "place_id" : "ChIJz0ikpsx2ZkAR1pP36mexH1I",
         "types" : [ "administrative_area_level_2", "political" ]
      },
      {
         "address_components" : [
            {
               "long_name" : "Rize",
               "short_name" : "Rize",
               "types" : [ "administrative_area_level_1", "political" ]
            },
            {
               "long_name" : "Turkey",
               "short_name" : "TR",
               "types" : [ "country", "political" ]
            }
         ],
         "formatted_address" : "Rize, Turkey",
         "geometry" : {
            "bounds" : {
               "northeast" : {
                  "lat" : 41.3342699,
                  "lng" : 41.35974
               },
               "southwest" : {
                  "lat" : 40.51665200000001,
                  "lng" : 40.329713
               }
            },
            "location" : {
               "lat" : 40.95814970000001,
               "lng" : 40.9226985
            },
            "location_type" : "APPROXIMATE",
            "viewport" : {
               "northeast" : {
                  "lat" : 41.3342699,
                  "lng" : 41.35974
               },
               "southwest" : {
                  "lat" : 40.51665200000001,
                  "lng" : 40.329713
               }
            }
         },
         "place_id" : "ChIJE9z2qBASZkARUaA4l5PWHH4",
         "types" : [ "administrative_area_level_1", "political" ]
      },
      {
         "address_components" : [
            {
               "long_name" : "Turkey",
               "short_name" : "TR",
               "types" : [ "country", "political" ]
            }
         ],
         "formatted_address" : "Turkey",
         "geometry" : {
            "bounds" : {
               "northeast" : {
                  "lat" : 42.3666999,
                  "lng" : 44.8178449
               },
               "southwest" : {
                  "lat" : 35.808592,
                  "lng" : 25.5377
               }
            },
            "location" : {
               "lat" : 38.963745,
               "lng" : 35.243322
            },
            "location_type" : "APPROXIMATE",
            "viewport" : {
               "northeast" : {
                  "lat" : 42.3666999,
                  "lng" : 44.8178449
               },
               "southwest" : {
                  "lat" : 35.808592,
                  "lng" : 25.5377
               }
            }
         },
         "place_id" : "ChIJcSZPllwVsBQRKl9iKtTb2UA",
         "types" : [ "country", "political" ]
      }
   ],
   "status" : "OK"
}
