{
   "plus_code" : {
      "compound_code" : "22V6+62 Beşiktaş/İstanbul, Turkey",
      "global_code" : "8GHF22V6+62"
   },
   "results" : [
      {
         "address_components" : [
            {
               "long_name" : "6-8",
               "short_name" : "6-8",
               "types" : [ "street_number" ]
            },
            {
               "long_name" : "Sinan Paşa Kuyu Sokak",
               "short_name" : "Sinan Paşa Kuyu Sk.",
               "types" : [ "route" ]
            },
            {
               "long_name" : "Yıldız",
               "short_name" : "Yıldız",
               "types" : [ "administrative_area_level_4", "political" ]
            },
            {
               "long_name" : "Beşiktaş",
               "short_name" : "Beşiktaş",
               "types" : [ "administrative_area_level_2", "political" ]
            },
            {
               "long_name" : "İstanbul",
               "short_name" : "İstanbul",
               "types" : [ "administrative_area_level_1", "political" ]
            },
            {
               "long_name" : "Turkey",
               "short_name" : "TR",
               "types" : [ "country", "political" ]
            },
            {
               "long_name" : "34349",
               "short_name" : "34349",
               "types" : [ "postal_code" ]
            }
         ],
         "formatted_address" : "Yıldız, Sinan Paşa Kuyu Sk. 6-8, 34349 Beşiktaş/İstanbul, Turkey",
         "geometry" : {
            "location" : {
               "lat" : 41.043073,
               "lng" : 29.010078
            },
            "location_type" : "ROOFTOP",
            "viewport" : {
               "northeast" : {
                  "lat" : 41.0444219802915,
                  "lng" : 29.0114269802915
               },
               "southwest" : {
                  "lat" : 41.0417240197085,
                  "lng" : 29.0087290197085
               }
            }
         },
         "place_id" : "ChIJ02eq3KK3yhQRqBsMSwt3H5U",
         "plus_code" : {
            "compound_code" : "22V6+62 Beşiktaş/İstanbul, Turkey",
            "global_code" : "8GHF22V6+62"
         },
         "types" : [ "street_address" ]
      },
      {
         "address_components" : [
            {
               "long_name" : "47-1",
               "short_name" : "47-1",
               "types" : [ "street_number" ]
            },
            {
               "long_name" : "Çırağan Caddesi",
               "short_name" : "Çırağan Cd.",
               "types" : [ "route" ]
            },
            {
               "long_name" : "Yıldız",
               "short_name" : "Yıldız",
               "types" : [ "administrative_area_level_4", "political" ]
            },
            {
               "long_name" : "Beşiktaş",
               "short_name" : "Beşiktaş",
               "types" : [ "administrative_area_level_2", "political" ]
            },
            {
               "long_name" : "İstanbul",
               "short_name" : "İstanbul",
               "types" : [ "administrative_area_level_1", "political" ]
            },
            {
               "long_name" : "Turkey",
               "short_name" : "TR",
               "types" : [ "country", "political" ]
            },
            {
               "long_name" : "34349",
               "short_name" : "34349",
               "types" : [ "postal_code" ]
            }
         ],
         "formatted_address" : "Yıldız, Çırağan Cd. 47-1, 34349 Beşiktaş/İstanbul, Turkey",
         "geometry" : {
            "location" : {
               "lat" : 41.0430478,
               "lng" : 29.0102805
            },
            "location_type" : "ROOFTOP",
            "viewport" : {
               "northeast" : {
                  "lat" : 41.0443967802915,
                  "lng" : 29.0116294802915
               },
               "southwest" : {
                  "lat" : 41.0416988197085,
                  "lng" : 29.0089315197085
               }
            }
         },
         "place_id" : "ChIJ-dtW06K3yhQRTIRdJZlE4qA",
         "plus_code" : {
            "compound_code" : "22V6+64 Beşiktaş/İstanbul, Turkey",
            "global_code" : "8GHF22V6+64"
         },
         "types" : [ "establishment", "point_of_interest", "university" ]
      },
      {
         "address_components" : [
            {
               "long_name" : "8",
               "short_name" : "8",
               "types" : [ "street_number" ]
            },
            {
               "long_name" : "Sinan Paşa Kuyu Sokak",
               "short_name" : "Sinan Paşa Kuyu Sk.",
               "types" : [ "route" ]
            },
            {
               "long_name" : "Yıldız",
               "short_name" : "Yıldız",
               "types" : [ "administrative_area_level_4", "political" ]
            },
            {
               "long_name" : "Beşiktaş",
               "short_name" : "Beşiktaş",
               "types" : [ "administrative_area_level_2", "political" ]
            },
            {
               "long_name" : "İstanbul",
               "short_name" : "İstanbul",
               "types" : [ "administrative_area_level_1", "political" ]
            },
            {
               "long_name" : "Turkey",
               "short_name" : "TR",
               "types" : [ "country", "political" ]
            },
            {
               "long_name" : "34349",
               "short_name" : "34349",
               "types" : [ "postal_code" ]
            }
         ],
         "formatted_address" : "Yıldız, Sinan Paşa Kuyu Sk. No:8, 34349 Beşiktaş/İstanbul, Turkey",
         "geometry" : {
            "location" : {
               "lat" : 41.04306589999999,
               "lng" : 29.0099273
            },
            "location_type" : "RANGE_INTERPOLATED",
            "viewport" : {
               "northeast" : {
                  "lat" : 41.04441488029149,
                  "lng" : 29.0112762802915
               },
               "southwest" : {
                  "lat" : 41.04171691970849,
                  "lng" : 29.0085783197085
               }
            }
         },
         "place_id" : "EkdZxLFsZMSxeiwgU2luYW4gUGHFn2EgS3V5dSBTay4gTm86OCwgMzQzNDkgQmXFn2lrdGHFny_EsHN0YW5idWwsIFR1cmtleSIaEhgKFAoSCV00G8Oit8oUEQdIaKo1BWfmEAg",
         "types" : [ "street_address" ]
      },
      {
         "address_components" : [
            {
               "long_name" : "11-1",
               "short_name" : "11-1",
               "types" : [ "street_number" ]
            },
            {
               "long_name" : "Sinan Paşa Kuyu Sokak",
               "short_name" : "Sinan Paşa Kuyu Sk.",
               "types" : [ "route" ]
            },
            {
               "long_name" : "Yıldız",
               "short_name" : "Yıldız",
               "types" : [ "administrative_area_level_4", "political" ]
            },
            {
               "long_name" : "Beşiktaş",
               "short_name" : "Beşiktaş",
               "types" : [ "administrative_area_level_2", "political" ]
            },
            {
               "long_name" : "İstanbul",
               "short_name" : "İstanbul",
               "types" : [ "administrative_area_level_1", "political" ]
            },
            {
               "long_name" : "Turkey",
               "short_name" : "TR",
               "types" : [ "country", "political" ]
            },
            {
               "long_name" : "34349",
               "short_name" : "34349",
               "types" : [ "postal_code" ]
            }
         ],
         "formatted_address" : "Yıldız, Sinan Paşa Kuyu Sk. 11-1, 34349 Beşiktaş/İstanbul, Turkey",
         "geometry" : {
            "bounds" : {
               "northeast" : {
                  "lat" : 41.0431522,
                  "lng" : 29.01006479999999
               },
               "southwest" : {
                  "lat" : 41.0427576,
                  "lng" : 29.0096032
               }
            },
            "location" : {
               "lat" : 41.0430607,
               "lng" : 29.0099299
            },
            "location_type" : "GEOMETRIC_CENTER",
            "viewport" : {
               "northeast" : {
                  "lat" : 41.0443038802915,
                  "lng" : 29.01118298029149
               },
               "southwest" : {
                  "lat" : 41.0416059197085,
                  "lng" : 29.00848501970849
               }
            }
         },
         "place_id" : "ChIJXTQbw6K3yhQRBkhoqjUFZ-Y",
         "types" : [ "route" ]
      },
      {
         "address_components" : [
            {
               "long_name" : "Beşiktaş",
               "short_name" : "Beşiktaş",
               "types" : [ "political", "sublocality", "sublocality_level_1" ]
            },
            {
               "long_name" : "Sinanpaşa",
               "short_name" : "Sinanpaşa",
               "types" : [ "administrative_area_level_4", "political" ]
            },
            {
               "long_name" : "Beşiktaş",
               "short_name" : "Beşiktaş",
               "types" : [ "administrative_area_level_2", "political" ]
            },
            {
               "long_name" : "İstanbul",
               "short_name" : "İstanbul",
               "types" : [ "administrative_area_level_1", "political" ]
            },
            {
               "long_name" : "Turkey",
               "short_name" : "TR",
               "types" : [ "country", "political" ]
            }
         ],
         "formatted_address" : "Beşiktaş, Sinanpaşa, Beşiktaş/İstanbul, Turkey",
         "geometry" : {
            "bounds" : {
               "northeast" : {
                  "lat" : 41.0478204,
                  "lng" : 29.0133107
               },
               "southwest" : {
                  "lat" : 41.0380858,
                  "lng" : 28.99834329999999
               }
            },
            "location" : {
               "lat" : 41.0422066,
               "lng" : 29.0067037
            },
            "location_type" : "APPROXIMATE",
            "viewport" : {
               "northeast" : {
                  "lat" : 41.0478204,
                  "lng" : 29.0133107
               },
               "southwest" : {
                  "lat" : 41.0380858,
                  "lng" : 28.99834329999999
               }
            }
         },
         "place_id" : "ChIJ5x7eLaC3yhQRYwwIKoo4qcI",
         "types" : [ "political", "sublocality", "sublocality_level_1" ]
      },
      {
         "address_components" : [
            {
               "long_name" : "34349",
               "short_name" : "34349",
               "types" : [ "postal_code" ]
            },
            {
               "long_name" : "Yıldız",
               "short_name" : "Yıldız",
               "types" : [ "administrative_area_level_4", "political" ]
            },
            {
               "long_name" : "Beşiktaş",
               "short_name" : "Beşiktaş",
               "types" : [ "administrative_area_level_2", "political" ]
            },
            {
               "long_name" : "İstanbul",
               "short_name" : "İstanbul",
               "types" : [ "administrative_area_level_1", "political" ]
            },
            {
               "long_name" : "Turkey",
               "short_name" : "TR",
               "types" : [ "country", "political" ]
            }
         ],
         "formatted_address" : "Yıldız, 34349 Beşiktaş/İstanbul, Turkey",
         "geometry" : {
            "bounds" : {
               "northeast" : {
                  "lat" : 41.055871,
                  "lng" : 29.02570499999999
               },
               "southwest" : {
                  "lat" : 41.0410611,
                  "lng" : 29.0073091
               }
            },
            "location" : {
               "lat" : 41.0471495,
               "lng" : 29.0139863
            },
            "location_type" : "APPROXIMATE",
            "viewport" : {
               "northeast" : {
                  "lat" : 41.055871,
                  "lng" : 29.02570499999999
               },
               "southwest" : {
                  "lat" : 41.0410611,
                  "lng" : 29.0073091
               }
            }
         },
         "place_id" : "ChIJ90bMVUu2yhQRxe9uhasJeoQ",
         "types" : [ "postal_code" ]
      },
      {
         "address_components" : [
            {
               "long_name" : "Yıldız",
               "short_name" : "Yıldız",
               "types" : [ "administrative_area_level_4", "political" ]
            },
            {
               "long_name" : "Beşiktaş",
               "short_name" : "Beşiktaş",
               "types" : [ "administrative_area_level_2", "political" ]
            },
            {
               "long_name" : "İstanbul",
               "short_name" : "İstanbul",
               "types" : [ "administrative_area_level_1", "political" ]
            },
            {
               "long_name" : "Turkey",
               "short_name" : "TR",
               "types" : [ "country", "political" ]
            }
         ],
         "formatted_address" : "Yıldız, Beşiktaş/İstanbul, Turkey",
         "geometry" : {
            "bounds" : {
               "northeast" : {
                  "lat" : 41.055871,
                  "lng" : 29.02570499999999
               },
               "southwest" : {
                  "lat" : 41.0410611,
                  "lng" : 29.0073091
               }
            },
            "location" : {
               "lat" : 41.0471495,
               "lng" : 29.0139863
            },
            "location_type" : "APPROXIMATE",
            "viewport" : {
               "northeast" : {
                  "lat" : 41.055871,
                  "lng" : 29.02570499999999
               },
               "southwest" : {
                  "lat" : 41.0410611,
                  "lng" : 29.0073091
               }
            }
         },
         "place_id" : "ChIJ-_kDBLq3yhQR1F2OKxCGnZE",
         "types" : [ "administrative_area_level_4", "political" ]
      },
      {
         "address_components" : [
            {
               "long_name" : "Beşiktaş",
               "short_name" : "Beşiktaş",
               "types" : [ "administrative_area_level_2", "political" ]
            },
            {
               "long_name" : "İstanbul",
               "short_name" : "İstanbul",
               "types" : [ "administrative_area_level_1", "political" ]
            },
            {
               "long_name" : "Turkey",
               "short_name" : "TR",
               "types" : [ "country", "political" ]
            }
         ],
         "formatted_address" : "Beşiktaş/İstanbul, Turkey",
         "geometry" : {
            "bounds" : {
               "northeast" : {
                  "lat" : 41.106673,
                  "lng" : 29.055098
               },
               "southwest" : {
                  "lat" : 41.036762,
                  "lng" : 28.9895661
               }
            },
            "location" : {
               "lat" : 41.068616,
               "lng" : 29.0285355
            },
            "location_type" : "APPROXIMATE",
            "viewport" : {
               "northeast" : {
                  "lat" : 41.106673,
                  "lng" : 29.055098
               },
               "southwest" : {
                  "lat" : 41.036762,
                  "lng" : 28.9895661
               }
            }
         },
         "place_id" : "ChIJ8ZOBbz-2yhQRjAGhKalkyDY",
         "types" : [ "administrative_area_level_2", "political" ]
      },
      {
         "address_components" : [
            {
               "long_name" : "European Side",
               "short_name" : "European Side",
               "types" : [ "neighborhood", "political" ]
            },
            {
               "long_name" : "İstanbul",
               "short_name" : "İstanbul",
               "types" : [ "administrative_area_level_1", "political" ]
            },
            {
               "long_name" : "Turkey",
               "short_name" : "TR",
               "types" : [ "country", "political" ]
            }
         ],
         "formatted_address" : "European Side, İstanbul, Turkey",
         "geometry" : {
            "bounds" : {
               "northeast" : {
                  "lat" : 41.199239,
                  "lng" : 29.077487
               },
               "southwest" : {
                  "lat" : 40.954508,
                  "lng" : 28.595554
               }
            },
            "location" : {
               "lat" : 41.0286909,
               "lng" : 28.92404269999999
            },
            "location_type" : "APPROXIMATE",
            "viewport" : {
               "northeast" : {
                  "lat" : 41.199239,
                  "lng" : 29.077487
               },
               "southwest" : {
                  "lat" : 40.954508,
                  "lng" : 28.595554
               }
            }
         },
         "place_id" : "ChIJhTq6hpGkyhQRC5OjsPQ0MVY",
         "types" : [ "neighborhood", "political" ]
      },
      {
         "address_components" : [
            {
               "long_name" : "İstanbul",
               "short_name" : "İstanbul",
               "types" : [ "locality", "political" ]
            },
            {
               "long_name" : "İstanbul",
               "short_name" : "İstanbul",
               "types" : [ "administrative_area_level_1", "political" ]
            },
            {
               "long_name" : "Turkey",
               "short_name" : "TR",
               "types" : [ "country", "political" ]
            }
         ],
         "formatted_address" : "İstanbul, Turkey",
         "geometry" : {
            "bounds" : {
               "northeast" : {
                  "lat" : 41.199239,
                  "lng" : 29.4288049
               },
               "southwest" : {
                  "lat" : 40.811404,
                  "lng" : 28.595554
               }
            },
            "location" : {
               "lat" : 41.0082376,
               "lng" : 28.9783589
            },
            "location_type" : "APPROXIMATE",
            "viewport" : {
               "northeast" : {
                  "lat" : 41.199239,
                  "lng" : 29.4288049
               },
               "southwest" : {
                  "lat" : 40.811404,
                  "lng" : 28.595554
               }
            }
         },
         "place_id" : "ChIJawhoAASnyhQR0LABvJj-zOE",
         "types" : [ "locality", "political" ]
      },
      {
         "address_components" : [
            {
               "long_name" : "İstanbul",
               "short_name" : "İstanbul",
               "types" : [ "administrative_area_level_1", "political" ]
            },
            {
               "long_name" : "Turkey",
               "short_name" : "TR",
               "types" : [ "country", "political" ]
            }
         ],
         "formatted_address" : "İstanbul, Turkey",
         "geometry" : {
            "bounds" : {
               "northeast" : {
                  "lat" : 41.58461,
                  "lng" : 29.915705
               },
               "southwest" : {
                  "lat" : 40.8026889,
                  "lng" : 27.971373
               }
            },
            "location" : {
               "lat" : 41.1634302,
               "lng" : 28.7664408
            },
            "location_type" : "APPROXIMATE",
            "viewport" : {
               "northeast" : {
                  "lat" : 41.58461,
                  "lng" : 29.915705
               },
               "southwest" : {
                  "lat" : 40.8026889,
                  "lng" : 27.971373
               }
            }
         },
         "place_id" : "ChIJexVgWlG2yhQR6B1akfSarCI",
         "types" : [ "administrative_area_level_1", "political" ]
      },
      {
         "address_components" : [
            {
               "long_name" : "Turkey",
               "short_name" : "TR",
               "types" : [ "country", "political" ]
            }
         ],
         "formatted_address" : "Turkey",
         "geometry" : {
            "bounds" : {
               "northeast" : {
                  "lat" : 42.3666999,
                  "lng" : 44.8178449
               },
               "southwest" : {
                  "lat" : 35.808592,
                  "lng" : 25.5377
               }
            },
            "location" : {
               "lat" : 38.963745,
               "lng" : 35.243322
            },
            "location_type" : "APPROXIMATE",
            "viewport" : {
               "northeast" : {
                  "lat" : 42.3666999,
                  "lng" : 44.8178449
               },
               "southwest" : {
                  "lat" : 35.808592,
                  "lng" : 25.5377
               }
            }
         },
         "place_id" : "ChIJcSZPllwVsBQRKl9iKtTb2UA",
         "types" : [ "country", "political" ]
      },
      {
         "address_components" : [
            {
               "long_name" : "22V6+62",
               "short_name" : "22V6+62",
               "types" : [ "plus_code" ]
            },
            {
               "long_name" : "Beşiktaş",
               "short_name" : "Beşiktaş",
               "types" : [ "administrative_area_level_2", "political" ]
            },
            {
               "long_name" : "İstanbul",
               "short_name" : "İstanbul",
               "types" : [ "administrative_area_level_1", "political" ]
            },
            {
               "long_name" : "Turkey",
               "short_name" : "TR",
               "types" : [ "country", "political" ]
            }
         ],
         "formatted_address" : "22V6+62 Beşiktaş/İstanbul, Turkey",
         "geometry" : {
            "bounds" : {
               "northeast" : {
                  "lat" : 41.043125,
                  "lng" : 29.010125
               },
               "southwest" : {
                  "lat" : 41.04300000000001,
                  "lng" : 29.00999999999999
               }
            },
            "location" : {
               "lat" : 41.0431096,
               "lng" : 29.0100861
            },
            "location_type" : "ROOFTOP",
            "viewport" : {
               "northeast" : {
                  "lat" : 41.0444114802915,
                  "lng" : 29.01141148029149
               },
               "southwest" : {
                  "lat" : 41.0417135197085,
                  "lng" : 29.0087135197085
               }
            }
         },
         "place_id" : "GhIJYxKJnYSFREAR6KStAJUCPUA",
         "plus_code" : {
            "compound_code" : "22V6+62 Beşiktaş/İstanbul, Turkey",
            "global_code" : "8GHF22V6+62"
         },
         "types" : [ "plus_code" ]
      }
   ],
   "status" : "OK"
}
