{
   "plus_code" : {
      "compound_code" : "MHG4+V74 Edirne Merkez/Edirne, Turkey",
      "global_code" : "8GH8MHG4+V74"
   },
   "results" : [
      {
         "address_components" : [
            {
               "long_name" : "MHG4+V7",
               "short_name" : "MHG4+V7",
               "types" : [ "plus_code" ]
            },
            {
               "long_name" : "Edirne Merkez",
               "short_name" : "Edirne Merkez",
               "types" : [ "administrative_area_level_2", "political" ]
            },
            {
               "long_name" : "Edirne",
               "short_name" : "Edirne",
               "types" : [ "administrative_area_level_1", "political" ]
            },
            {
               "long_name" : "Turkey",
               "short_name" : "TR",
               "types" : [ "country", "political" ]
            }
         ],
         "formatted_address" : "MHG4+V7 Edirne Merkez/Edirne, Turkey",
         "geometry" : {
            "bounds" : {
               "northeast" : {
                  "lat" : 41.67725,
                  "lng" : 26.55575
               },
               "southwest" : {
                  "lat" : 41.677125,
                  "lng" : 26.555625
               }
            },
            "location" : {
               "lat" : 41.67712969999999,
               "lng" : 26.5557145
            },
            "location_type" : "GEOMETRIC_CENTER",
            "viewport" : {
               "northeast" : {
                  "lat" : 41.6785364802915,
                  "lng" : 26.5570364802915
               },
               "southwest" : {
                  "lat" : 41.6758385197085,
                  "lng" : 26.55433851970849
               }
            }
         },
         "place_id" : "GhIJPFOeL6zWREARumkzTkOOOkA",
         "plus_code" : {
            "compound_code" : "MHG4+V7 Edirne Merkez/Edirne, Turkey",
            "global_code" : "8GH8MHG4+V7"
         },
         "types" : [ "plus_code" ]
      },
      {
         "address_components" : [
            {
               "long_name" : "Çamaşırcılar Sokak",
               "short_name" : "Çamaşırcılar Sk.",
               "types" : [ "route" ]
            },
            {
               "long_name" : "Babademirtaş",
               "short_name" : "Babademirtaş",
               "types" : [ "administrative_area_level_4", "political" ]
            },
            {
               "long_name" : "Edirne Merkez",
               "short_name" : "Edirne Merkez",
               "types" : [ "administrative_area_level_2", "political" ]
            },
            {
               "long_name" : "Edirne",
               "short_name" : "Edirne",
               "types" : [ "administrative_area_level_1", "political" ]
            },
            {
               "long_name" : "Turkey",
               "short_name" : "TR",
               "types" : [ "country", "political" ]
            },
            {
               "long_name" : "22020",
               "short_name" : "22020",
               "types" : [ "postal_code" ]
            }
         ],
         "formatted_address" : "Babademirtaş, Çamaşırcılar Sk., 22020 Edirne Merkez/Edirne, Turkey",
         "geometry" : {
            "bounds" : {
               "northeast" : {
                  "lat" : 41.6772912,
                  "lng" : 26.555767
               },
               "southwest" : {
                  "lat" : 41.6771859,
                  "lng" : 26.5555361
               }
            },
            "location" : {
               "lat" : 41.6772386,
               "lng" : 26.5556516
            },
            "location_type" : "GEOMETRIC_CENTER",
            "viewport" : {
               "northeast" : {
                  "lat" : 41.67858753029149,
                  "lng" : 26.5570005302915
               },
               "southwest" : {
                  "lat" : 41.6758895697085,
                  "lng" : 26.5543025697085
               }
            }
         },
         "place_id" : "ChIJD1PvsHYvsxQRgkZfthzX-Pk",
         "types" : [ "route" ]
      },
      {
         "address_components" : [
            {
               "long_name" : "22100",
               "short_name" : "22100",
               "types" : [ "postal_code" ]
            },
            {
               "long_name" : "Sabuni",
               "short_name" : "Sabuni",
               "types" : [ "administrative_area_level_4", "political" ]
            },
            {
               "long_name" : "Edirne Merkez",
               "short_name" : "Edirne Merkez",
               "types" : [ "administrative_area_level_2", "political" ]
            },
            {
               "long_name" : "Edirne",
               "short_name" : "Edirne",
               "types" : [ "administrative_area_level_1", "political" ]
            },
            {
               "long_name" : "Turkey",
               "short_name" : "TR",
               "types" : [ "country", "political" ]
            }
         ],
         "formatted_address" : "Sabuni, 22100 Edirne Merkez/Edirne, Turkey",
         "geometry" : {
            "bounds" : {
               "northeast" : {
                  "lat" : 41.677154,
                  "lng" : 26.566531
               },
               "southwest" : {
                  "lat" : 41.669993,
                  "lng" : 26.55288
               }
            },
            "location" : {
               "lat" : 41.6743935,
               "lng" : 26.5565621
            },
            "location_type" : "APPROXIMATE",
            "viewport" : {
               "northeast" : {
                  "lat" : 41.677154,
                  "lng" : 26.566531
               },
               "southwest" : {
                  "lat" : 41.669993,
                  "lng" : 26.55288
               }
            }
         },
         "place_id" : "ChIJ-dti6ncvsxQRbT3gxDhnEgc",
         "types" : [ "postal_code" ]
      },
      {
         "address_components" : [
            {
               "long_name" : "Sabuni",
               "short_name" : "Sabuni",
               "types" : [ "administrative_area_level_4", "political" ]
            },
            {
               "long_name" : "Edirne Merkez",
               "short_name" : "Edirne Merkez",
               "types" : [ "administrative_area_level_2", "political" ]
            },
            {
               "long_name" : "Edirne",
               "short_name" : "Edirne",
               "types" : [ "administrative_area_level_1", "political" ]
            },
            {
               "long_name" : "Turkey",
               "short_name" : "TR",
               "types" : [ "country", "political" ]
            }
         ],
         "formatted_address" : "Sabuni, Edirne Merkez/Edirne, Turkey",
         "geometry" : {
            "bounds" : {
               "northeast" : {
                  "lat" : 41.677154,
                  "lng" : 26.566531
               },
               "southwest" : {
                  "lat" : 41.669993,
                  "lng" : 26.55288
               }
            },
            "location" : {
               "lat" : 41.6743935,
               "lng" : 26.5565621
            },
            "location_type" : "APPROXIMATE",
            "viewport" : {
               "northeast" : {
                  "lat" : 41.677154,
                  "lng" : 26.566531
               },
               "southwest" : {
                  "lat" : 41.669993,
                  "lng" : 26.55288
               }
            }
         },
         "place_id" : "ChIJ_9ti6ncvsxQRiKm5v-PYljc",
         "types" : [ "administrative_area_level_4", "political" ]
      },
      {
         "address_components" : [
            {
               "long_name" : "Edirne",
               "short_name" : "Edirne",
               "types" : [ "locality", "political" ]
            },
            {
               "long_name" : "Edirne Merkez",
               "short_name" : "Edirne Merkez",
               "types" : [ "administrative_area_level_2", "political" ]
            },
            {
               "long_name" : "Edirne",
               "short_name" : "Edirne",
               "types" : [ "administrative_area_level_1", "political" ]
            },
            {
               "long_name" : "Turkey",
               "short_name" : "TR",
               "types" : [ "country", "political" ]
            }
         ],
         "formatted_address" : "Edirne, Edirne Merkez/Edirne, Turkey",
         "geometry" : {
            "bounds" : {
               "northeast" : {
                  "lat" : 41.6958511,
                  "lng" : 26.6036878
               },
               "southwest" : {
                  "lat" : 41.6419,
                  "lng" : 26.542961
               }
            },
            "location" : {
               "lat" : 41.67712969999999,
               "lng" : 26.5557145
            },
            "location_type" : "APPROXIMATE",
            "viewport" : {
               "northeast" : {
                  "lat" : 41.6958511,
                  "lng" : 26.6036878
               },
               "southwest" : {
                  "lat" : 41.6419,
                  "lng" : 26.542961
               }
            }
         },
         "place_id" : "ChIJ4QRjoncvsxQRvDAcQ8rAz6A",
         "types" : [ "locality", "political" ]
      },
      {
         "address_components" : [
            {
               "long_name" : "Edirne Merkez",
               "short_name" : "Edirne Merkez",
               "types" : [ "administrative_area_level_2", "political" ]
            },
            {
               "long_name" : "Edirne",
               "short_name" : "Edirne",
               "types" : [ "administrative_area_level_1", "political" ]
            },
            {
               "long_name" : "Turkey",
               "short_name" : "TR",
               "types" : [ "country", "political" ]
            }
         ],
         "formatted_address" : "Edirne Merkez/Edirne, Turkey",
         "geometry" : {
            "bounds" : {
               "northeast" : {
                  "lat" : 41.893307,
                  "lng" : 26.8208378
               },
               "southwest" : {
                  "lat" : 41.437904,
                  "lng" : 26.329093
               }
            },
            "location" : {
               "lat" : 41.7,
               "lng" : 26.5609857
            },
            "location_type" : "APPROXIMATE",
            "viewport" : {
               "northeast" : {
                  "lat" : 41.893307,
                  "lng" : 26.8208378
               },
               "southwest" : {
                  "lat" : 41.437904,
                  "lng" : 26.329093
               }
            }
         },
         "place_id" : "ChIJbTveGI8vsxQRUqRmt-vjxbo",
         "types" : [ "administrative_area_level_2", "political" ]
      },
      {
         "address_components" : [
            {
               "long_name" : "Edirne",
               "short_name" : "Edirne",
               "types" : [ "administrative_area_level_1", "political" ]
            },
            {
               "long_name" : "Turkey",
               "short_name" : "TR",
               "types" : [ "country", "political" ]
            }
         ],
         "formatted_address" : "Edirne, Turkey",
         "geometry" : {
            "bounds" : {
               "northeast" : {
                  "lat" : 42.001854,
                  "lng" : 27.013508
               },
               "southwest" : {
                  "lat" : 40.589595,
                  "lng" : 26.0350719
               }
            },
            "location" : {
               "lat" : 41.15172219999999,
               "lng" : 26.5137964
            },
            "location_type" : "APPROXIMATE",
            "viewport" : {
               "northeast" : {
                  "lat" : 42.001854,
                  "lng" : 27.013508
               },
               "southwest" : {
                  "lat" : 40.589595,
                  "lng" : 26.0350719
               }
            }
         },
         "place_id" : "ChIJ4-ghsqgGsxQR8pJnsFPeVsI",
         "types" : [ "administrative_area_level_1", "political" ]
      },
      {
         "address_components" : [
            {
               "long_name" : "Turkey",
               "short_name" : "TR",
               "types" : [ "country", "political" ]
            }
         ],
         "formatted_address" : "Turkey",
         "geometry" : {
            "bounds" : {
               "northeast" : {
                  "lat" : 42.3666999,
                  "lng" : 44.8178449
               },
               "southwest" : {
                  "lat" : 35.808592,
                  "lng" : 25.5377
               }
            },
            "location" : {
               "lat" : 38.963745,
               "lng" : 35.243322
            },
            "location_type" : "APPROXIMATE",
            "viewport" : {
               "northeast" : {
                  "lat" : 42.3666999,
                  "lng" : 44.8178449
               },
               "southwest" : {
                  "lat" : 35.808592,
                  "lng" : 25.5377
               }
            }
         },
         "place_id" : "ChIJcSZPllwVsBQRKl9iKtTb2UA",
         "types" : [ "country", "political" ]
      }
   ],
   "status" : "OK"
}
