{
   "plus_code" : {
      "compound_code" : "QGQV+2M Dilovası/Kocaeli, Turkey",
      "global_code" : "8GGFQGQV+2M"
   },
   "results" : [
      {
         "address_components" : [
            {
               "long_name" : "45",
               "short_name" : "45",
               "types" : [ "street_number" ]
            },
            {
               "long_name" : "Karabey Caddesi",
               "short_name" : "Karabey Cd.",
               "types" : [ "route" ]
            },
            {
               "long_name" : "Orhangazi",
               "short_name" : "Orhangazi",
               "types" : [ "administrative_area_level_4", "political" ]
            },
            {
               "long_name" : "Dilovası",
               "short_name" : "Dilovası",
               "types" : [ "administrative_area_level_2", "political" ]
            },
            {
               "long_name" : "Kocaeli",
               "short_name" : "Kocaeli",
               "types" : [ "administrative_area_level_1", "political" ]
            },
            {
               "long_name" : "Turkey",
               "short_name" : "TR",
               "types" : [ "country", "political" ]
            },
            {
               "long_name" : "41455",
               "short_name" : "41455",
               "types" : [ "postal_code" ]
            }
         ],
         "formatted_address" : "Orhangazi, Karabey Cd. No:45, 41455 Dilovası/Kocaeli, Turkey",
         "geometry" : {
            "location" : {
               "lat" : 40.787744,
               "lng" : 29.544088
            },
            "location_type" : "ROOFTOP",
            "viewport" : {
               "northeast" : {
                  "lat" : 40.7890929802915,
                  "lng" : 29.5454369802915
               },
               "southwest" : {
                  "lat" : 40.7863950197085,
                  "lng" : 29.5427390197085
               }
            }
         },
         "place_id" : "ChIJuUm26pAjyxQRLfnFfoG5HvU",
         "plus_code" : {
            "compound_code" : "QGQV+3J Dilovası/Kocaeli, Turkey",
            "global_code" : "8GGFQGQV+3J"
         },
         "types" : [ "street_address" ]
      },
      {
         "address_components" : [
            {
               "long_name" : "43",
               "short_name" : "43",
               "types" : [ "street_number" ]
            },
            {
               "long_name" : "Karabey Caddesi",
               "short_name" : "Karabey Cd.",
               "types" : [ "route" ]
            },
            {
               "long_name" : "Orhangazi",
               "short_name" : "Orhangazi",
               "types" : [ "administrative_area_level_4", "political" ]
            },
            {
               "long_name" : "Dilovası",
               "short_name" : "Dilovası",
               "types" : [ "administrative_area_level_2", "political" ]
            },
            {
               "long_name" : "Kocaeli",
               "short_name" : "Kocaeli",
               "types" : [ "administrative_area_level_1", "political" ]
            },
            {
               "long_name" : "Turkey",
               "short_name" : "TR",
               "types" : [ "country", "political" ]
            },
            {
               "long_name" : "41455",
               "short_name" : "41455",
               "types" : [ "postal_code" ]
            }
         ],
         "formatted_address" : "Orhangazi, Karabey Cd. No:43, 41455 Dilovası/Kocaeli, Turkey",
         "geometry" : {
            "location" : {
               "lat" : 40.787589,
               "lng" : 29.5441383
            },
            "location_type" : "RANGE_INTERPOLATED",
            "viewport" : {
               "northeast" : {
                  "lat" : 40.78893798029149,
                  "lng" : 29.5454872802915
               },
               "southwest" : {
                  "lat" : 40.7862400197085,
                  "lng" : 29.5427893197085
               }
            }
         },
         "place_id" : "Ej1PcmhhbmdhemksIEthcmFiZXkgQ2QuIE5vOjQzLCA0MTQ1NSBEaWxvdmFzxLEvS29jYWVsaSwgVHVya2V5IhoSGAoUChIJa-Nev5AjyxQRtLD-DvxCBFIQKw",
         "types" : [ "street_address" ]
      },
      {
         "address_components" : [
            {
               "long_name" : "40-44",
               "short_name" : "40-44",
               "types" : [ "street_number" ]
            },
            {
               "long_name" : "Karabey Caddesi",
               "short_name" : "Karabey Cd.",
               "types" : [ "route" ]
            },
            {
               "long_name" : "Orhangazi",
               "short_name" : "Orhangazi",
               "types" : [ "administrative_area_level_4", "political" ]
            },
            {
               "long_name" : "Dilovası",
               "short_name" : "Dilovası",
               "types" : [ "administrative_area_level_2", "political" ]
            },
            {
               "long_name" : "Kocaeli",
               "short_name" : "Kocaeli",
               "types" : [ "administrative_area_level_1", "political" ]
            },
            {
               "long_name" : "Turkey",
               "short_name" : "TR",
               "types" : [ "country", "political" ]
            },
            {
               "long_name" : "41455",
               "short_name" : "41455",
               "types" : [ "postal_code" ]
            }
         ],
         "formatted_address" : "Orhangazi, Karabey Cd. 40-44, 41455 Dilovası/Kocaeli, Turkey",
         "geometry" : {
            "bounds" : {
               "northeast" : {
                  "lat" : 40.7882108,
                  "lng" : 29.5442388
               },
               "southwest" : {
                  "lat" : 40.7876132,
                  "lng" : 29.54414119999999
               }
            },
            "location" : {
               "lat" : 40.7879119,
               "lng" : 29.5441906
            },
            "location_type" : "GEOMETRIC_CENTER",
            "viewport" : {
               "northeast" : {
                  "lat" : 40.7892609802915,
                  "lng" : 29.5455389802915
               },
               "southwest" : {
                  "lat" : 40.7865630197085,
                  "lng" : 29.5428410197085
               }
            }
         },
         "place_id" : "ChIJ2XOflJAjyxQRZs5V969I9gk",
         "types" : [ "route" ]
      },
      {
         "address_components" : [
            {
               "long_name" : "QGQV+2M",
               "short_name" : "QGQV+2M",
               "types" : [ "plus_code" ]
            },
            {
               "long_name" : "Dilovası",
               "short_name" : "Dilovası",
               "types" : [ "administrative_area_level_2", "political" ]
            },
            {
               "long_name" : "Kocaeli",
               "short_name" : "Kocaeli",
               "types" : [ "administrative_area_level_1", "political" ]
            },
            {
               "long_name" : "Turkey",
               "short_name" : "TR",
               "types" : [ "country", "political" ]
            }
         ],
         "formatted_address" : "QGQV+2M Dilovası/Kocaeli, Turkey",
         "geometry" : {
            "bounds" : {
               "northeast" : {
                  "lat" : 40.787625,
                  "lng" : 29.54425
               },
               "southwest" : {
                  "lat" : 40.7875,
                  "lng" : 29.54412499999999
               }
            },
            "location" : {
               "lat" : 40.787622,
               "lng" : 29.544158
            },
            "location_type" : "ROOFTOP",
            "viewport" : {
               "northeast" : {
                  "lat" : 40.7889114802915,
                  "lng" : 29.5455364802915
               },
               "southwest" : {
                  "lat" : 40.7862135197085,
                  "lng" : 29.5428385197085
               }
            }
         },
         "place_id" : "GhIJGM41zNBkREARVdtN8E2LPUA",
         "plus_code" : {
            "compound_code" : "QGQV+2M Dilovası/Kocaeli, Turkey",
            "global_code" : "8GGFQGQV+2M"
         },
         "types" : [ "plus_code" ]
      },
      {
         "address_components" : [
            {
               "long_name" : "41455",
               "short_name" : "41455",
               "types" : [ "postal_code" ]
            },
            {
               "long_name" : "Dilovası",
               "short_name" : "Dilovası",
               "types" : [ "administrative_area_level_2", "political" ]
            },
            {
               "long_name" : "Kocaeli",
               "short_name" : "Kocaeli",
               "types" : [ "administrative_area_level_1", "political" ]
            },
            {
               "long_name" : "Turkey",
               "short_name" : "TR",
               "types" : [ "country", "political" ]
            }
         ],
         "formatted_address" : "41455 Dilovası/Kocaeli, Turkey",
         "geometry" : {
            "bounds" : {
               "northeast" : {
                  "lat" : 40.797469,
                  "lng" : 29.554955
               },
               "southwest" : {
                  "lat" : 40.7796809,
                  "lng" : 29.5387049
               }
            },
            "location" : {
               "lat" : 40.78917269999999,
               "lng" : 29.5470197
            },
            "location_type" : "APPROXIMATE",
            "viewport" : {
               "northeast" : {
                  "lat" : 40.797469,
                  "lng" : 29.554955
               },
               "southwest" : {
                  "lat" : 40.7796809,
                  "lng" : 29.5387049
               }
            }
         },
         "place_id" : "ChIJVY-fjZojyxQRypWlIkzFGEQ",
         "types" : [ "postal_code" ]
      },
      {
         "address_components" : [
            {
               "long_name" : "Dilovası",
               "short_name" : "Dilovası",
               "types" : [ "locality", "political" ]
            },
            {
               "long_name" : "Dilovası",
               "short_name" : "Dilovası",
               "types" : [ "administrative_area_level_2", "political" ]
            },
            {
               "long_name" : "Kocaeli",
               "short_name" : "Kocaeli",
               "types" : [ "administrative_area_level_1", "political" ]
            },
            {
               "long_name" : "Turkey",
               "short_name" : "TR",
               "types" : [ "country", "political" ]
            }
         ],
         "formatted_address" : "Dilovası, Kocaeli, Turkey",
         "geometry" : {
            "bounds" : {
               "northeast" : {
                  "lat" : 40.7966369,
                  "lng" : 29.5575941
               },
               "southwest" : {
                  "lat" : 40.779132,
                  "lng" : 29.530861
               }
            },
            "location" : {
               "lat" : 40.787622,
               "lng" : 29.544158
            },
            "location_type" : "APPROXIMATE",
            "viewport" : {
               "northeast" : {
                  "lat" : 40.7966369,
                  "lng" : 29.5575941
               },
               "southwest" : {
                  "lat" : 40.779132,
                  "lng" : 29.530861
               }
            }
         },
         "place_id" : "ChIJj99pDJUjyxQR_xYWY3BqHDo",
         "types" : [ "locality", "political" ]
      },
      {
         "address_components" : [
            {
               "long_name" : "Orhangazi",
               "short_name" : "Orhangazi",
               "types" : [ "administrative_area_level_4", "political" ]
            },
            {
               "long_name" : "Dilovası",
               "short_name" : "Dilovası",
               "types" : [ "administrative_area_level_2", "political" ]
            },
            {
               "long_name" : "Kocaeli",
               "short_name" : "Kocaeli",
               "types" : [ "administrative_area_level_1", "political" ]
            },
            {
               "long_name" : "Turkey",
               "short_name" : "TR",
               "types" : [ "country", "political" ]
            }
         ],
         "formatted_address" : "Orhangazi, Dilovası/Kocaeli, Turkey",
         "geometry" : {
            "bounds" : {
               "northeast" : {
                  "lat" : 40.8043661,
                  "lng" : 29.5661019
               },
               "southwest" : {
                  "lat" : 40.7796809,
                  "lng" : 29.5387049
               }
            },
            "location" : {
               "lat" : 40.7982615,
               "lng" : 29.560067
            },
            "location_type" : "APPROXIMATE",
            "viewport" : {
               "northeast" : {
                  "lat" : 40.8043661,
                  "lng" : 29.5661019
               },
               "southwest" : {
                  "lat" : 40.7796809,
                  "lng" : 29.5387049
               }
            }
         },
         "place_id" : "ChIJT_CCv4UjyxQRxnDzAKjhEjA",
         "types" : [ "administrative_area_level_4", "political" ]
      },
      {
         "address_components" : [
            {
               "long_name" : "Dilovası",
               "short_name" : "Dilovası",
               "types" : [ "administrative_area_level_2", "political" ]
            },
            {
               "long_name" : "Kocaeli",
               "short_name" : "Kocaeli",
               "types" : [ "administrative_area_level_1", "political" ]
            },
            {
               "long_name" : "Turkey",
               "short_name" : "TR",
               "types" : [ "country", "political" ]
            }
         ],
         "formatted_address" : "Dilovası/Kocaeli, Turkey",
         "geometry" : {
            "bounds" : {
               "northeast" : {
                  "lat" : 40.90581110000001,
                  "lng" : 29.6865289
               },
               "southwest" : {
                  "lat" : 40.763399,
                  "lng" : 29.492792
               }
            },
            "location" : {
               "lat" : 40.8458429,
               "lng" : 29.5803702
            },
            "location_type" : "APPROXIMATE",
            "viewport" : {
               "northeast" : {
                  "lat" : 40.90581110000001,
                  "lng" : 29.6865289
               },
               "southwest" : {
                  "lat" : 40.763399,
                  "lng" : 29.492792
               }
            }
         },
         "place_id" : "ChIJSdUhdCQlyxQREmWqrirsC5Y",
         "types" : [ "administrative_area_level_2", "political" ]
      },
      {
         "address_components" : [
            {
               "long_name" : "Kocaeli",
               "short_name" : "Kocaeli",
               "types" : [ "administrative_area_level_1", "political" ]
            },
            {
               "long_name" : "Turkey",
               "short_name" : "TR",
               "types" : [ "country", "political" ]
            }
         ],
         "formatted_address" : "Kocaeli, Turkey",
         "geometry" : {
            "bounds" : {
               "northeast" : {
                  "lat" : 41.20976,
                  "lng" : 30.367743
               },
               "southwest" : {
                  "lat" : 40.524151,
                  "lng" : 29.3331261
               }
            },
            "location" : {
               "lat" : 40.8532704,
               "lng" : 29.8815203
            },
            "location_type" : "APPROXIMATE",
            "viewport" : {
               "northeast" : {
                  "lat" : 41.20976,
                  "lng" : 30.367743
               },
               "southwest" : {
                  "lat" : 40.524151,
                  "lng" : 29.3331261
               }
            }
         },
         "place_id" : "ChIJQ8zKb5QgyxQRWdhW642zLKg",
         "types" : [ "administrative_area_level_1", "political" ]
      },
      {
         "address_components" : [
            {
               "long_name" : "Turkey",
               "short_name" : "TR",
               "types" : [ "country", "political" ]
            }
         ],
         "formatted_address" : "Turkey",
         "geometry" : {
            "bounds" : {
               "northeast" : {
                  "lat" : 42.3666999,
                  "lng" : 44.8178449
               },
               "southwest" : {
                  "lat" : 35.808592,
                  "lng" : 25.5377
               }
            },
            "location" : {
               "lat" : 38.963745,
               "lng" : 35.243322
            },
            "location_type" : "APPROXIMATE",
            "viewport" : {
               "northeast" : {
                  "lat" : 42.3666999,
                  "lng" : 44.8178449
               },
               "southwest" : {
                  "lat" : 35.808592,
                  "lng" : 25.5377
               }
            }
         },
         "place_id" : "ChIJcSZPllwVsBQRKl9iKtTb2UA",
         "types" : [ "country", "political" ]
      }
   ],
   "status" : "OK"
}
