{
   "plus_code" : {
      "compound_code" : "RW25+QH İzmit/Kocaeli, Turkey",
      "global_code" : "8GGFRW25+QH"
   },
   "results" : [
      {
         "address_components" : [
            {
               "long_name" : "169",
               "short_name" : "169",
               "types" : [ "street_number" ]
            },
            {
               "long_name" : "Arızlı Köyü İç Yolu",
               "short_name" : "Arızlı Köyü İç Yolu",
               "types" : [ "route" ]
            },
            {
               "long_name" : "Arızlı",
               "short_name" : "Arızlı",
               "types" : [ "administrative_area_level_4", "political" ]
            },
            {
               "long_name" : "İzmit",
               "short_name" : "İzmit",
               "types" : [ "administrative_area_level_2", "political" ]
            },
            {
               "long_name" : "Kocaeli",
               "short_name" : "Kocaeli",
               "types" : [ "administrative_area_level_1", "political" ]
            },
            {
               "long_name" : "Turkey",
               "short_name" : "TR",
               "types" : [ "country", "political" ]
            },
            {
               "long_name" : "41000",
               "short_name" : "41000",
               "types" : [ "postal_code" ]
            }
         ],
         "formatted_address" : "Arızlı, Arızlı Köyü İç Yolu No:169, 41000 İzmit/Kocaeli, Turkey",
         "geometry" : {
            "location" : {
               "lat" : 40.8022176,
               "lng" : 29.9088759
            },
            "location_type" : "ROOFTOP",
            "viewport" : {
               "northeast" : {
                  "lat" : 40.8035665802915,
                  "lng" : 29.9102248802915
               },
               "southwest" : {
                  "lat" : 40.8008686197085,
                  "lng" : 29.9075269197085
               }
            }
         },
         "place_id" : "ChIJuSSTEhlPyxQRLvYa2TGoYAA",
         "plus_code" : {
            "compound_code" : "RW25+VH İzmit/Kocaeli, Turkey",
            "global_code" : "8GGFRW25+VH"
         },
         "types" : [ "street_address" ]
      },
      {
         "address_components" : [
            {
               "long_name" : "169",
               "short_name" : "169",
               "types" : [ "street_number" ]
            },
            {
               "long_name" : "Arızlı Köyü İç Yolu",
               "short_name" : "Arızlı Köyü İç Yolu",
               "types" : [ "route" ]
            },
            {
               "long_name" : "Arızlı",
               "short_name" : "Arızlı",
               "types" : [ "administrative_area_level_4", "political" ]
            },
            {
               "long_name" : "İzmit",
               "short_name" : "İzmit",
               "types" : [ "administrative_area_level_2", "political" ]
            },
            {
               "long_name" : "Kocaeli",
               "short_name" : "Kocaeli",
               "types" : [ "administrative_area_level_1", "political" ]
            },
            {
               "long_name" : "Turkey",
               "short_name" : "TR",
               "types" : [ "country", "political" ]
            },
            {
               "long_name" : "41000",
               "short_name" : "41000",
               "types" : [ "postal_code" ]
            }
         ],
         "formatted_address" : "Arızlı, Arızlı Köyü İç Yolu No:169, 41000 İzmit/Kocaeli, Turkey",
         "geometry" : {
            "location" : {
               "lat" : 40.8021844,
               "lng" : 29.9089021
            },
            "location_type" : "RANGE_INTERPOLATED",
            "viewport" : {
               "northeast" : {
                  "lat" : 40.8035333802915,
                  "lng" : 29.9102510802915
               },
               "southwest" : {
                  "lat" : 40.80083541970851,
                  "lng" : 29.9075531197085
               }
            }
         },
         "place_id" : "EkhBcsSxemzEsSwgQXLEsXpsxLEgS8O2ecO8IMSww6cgWW9sdSBObzoxNjksIDQxMDAwIMSwem1pdC9Lb2NhZWxpLCBUdXJrZXkiGxIZChQKEglpKxFtGU_LFBEN5FDweBXNwRCpAQ",
         "types" : [ "street_address" ]
      },
      {
         "address_components" : [
            {
               "long_name" : "RW25+QH",
               "short_name" : "RW25+QH",
               "types" : [ "plus_code" ]
            },
            {
               "long_name" : "İzmit",
               "short_name" : "İzmit",
               "types" : [ "administrative_area_level_2", "political" ]
            },
            {
               "long_name" : "Kocaeli",
               "short_name" : "Kocaeli",
               "types" : [ "administrative_area_level_1", "political" ]
            },
            {
               "long_name" : "Turkey",
               "short_name" : "TR",
               "types" : [ "country", "political" ]
            }
         ],
         "formatted_address" : "RW25+QH İzmit/Kocaeli, Turkey",
         "geometry" : {
            "bounds" : {
               "northeast" : {
                  "lat" : 40.802,
                  "lng" : 29.909
               },
               "southwest" : {
                  "lat" : 40.801875,
                  "lng" : 29.908875
               }
            },
            "location" : {
               "lat" : 40.801915,
               "lng" : 29.908924
            },
            "location_type" : "GEOMETRIC_CENTER",
            "viewport" : {
               "northeast" : {
                  "lat" : 40.8032864802915,
                  "lng" : 29.9102864802915
               },
               "southwest" : {
                  "lat" : 40.8005885197085,
                  "lng" : 29.9075885197085
               }
            }
         },
         "place_id" : "GhIJ_5WVJqVmREARrIxGPq_oPUA",
         "plus_code" : {
            "compound_code" : "RW25+QH İzmit/Kocaeli, Turkey",
            "global_code" : "8GGFRW25+QH"
         },
         "types" : [ "plus_code" ]
      },
      {
         "address_components" : [
            {
               "long_name" : "Arızlı Köyü İç Yolu",
               "short_name" : "Arızlı Köyü İç Yolu",
               "types" : [ "route" ]
            },
            {
               "long_name" : "Arızlı",
               "short_name" : "Arızlı",
               "types" : [ "administrative_area_level_4", "political" ]
            },
            {
               "long_name" : "İzmit",
               "short_name" : "İzmit",
               "types" : [ "administrative_area_level_2", "political" ]
            },
            {
               "long_name" : "Kocaeli",
               "short_name" : "Kocaeli",
               "types" : [ "administrative_area_level_1", "political" ]
            },
            {
               "long_name" : "Turkey",
               "short_name" : "TR",
               "types" : [ "country", "political" ]
            },
            {
               "long_name" : "41000",
               "short_name" : "41000",
               "types" : [ "postal_code" ]
            }
         ],
         "formatted_address" : "Arızlı, Arızlı Köyü İç Yolu, 41000 İzmit/Kocaeli, Turkey",
         "geometry" : {
            "bounds" : {
               "northeast" : {
                  "lat" : 40.8020603,
                  "lng" : 29.9088726
               },
               "southwest" : {
                  "lat" : 40.8019562,
                  "lng" : 29.9083912
               }
            },
            "location" : {
               "lat" : 40.8019667,
               "lng" : 29.9086157
            },
            "location_type" : "GEOMETRIC_CENTER",
            "viewport" : {
               "northeast" : {
                  "lat" : 40.8033572302915,
                  "lng" : 29.9099808802915
               },
               "southwest" : {
                  "lat" : 40.8006592697085,
                  "lng" : 29.9072829197085
               }
            }
         },
         "place_id" : "ChIJFSklDBlPyxQRTm501QL6FW8",
         "types" : [ "route" ]
      },
      {
         "address_components" : [
            {
               "long_name" : "Arızlı",
               "short_name" : "Arızlı",
               "types" : [ "locality", "political" ]
            },
            {
               "long_name" : "Arızlı",
               "short_name" : "Arızlı",
               "types" : [ "administrative_area_level_4", "political" ]
            },
            {
               "long_name" : "İzmit",
               "short_name" : "İzmit",
               "types" : [ "administrative_area_level_2", "political" ]
            },
            {
               "long_name" : "Kocaeli",
               "short_name" : "Kocaeli",
               "types" : [ "administrative_area_level_1", "political" ]
            },
            {
               "long_name" : "Turkey",
               "short_name" : "TR",
               "types" : [ "country", "political" ]
            },
            {
               "long_name" : "41001",
               "short_name" : "41001",
               "types" : [ "postal_code" ]
            }
         ],
         "formatted_address" : "Arızlı, 41001 İzmit/Kocaeli, Turkey",
         "geometry" : {
            "bounds" : {
               "northeast" : {
                  "lat" : 40.8051509,
                  "lng" : 29.90986809999999
               },
               "southwest" : {
                  "lat" : 40.796386,
                  "lng" : 29.9054901
               }
            },
            "location" : {
               "lat" : 40.801915,
               "lng" : 29.908924
            },
            "location_type" : "APPROXIMATE",
            "viewport" : {
               "northeast" : {
                  "lat" : 40.8051509,
                  "lng" : 29.90986809999999
               },
               "southwest" : {
                  "lat" : 40.796386,
                  "lng" : 29.9054901
               }
            }
         },
         "place_id" : "ChIJmU7UUBlPyxQREALdvNF-h50",
         "types" : [ "locality", "political" ]
      },
      {
         "address_components" : [
            {
               "long_name" : "41001",
               "short_name" : "41001",
               "types" : [ "postal_code" ]
            },
            {
               "long_name" : "Arızlı",
               "short_name" : "Arızlı",
               "types" : [ "administrative_area_level_4", "political" ]
            },
            {
               "long_name" : "İzmit",
               "short_name" : "İzmit",
               "types" : [ "administrative_area_level_2", "political" ]
            },
            {
               "long_name" : "Kocaeli",
               "short_name" : "Kocaeli",
               "types" : [ "administrative_area_level_1", "political" ]
            },
            {
               "long_name" : "Turkey",
               "short_name" : "TR",
               "types" : [ "country", "political" ]
            }
         ],
         "formatted_address" : "Arızlı, 41001 İzmit/Kocaeli, Turkey",
         "geometry" : {
            "bounds" : {
               "northeast" : {
                  "lat" : 40.8350929,
                  "lng" : 29.9189441
               },
               "southwest" : {
                  "lat" : 40.7763721,
                  "lng" : 29.881933
               }
            },
            "location" : {
               "lat" : 40.8019472,
               "lng" : 29.9075516
            },
            "location_type" : "APPROXIMATE",
            "viewport" : {
               "northeast" : {
                  "lat" : 40.8350929,
                  "lng" : 29.9189441
               },
               "southwest" : {
                  "lat" : 40.7763721,
                  "lng" : 29.881933
               }
            }
         },
         "place_id" : "ChIJMd8w3SNPyxQRpLHl9remPRE",
         "types" : [ "postal_code" ]
      },
      {
         "address_components" : [
            {
               "long_name" : "Arızlı",
               "short_name" : "Arızlı",
               "types" : [ "administrative_area_level_4", "political" ]
            },
            {
               "long_name" : "İzmit",
               "short_name" : "İzmit",
               "types" : [ "administrative_area_level_2", "political" ]
            },
            {
               "long_name" : "Kocaeli",
               "short_name" : "Kocaeli",
               "types" : [ "administrative_area_level_1", "political" ]
            },
            {
               "long_name" : "Turkey",
               "short_name" : "TR",
               "types" : [ "country", "political" ]
            }
         ],
         "formatted_address" : "Arızlı, İzmit/Kocaeli, Turkey",
         "geometry" : {
            "bounds" : {
               "northeast" : {
                  "lat" : 40.8350929,
                  "lng" : 29.9189441
               },
               "southwest" : {
                  "lat" : 40.7763721,
                  "lng" : 29.881933
               }
            },
            "location" : {
               "lat" : 40.8019472,
               "lng" : 29.9075516
            },
            "location_type" : "APPROXIMATE",
            "viewport" : {
               "northeast" : {
                  "lat" : 40.8350929,
                  "lng" : 29.9189441
               },
               "southwest" : {
                  "lat" : 40.7763721,
                  "lng" : 29.881933
               }
            }
         },
         "place_id" : "ChIJv2m_DBlPyxQRqNl24eCbKhc",
         "types" : [ "administrative_area_level_4", "political" ]
      },
      {
         "address_components" : [
            {
               "long_name" : "İzmit",
               "short_name" : "İzmit",
               "types" : [ "administrative_area_level_2", "political" ]
            },
            {
               "long_name" : "Kocaeli",
               "short_name" : "Kocaeli",
               "types" : [ "administrative_area_level_1", "political" ]
            },
            {
               "long_name" : "Turkey",
               "short_name" : "TR",
               "types" : [ "country", "political" ]
            }
         ],
         "formatted_address" : "İzmit/Kocaeli, Turkey",
         "geometry" : {
            "bounds" : {
               "northeast" : {
                  "lat" : 40.971557,
                  "lng" : 30.2639339
               },
               "southwest" : {
                  "lat" : 40.720553,
                  "lng" : 29.8541681
               }
            },
            "location" : {
               "lat" : 40.8506635,
               "lng" : 30.0202964
            },
            "location_type" : "APPROXIMATE",
            "viewport" : {
               "northeast" : {
                  "lat" : 40.971557,
                  "lng" : 30.2639339
               },
               "southwest" : {
                  "lat" : 40.720553,
                  "lng" : 29.8541681
               }
            }
         },
         "place_id" : "ChIJL2DfPLZQyxQRitx6sY9PIGU",
         "types" : [ "administrative_area_level_2", "political" ]
      },
      {
         "address_components" : [
            {
               "long_name" : "Kocaeli",
               "short_name" : "Kocaeli",
               "types" : [ "administrative_area_level_1", "political" ]
            },
            {
               "long_name" : "Turkey",
               "short_name" : "TR",
               "types" : [ "country", "political" ]
            }
         ],
         "formatted_address" : "Kocaeli, Turkey",
         "geometry" : {
            "bounds" : {
               "northeast" : {
                  "lat" : 41.20976,
                  "lng" : 30.367743
               },
               "southwest" : {
                  "lat" : 40.524151,
                  "lng" : 29.3331261
               }
            },
            "location" : {
               "lat" : 40.8532704,
               "lng" : 29.8815203
            },
            "location_type" : "APPROXIMATE",
            "viewport" : {
               "northeast" : {
                  "lat" : 41.20976,
                  "lng" : 30.367743
               },
               "southwest" : {
                  "lat" : 40.524151,
                  "lng" : 29.3331261
               }
            }
         },
         "place_id" : "ChIJQ8zKb5QgyxQRWdhW642zLKg",
         "types" : [ "administrative_area_level_1", "political" ]
      },
      {
         "address_components" : [
            {
               "long_name" : "Turkey",
               "short_name" : "TR",
               "types" : [ "country", "political" ]
            }
         ],
         "formatted_address" : "Turkey",
         "geometry" : {
            "bounds" : {
               "northeast" : {
                  "lat" : 42.3666999,
                  "lng" : 44.8178449
               },
               "southwest" : {
                  "lat" : 35.808592,
                  "lng" : 25.5377
               }
            },
            "location" : {
               "lat" : 38.963745,
               "lng" : 35.243322
            },
            "location_type" : "APPROXIMATE",
            "viewport" : {
               "northeast" : {
                  "lat" : 42.3666999,
                  "lng" : 44.8178449
               },
               "southwest" : {
                  "lat" : 35.808592,
                  "lng" : 25.5377
               }
            }
         },
         "place_id" : "ChIJcSZPllwVsBQRKl9iKtTb2UA",
         "types" : [ "country", "political" ]
      }
   ],
   "status" : "OK"
}
