{
   "plus_code" : {
      "compound_code" : "QXC3+77 İzmit/Kocaeli, Turkey",
      "global_code" : "8GGFQXC3+77"
   },
   "results" : [
      {
         "address_components" : [
            {
               "long_name" : "23",
               "short_name" : "23",
               "types" : [ "street_number" ]
            },
            {
               "long_name" : "Hasan Kaya Sokak",
               "short_name" : "Hasan Kaya Sk.",
               "types" : [ "route" ]
            },
            {
               "long_name" : "M. Alipaşa",
               "short_name" : "M. Alipaşa",
               "types" : [ "administrative_area_level_4", "political" ]
            },
            {
               "long_name" : "İzmit",
               "short_name" : "İzmit",
               "types" : [ "administrative_area_level_2", "political" ]
            },
            {
               "long_name" : "Kocaeli",
               "short_name" : "Kocaeli",
               "types" : [ "administrative_area_level_1", "political" ]
            },
            {
               "long_name" : "Turkey",
               "short_name" : "TR",
               "types" : [ "country", "political" ]
            },
            {
               "long_name" : "41050",
               "short_name" : "41050",
               "types" : [ "postal_code" ]
            }
         ],
         "formatted_address" : "M. Alipaşa, Hasan Kaya Sk. No:23, 41050 İzmit/Kocaeli, Turkey",
         "geometry" : {
            "location" : {
               "lat" : 40.7707402,
               "lng" : 29.95321029999999
            },
            "location_type" : "ROOFTOP",
            "viewport" : {
               "northeast" : {
                  "lat" : 40.77208918029149,
                  "lng" : 29.95455928029149
               },
               "southwest" : {
                  "lat" : 40.7693912197085,
                  "lng" : 29.9518613197085
               }
            }
         },
         "place_id" : "ChIJz9be_OxPyxQRJ0Hgiu-8vKY",
         "plus_code" : {
            "compound_code" : "QXC3+77 İzmit/Kocaeli, Turkey",
            "global_code" : "8GGFQXC3+77"
         },
         "types" : [ "street_address" ]
      },
      {
         "address_components" : [
            {
               "long_name" : "28",
               "short_name" : "28",
               "types" : [ "street_number" ]
            },
            {
               "long_name" : "Hasan Kaya Sokak",
               "short_name" : "Hasan Kaya Sk.",
               "types" : [ "route" ]
            },
            {
               "long_name" : "M. Alipaşa",
               "short_name" : "M. Alipaşa",
               "types" : [ "administrative_area_level_4", "political" ]
            },
            {
               "long_name" : "İzmit",
               "short_name" : "İzmit",
               "types" : [ "administrative_area_level_2", "political" ]
            },
            {
               "long_name" : "Kocaeli",
               "short_name" : "Kocaeli",
               "types" : [ "administrative_area_level_1", "political" ]
            },
            {
               "long_name" : "Turkey",
               "short_name" : "TR",
               "types" : [ "country", "political" ]
            },
            {
               "long_name" : "41050",
               "short_name" : "41050",
               "types" : [ "postal_code" ]
            }
         ],
         "formatted_address" : "M. Alipaşa, Hasan Kaya Sk. No:28, 41050 İzmit/Kocaeli, Turkey",
         "geometry" : {
            "bounds" : {
               "northeast" : {
                  "lat" : 40.7704924,
                  "lng" : 29.9531151
               },
               "southwest" : {
                  "lat" : 40.7703894,
                  "lng" : 29.9530316
               }
            },
            "location" : {
               "lat" : 40.7704295,
               "lng" : 29.9530718
            },
            "location_type" : "ROOFTOP",
            "viewport" : {
               "northeast" : {
                  "lat" : 40.7717898802915,
                  "lng" : 29.9544223302915
               },
               "southwest" : {
                  "lat" : 40.7690919197085,
                  "lng" : 29.9517243697085
               }
            }
         },
         "place_id" : "ChIJedtNHe1PyxQRqy8Cbmnsojk",
         "types" : [ "premise" ]
      },
      {
         "address_components" : [
            {
               "long_name" : "32",
               "short_name" : "32",
               "types" : [ "street_number" ]
            },
            {
               "long_name" : "Hasan Kaya Sokak",
               "short_name" : "Hasan Kaya Sk.",
               "types" : [ "route" ]
            },
            {
               "long_name" : "M. Alipaşa",
               "short_name" : "M. Alipaşa",
               "types" : [ "administrative_area_level_4", "political" ]
            },
            {
               "long_name" : "İzmit",
               "short_name" : "İzmit",
               "types" : [ "administrative_area_level_2", "political" ]
            },
            {
               "long_name" : "Kocaeli",
               "short_name" : "Kocaeli",
               "types" : [ "administrative_area_level_1", "political" ]
            },
            {
               "long_name" : "Turkey",
               "short_name" : "TR",
               "types" : [ "country", "political" ]
            },
            {
               "long_name" : "41050",
               "short_name" : "41050",
               "types" : [ "postal_code" ]
            }
         ],
         "formatted_address" : "M. Alipaşa, Hasan Kaya Sk. No:32, 41050 İzmit/Kocaeli, Turkey",
         "geometry" : {
            "location" : {
               "lat" : 40.7706773,
               "lng" : 29.9531874
            },
            "location_type" : "RANGE_INTERPOLATED",
            "viewport" : {
               "northeast" : {
                  "lat" : 40.77202628029149,
                  "lng" : 29.9545363802915
               },
               "southwest" : {
                  "lat" : 40.76932831970849,
                  "lng" : 29.9518384197085
               }
            }
         },
         "place_id" : "Ej9NLiBBbGlwYcWfYSwgSGFzYW4gS2F5YSBTay4gTm86MzIsIDQxMDUwIMSwem1pdC9Lb2NhZWxpLCBUdXJrZXkiGhIYChQKEgnf51H87E_LFBGYtweoN1uSqhAg",
         "types" : [ "street_address" ]
      },
      {
         "address_components" : [
            {
               "long_name" : "26-30",
               "short_name" : "26-30",
               "types" : [ "street_number" ]
            },
            {
               "long_name" : "Hasan Kaya Sokak",
               "short_name" : "Hasan Kaya Sk.",
               "types" : [ "route" ]
            },
            {
               "long_name" : "M. Alipaşa",
               "short_name" : "M. Alipaşa",
               "types" : [ "administrative_area_level_4", "political" ]
            },
            {
               "long_name" : "İzmit",
               "short_name" : "İzmit",
               "types" : [ "administrative_area_level_2", "political" ]
            },
            {
               "long_name" : "Kocaeli",
               "short_name" : "Kocaeli",
               "types" : [ "administrative_area_level_1", "political" ]
            },
            {
               "long_name" : "Turkey",
               "short_name" : "TR",
               "types" : [ "country", "political" ]
            },
            {
               "long_name" : "41050",
               "short_name" : "41050",
               "types" : [ "postal_code" ]
            }
         ],
         "formatted_address" : "M. Alipaşa, Hasan Kaya Sk. 26-30, 41050 İzmit/Kocaeli, Turkey",
         "geometry" : {
            "bounds" : {
               "northeast" : {
                  "lat" : 40.7706725,
                  "lng" : 29.9531633
               },
               "southwest" : {
                  "lat" : 40.770601,
                  "lng" : 29.9527493
               }
            },
            "location" : {
               "lat" : 40.7706368,
               "lng" : 29.9529563
            },
            "location_type" : "GEOMETRIC_CENTER",
            "viewport" : {
               "northeast" : {
                  "lat" : 40.7719857302915,
                  "lng" : 29.9543052802915
               },
               "southwest" : {
                  "lat" : 40.76928776970851,
                  "lng" : 29.9516073197085
               }
            }
         },
         "place_id" : "ChIJZ694He1PyxQRoiluLVUasUs",
         "types" : [ "route" ]
      },
      {
         "address_components" : [
            {
               "long_name" : "QXC3+77",
               "short_name" : "QXC3+77",
               "types" : [ "plus_code" ]
            },
            {
               "long_name" : "İzmit",
               "short_name" : "İzmit",
               "types" : [ "administrative_area_level_2", "political" ]
            },
            {
               "long_name" : "Kocaeli",
               "short_name" : "Kocaeli",
               "types" : [ "administrative_area_level_1", "political" ]
            },
            {
               "long_name" : "Turkey",
               "short_name" : "TR",
               "types" : [ "country", "political" ]
            }
         ],
         "formatted_address" : "QXC3+77 İzmit/Kocaeli, Turkey",
         "geometry" : {
            "bounds" : {
               "northeast" : {
                  "lat" : 40.77075000000001,
                  "lng" : 29.95325
               },
               "southwest" : {
                  "lat" : 40.770625,
                  "lng" : 29.953125
               }
            },
            "location" : {
               "lat" : 40.7706725,
               "lng" : 29.9531633
            },
            "location_type" : "ROOFTOP",
            "viewport" : {
               "northeast" : {
                  "lat" : 40.7720364802915,
                  "lng" : 29.95453648029149
               },
               "southwest" : {
                  "lat" : 40.7693385197085,
                  "lng" : 29.9518385197085
               }
            }
         },
         "place_id" : "GhIJmbZ_ZaViREARWD-RggL0PUA",
         "plus_code" : {
            "compound_code" : "QXC3+77 İzmit/Kocaeli, Turkey",
            "global_code" : "8GGFQXC3+77"
         },
         "types" : [ "plus_code" ]
      },
      {
         "address_components" : [
            {
               "long_name" : "41050",
               "short_name" : "41050",
               "types" : [ "postal_code" ]
            },
            {
               "long_name" : "M. Alipaşa",
               "short_name" : "M. Alipaşa",
               "types" : [ "administrative_area_level_4", "political" ]
            },
            {
               "long_name" : "İzmit",
               "short_name" : "İzmit",
               "types" : [ "administrative_area_level_2", "political" ]
            },
            {
               "long_name" : "Kocaeli",
               "short_name" : "Kocaeli",
               "types" : [ "administrative_area_level_1", "political" ]
            },
            {
               "long_name" : "Turkey",
               "short_name" : "TR",
               "types" : [ "country", "political" ]
            }
         ],
         "formatted_address" : "M. Alipaşa, 41050 İzmit/Kocaeli, Turkey",
         "geometry" : {
            "bounds" : {
               "northeast" : {
                  "lat" : 40.77284,
                  "lng" : 29.959482
               },
               "southwest" : {
                  "lat" : 40.763034,
                  "lng" : 29.9486929
               }
            },
            "location" : {
               "lat" : 40.7672137,
               "lng" : 29.9523716
            },
            "location_type" : "APPROXIMATE",
            "viewport" : {
               "northeast" : {
                  "lat" : 40.77284,
                  "lng" : 29.959482
               },
               "southwest" : {
                  "lat" : 40.763034,
                  "lng" : 29.9486929
               }
            }
         },
         "place_id" : "ChIJ_fiVgO1PyxQRTWoD9Dt3MQU",
         "types" : [ "postal_code" ]
      },
      {
         "address_components" : [
            {
               "long_name" : "M. Alipaşa",
               "short_name" : "M. Alipaşa",
               "types" : [ "administrative_area_level_4", "political" ]
            },
            {
               "long_name" : "İzmit",
               "short_name" : "İzmit",
               "types" : [ "administrative_area_level_2", "political" ]
            },
            {
               "long_name" : "Kocaeli",
               "short_name" : "Kocaeli",
               "types" : [ "administrative_area_level_1", "political" ]
            },
            {
               "long_name" : "Turkey",
               "short_name" : "TR",
               "types" : [ "country", "political" ]
            }
         ],
         "formatted_address" : "M. Alipaşa, İzmit/Kocaeli, Turkey",
         "geometry" : {
            "bounds" : {
               "northeast" : {
                  "lat" : 40.77284,
                  "lng" : 29.959482
               },
               "southwest" : {
                  "lat" : 40.763034,
                  "lng" : 29.9485909
               }
            },
            "location" : {
               "lat" : 40.7672137,
               "lng" : 29.9523716
            },
            "location_type" : "APPROXIMATE",
            "viewport" : {
               "northeast" : {
                  "lat" : 40.77284,
                  "lng" : 29.959482
               },
               "southwest" : {
                  "lat" : 40.763034,
                  "lng" : 29.9485909
               }
            }
         },
         "place_id" : "ChIJk2b1wPJPyxQRJLticksnTmc",
         "types" : [ "administrative_area_level_4", "political" ]
      },
      {
         "address_components" : [
            {
               "long_name" : "İzmit",
               "short_name" : "İzmit",
               "types" : [ "locality", "political" ]
            },
            {
               "long_name" : "İzmit",
               "short_name" : "İzmit",
               "types" : [ "administrative_area_level_2", "political" ]
            },
            {
               "long_name" : "Kocaeli",
               "short_name" : "Kocaeli",
               "types" : [ "administrative_area_level_1", "political" ]
            },
            {
               "long_name" : "Turkey",
               "short_name" : "TR",
               "types" : [ "country", "political" ]
            }
         ],
         "formatted_address" : "İzmit, Kocaeli, Turkey",
         "geometry" : {
            "bounds" : {
               "northeast" : {
                  "lat" : 40.805401,
                  "lng" : 30.014834
               },
               "southwest" : {
                  "lat" : 40.736827,
                  "lng" : 29.8541681
               }
            },
            "location" : {
               "lat" : 40.7654408,
               "lng" : 29.9408089
            },
            "location_type" : "APPROXIMATE",
            "viewport" : {
               "northeast" : {
                  "lat" : 40.805401,
                  "lng" : 30.014834
               },
               "southwest" : {
                  "lat" : 40.736827,
                  "lng" : 29.8541681
               }
            }
         },
         "place_id" : "ChIJnftLZGZPyxQRuX5rWOcOaYI",
         "types" : [ "locality", "political" ]
      },
      {
         "address_components" : [
            {
               "long_name" : "İzmit",
               "short_name" : "İzmit",
               "types" : [ "administrative_area_level_2", "political" ]
            },
            {
               "long_name" : "Kocaeli",
               "short_name" : "Kocaeli",
               "types" : [ "administrative_area_level_1", "political" ]
            },
            {
               "long_name" : "Turkey",
               "short_name" : "TR",
               "types" : [ "country", "political" ]
            }
         ],
         "formatted_address" : "İzmit/Kocaeli, Turkey",
         "geometry" : {
            "bounds" : {
               "northeast" : {
                  "lat" : 40.971557,
                  "lng" : 30.2639339
               },
               "southwest" : {
                  "lat" : 40.720553,
                  "lng" : 29.8541681
               }
            },
            "location" : {
               "lat" : 40.8506635,
               "lng" : 30.0202964
            },
            "location_type" : "APPROXIMATE",
            "viewport" : {
               "northeast" : {
                  "lat" : 40.971557,
                  "lng" : 30.2639339
               },
               "southwest" : {
                  "lat" : 40.720553,
                  "lng" : 29.8541681
               }
            }
         },
         "place_id" : "ChIJL2DfPLZQyxQRitx6sY9PIGU",
         "types" : [ "administrative_area_level_2", "political" ]
      },
      {
         "address_components" : [
            {
               "long_name" : "Kocaeli",
               "short_name" : "Kocaeli",
               "types" : [ "administrative_area_level_1", "political" ]
            },
            {
               "long_name" : "Turkey",
               "short_name" : "TR",
               "types" : [ "country", "political" ]
            }
         ],
         "formatted_address" : "Kocaeli, Turkey",
         "geometry" : {
            "bounds" : {
               "northeast" : {
                  "lat" : 41.20976,
                  "lng" : 30.367743
               },
               "southwest" : {
                  "lat" : 40.524151,
                  "lng" : 29.3331261
               }
            },
            "location" : {
               "lat" : 40.8532704,
               "lng" : 29.8815203
            },
            "location_type" : "APPROXIMATE",
            "viewport" : {
               "northeast" : {
                  "lat" : 41.20976,
                  "lng" : 30.367743
               },
               "southwest" : {
                  "lat" : 40.524151,
                  "lng" : 29.3331261
               }
            }
         },
         "place_id" : "ChIJQ8zKb5QgyxQRWdhW642zLKg",
         "types" : [ "administrative_area_level_1", "political" ]
      },
      {
         "address_components" : [
            {
               "long_name" : "Turkey",
               "short_name" : "TR",
               "types" : [ "country", "political" ]
            }
         ],
         "formatted_address" : "Turkey",
         "geometry" : {
            "bounds" : {
               "northeast" : {
                  "lat" : 42.3666999,
                  "lng" : 44.8178449
               },
               "southwest" : {
                  "lat" : 35.808592,
                  "lng" : 25.5377
               }
            },
            "location" : {
               "lat" : 38.963745,
               "lng" : 35.243322
            },
            "location_type" : "APPROXIMATE",
            "viewport" : {
               "northeast" : {
                  "lat" : 42.3666999,
                  "lng" : 44.8178449
               },
               "southwest" : {
                  "lat" : 35.808592,
                  "lng" : 25.5377
               }
            }
         },
         "place_id" : "ChIJcSZPllwVsBQRKl9iKtTb2UA",
         "types" : [ "country", "political" ]
      }
   ],
   "status" : "OK"
}
