{
   "plus_code" : {
      "compound_code" : "RJ6R+RHX Akdeniz/Mersin, Turkey",
      "global_code" : "8G8PRJ6R+RHX"
   },
   "results" : [
      {
         "address_components" : [
            {
               "long_name" : "No:2/D",
               "short_name" : "No:2/D",
               "types" : [ "street_number" ]
            },
            {
               "long_name" : "5634. Sokak",
               "short_name" : "5634. Sk.",
               "types" : [ "route" ]
            },
            {
               "long_name" : "Siteler",
               "short_name" : "Siteler",
               "types" : [ "administrative_area_level_4", "political" ]
            },
            {
               "long_name" : "Akdeniz",
               "short_name" : "Akdeniz",
               "types" : [ "administrative_area_level_2", "political" ]
            },
            {
               "long_name" : "Mersin",
               "short_name" : "Mersin",
               "types" : [ "administrative_area_level_1", "political" ]
            },
            {
               "long_name" : "Turkey",
               "short_name" : "TR",
               "types" : [ "country", "political" ]
            },
            {
               "long_name" : "33040",
               "short_name" : "33040",
               "types" : [ "postal_code" ]
            }
         ],
         "formatted_address" : "Siteler, 5634. Sk. No:2/D, 33040 Akdeniz/Mersin, Turkey",
         "geometry" : {
            "location" : {
               "lat" : 36.8121855,
               "lng" : 34.6412413
            },
            "location_type" : "ROOFTOP",
            "viewport" : {
               "northeast" : {
                  "lat" : 36.81353448029149,
                  "lng" : 34.64259028029149
               },
               "southwest" : {
                  "lat" : 36.8108365197085,
                  "lng" : 34.6398923197085
               }
            }
         },
         "place_id" : "ChIJNdgG07TzJxURvVf20VgLgFc",
         "plus_code" : {
            "compound_code" : "RJ6R+VF Akdeniz/Mersin, Turkey",
            "global_code" : "8G8PRJ6R+VF"
         },
         "types" : [ "street_address" ]
      },
      {
         "address_components" : [
            {
               "long_name" : "2",
               "short_name" : "2",
               "types" : [ "street_number" ]
            },
            {
               "long_name" : "5634. Sokak",
               "short_name" : "5634. Sk.",
               "types" : [ "route" ]
            },
            {
               "long_name" : "Siteler",
               "short_name" : "Siteler",
               "types" : [ "administrative_area_level_4", "political" ]
            },
            {
               "long_name" : "Akdeniz",
               "short_name" : "Akdeniz",
               "types" : [ "administrative_area_level_2", "political" ]
            },
            {
               "long_name" : "Mersin",
               "short_name" : "Mersin",
               "types" : [ "administrative_area_level_1", "political" ]
            },
            {
               "long_name" : "Turkey",
               "short_name" : "TR",
               "types" : [ "country", "political" ]
            },
            {
               "long_name" : "33040",
               "short_name" : "33040",
               "types" : [ "postal_code" ]
            }
         ],
         "formatted_address" : "Siteler, 5634. Sk. No:2, 33040 Akdeniz/Mersin, Turkey",
         "geometry" : {
            "location" : {
               "lat" : 36.8121641,
               "lng" : 34.6411501
            },
            "location_type" : "RANGE_INTERPOLATED",
            "viewport" : {
               "northeast" : {
                  "lat" : 36.8135130802915,
                  "lng" : 34.6424990802915
               },
               "southwest" : {
                  "lat" : 36.8108151197085,
                  "lng" : 34.6398011197085
               }
            }
         },
         "place_id" : "EjVTaXRlbGVyLCA1NjM0LiBTay4gTm86MiwgMzMwNDAgQWtkZW5pei9NZXJzaW4sIFR1cmtleSIaEhgKFAoSCWf_ytO08ycVEc35q7TPAd5xEAI",
         "types" : [ "street_address" ]
      },
      {
         "address_components" : [
            {
               "long_name" : "160. Caddesi",
               "short_name" : "160. Cd.",
               "types" : [ "route" ]
            },
            {
               "long_name" : "Siteler",
               "short_name" : "Siteler",
               "types" : [ "administrative_area_level_4", "political" ]
            },
            {
               "long_name" : "Akdeniz",
               "short_name" : "Akdeniz",
               "types" : [ "administrative_area_level_2", "political" ]
            },
            {
               "long_name" : "Mersin",
               "short_name" : "Mersin",
               "types" : [ "administrative_area_level_1", "political" ]
            },
            {
               "long_name" : "Turkey",
               "short_name" : "TR",
               "types" : [ "country", "political" ]
            },
            {
               "long_name" : "33040",
               "short_name" : "33040",
               "types" : [ "postal_code" ]
            }
         ],
         "formatted_address" : "Siteler, 160. Cd., 33040 Akdeniz/Mersin, Turkey",
         "geometry" : {
            "bounds" : {
               "northeast" : {
                  "lat" : 36.8132599,
                  "lng" : 34.6414225
               },
               "southwest" : {
                  "lat" : 36.81211589999999,
                  "lng" : 34.64113090000001
               }
            },
            "location" : {
               "lat" : 36.8126874,
               "lng" : 34.6412768
            },
            "location_type" : "GEOMETRIC_CENTER",
            "viewport" : {
               "northeast" : {
                  "lat" : 36.8140368802915,
                  "lng" : 34.6426256802915
               },
               "southwest" : {
                  "lat" : 36.8113389197085,
                  "lng" : 34.6399277197085
               }
            }
         },
         "place_id" : "ChIJozDyKrXzJxURwDV7ramR1DI",
         "types" : [ "route" ]
      },
      {
         "address_components" : [
            {
               "long_name" : "RJ6R+RH",
               "short_name" : "RJ6R+RH",
               "types" : [ "plus_code" ]
            },
            {
               "long_name" : "Akdeniz",
               "short_name" : "Akdeniz",
               "types" : [ "administrative_area_level_2", "political" ]
            },
            {
               "long_name" : "Mersin",
               "short_name" : "Mersin",
               "types" : [ "administrative_area_level_1", "political" ]
            },
            {
               "long_name" : "Turkey",
               "short_name" : "TR",
               "types" : [ "country", "political" ]
            }
         ],
         "formatted_address" : "RJ6R+RH Akdeniz/Mersin, Turkey",
         "geometry" : {
            "bounds" : {
               "northeast" : {
                  "lat" : 36.812125,
                  "lng" : 34.64150000000001
               },
               "southwest" : {
                  "lat" : 36.812,
                  "lng" : 34.641375
               }
            },
            "location" : {
               "lat" : 36.8121042,
               "lng" : 34.6414811
            },
            "location_type" : "GEOMETRIC_CENTER",
            "viewport" : {
               "northeast" : {
                  "lat" : 36.8134114802915,
                  "lng" : 34.64278648029151
               },
               "southwest" : {
                  "lat" : 36.8107135197085,
                  "lng" : 34.64008851970851
               }
            }
         },
         "place_id" : "GhIJ3fjJB_NnQkARRcB8DRxSQUA",
         "plus_code" : {
            "compound_code" : "RJ6R+RH Akdeniz/Mersin, Turkey",
            "global_code" : "8G8PRJ6R+RH"
         },
         "types" : [ "plus_code" ]
      },
      {
         "address_components" : [
            {
               "long_name" : "Siteler",
               "short_name" : "Siteler",
               "types" : [ "administrative_area_level_4", "political" ]
            },
            {
               "long_name" : "Akdeniz",
               "short_name" : "Akdeniz",
               "types" : [ "administrative_area_level_2", "political" ]
            },
            {
               "long_name" : "Mersin",
               "short_name" : "Mersin",
               "types" : [ "administrative_area_level_1", "political" ]
            },
            {
               "long_name" : "Turkey",
               "short_name" : "TR",
               "types" : [ "country", "political" ]
            },
            {
               "long_name" : "33040",
               "short_name" : "33040",
               "types" : [ "postal_code" ]
            }
         ],
         "formatted_address" : "Siteler, 33040 Akdeniz/Mersin, Turkey",
         "geometry" : {
            "bounds" : {
               "northeast" : {
                  "lat" : 36.819439,
                  "lng" : 34.656611
               },
               "southwest" : {
                  "lat" : 36.8118981,
                  "lng" : 34.6362059
               }
            },
            "location" : {
               "lat" : 36.8147417,
               "lng" : 34.645552
            },
            "location_type" : "APPROXIMATE",
            "viewport" : {
               "northeast" : {
                  "lat" : 36.819439,
                  "lng" : 34.656611
               },
               "southwest" : {
                  "lat" : 36.8118981,
                  "lng" : 34.6362059
               }
            }
         },
         "place_id" : "ChIJQ5zVLDTyJxURzAd0FU5rf9Y",
         "types" : [ "administrative_area_level_4", "political" ]
      },
      {
         "address_components" : [
            {
               "long_name" : "33040",
               "short_name" : "33040",
               "types" : [ "postal_code" ]
            },
            {
               "long_name" : "Akdeniz",
               "short_name" : "Akdeniz",
               "types" : [ "administrative_area_level_2", "political" ]
            },
            {
               "long_name" : "Mersin",
               "short_name" : "Mersin",
               "types" : [ "administrative_area_level_1", "political" ]
            },
            {
               "long_name" : "Turkey",
               "short_name" : "TR",
               "types" : [ "country", "political" ]
            }
         ],
         "formatted_address" : "33040 Akdeniz/Mersin, Turkey",
         "geometry" : {
            "bounds" : {
               "northeast" : {
                  "lat" : 36.819439,
                  "lng" : 34.656611
               },
               "southwest" : {
                  "lat" : 36.8118981,
                  "lng" : 34.6362059
               }
            },
            "location" : {
               "lat" : 36.8147417,
               "lng" : 34.645552
            },
            "location_type" : "APPROXIMATE",
            "viewport" : {
               "northeast" : {
                  "lat" : 36.819439,
                  "lng" : 34.656611
               },
               "southwest" : {
                  "lat" : 36.8118981,
                  "lng" : 34.6362059
               }
            }
         },
         "place_id" : "ChIJ2bwpLTTyJxURu0V0h2sy8Nw",
         "types" : [ "postal_code" ]
      },
      {
         "address_components" : [
            {
               "long_name" : "Mersin",
               "short_name" : "Mersin",
               "types" : [ "locality", "political" ]
            },
            {
               "long_name" : "Akdeniz",
               "short_name" : "Akdeniz",
               "types" : [ "administrative_area_level_2", "political" ]
            },
            {
               "long_name" : "Mersin",
               "short_name" : "Mersin",
               "types" : [ "administrative_area_level_1", "political" ]
            },
            {
               "long_name" : "Turkey",
               "short_name" : "TR",
               "types" : [ "country", "political" ]
            }
         ],
         "formatted_address" : "Mersin, Akdeniz/Mersin, Turkey",
         "geometry" : {
            "bounds" : {
               "northeast" : {
                  "lat" : 36.853396,
                  "lng" : 34.7064229
               },
               "southwest" : {
                  "lat" : 36.6320343,
                  "lng" : 34.3513889
               }
            },
            "location" : {
               "lat" : 36.8121041,
               "lng" : 34.6414811
            },
            "location_type" : "APPROXIMATE",
            "viewport" : {
               "northeast" : {
                  "lat" : 36.853396,
                  "lng" : 34.7064229
               },
               "southwest" : {
                  "lat" : 36.6320343,
                  "lng" : 34.3513889
               }
            }
         },
         "place_id" : "ChIJn26-wKT0JxURd30e-LHyvk0",
         "types" : [ "locality", "political" ]
      },
      {
         "address_components" : [
            {
               "long_name" : "Akdeniz",
               "short_name" : "Akdeniz",
               "types" : [ "administrative_area_level_2", "political" ]
            },
            {
               "long_name" : "Mersin",
               "short_name" : "Mersin",
               "types" : [ "administrative_area_level_1", "political" ]
            },
            {
               "long_name" : "Turkey",
               "short_name" : "TR",
               "types" : [ "country", "political" ]
            }
         ],
         "formatted_address" : "Akdeniz/Mersin, Turkey",
         "geometry" : {
            "bounds" : {
               "northeast" : {
                  "lat" : 36.986933,
                  "lng" : 34.839168
               },
               "southwest" : {
                  "lat" : 36.78382,
                  "lng" : 34.5988799
               }
            },
            "location" : {
               "lat" : 36.8688237,
               "lng" : 34.7077665
            },
            "location_type" : "APPROXIMATE",
            "viewport" : {
               "northeast" : {
                  "lat" : 36.986933,
                  "lng" : 34.839168
               },
               "southwest" : {
                  "lat" : 36.78382,
                  "lng" : 34.5988799
               }
            }
         },
         "place_id" : "ChIJee6MF33lJxURLocREU47xK0",
         "types" : [ "administrative_area_level_2", "political" ]
      },
      {
         "address_components" : [
            {
               "long_name" : "Mersin",
               "short_name" : "Mersin",
               "types" : [ "administrative_area_level_1", "political" ]
            },
            {
               "long_name" : "Turkey",
               "short_name" : "TR",
               "types" : [ "country", "political" ]
            }
         ],
         "formatted_address" : "Mersin, Turkey",
         "geometry" : {
            "bounds" : {
               "northeast" : {
                  "lat" : 37.3879369,
                  "lng" : 35.159136
               },
               "southwest" : {
                  "lat" : 36.0167069,
                  "lng" : 32.5375129
               }
            },
            "location" : {
               "lat" : 36.8120858,
               "lng" : 34.641475
            },
            "location_type" : "APPROXIMATE",
            "viewport" : {
               "northeast" : {
                  "lat" : 37.3879369,
                  "lng" : 35.159136
               },
               "southwest" : {
                  "lat" : 36.0167069,
                  "lng" : 32.5375129
               }
            }
         },
         "place_id" : "ChIJhWM7OJ9V2BQRxATNMu83S4w",
         "types" : [ "administrative_area_level_1", "political" ]
      },
      {
         "address_components" : [
            {
               "long_name" : "Turkey",
               "short_name" : "TR",
               "types" : [ "country", "political" ]
            }
         ],
         "formatted_address" : "Turkey",
         "geometry" : {
            "bounds" : {
               "northeast" : {
                  "lat" : 42.3666999,
                  "lng" : 44.8178449
               },
               "southwest" : {
                  "lat" : 35.808592,
                  "lng" : 25.5377
               }
            },
            "location" : {
               "lat" : 38.963745,
               "lng" : 35.243322
            },
            "location_type" : "APPROXIMATE",
            "viewport" : {
               "northeast" : {
                  "lat" : 42.3666999,
                  "lng" : 44.8178449
               },
               "southwest" : {
                  "lat" : 35.808592,
                  "lng" : 25.5377
               }
            }
         },
         "place_id" : "ChIJcSZPllwVsBQRKl9iKtTb2UA",
         "types" : [ "country", "political" ]
      }
   ],
   "status" : "OK"
}
