{
   "plus_code" : {
      "compound_code" : "X3J5+P3R Kadıköy/İstanbul, Turkey",
      "global_code" : "8GGFX3J5+P3R"
   },
   "results" : [
      {
         "address_components" : [
            {
               "long_name" : "79 A",
               "short_name" : "79 A",
               "types" : [ "street_number" ]
            },
            {
               "long_name" : "Mustafa Mazhar Bey Sokağı",
               "short_name" : "Mustafa Mazhar Bey Sokağı",
               "types" : [ "route" ]
            },
            {
               "long_name" : "Feneryolu",
               "short_name" : "Feneryolu",
               "types" : [ "administrative_area_level_4", "political" ]
            },
            {
               "long_name" : "Kadıköy",
               "short_name" : "Kadıköy",
               "types" : [ "administrative_area_level_2", "political" ]
            },
            {
               "long_name" : "İstanbul",
               "short_name" : "İstanbul",
               "types" : [ "administrative_area_level_1", "political" ]
            },
            {
               "long_name" : "Turkey",
               "short_name" : "TR",
               "types" : [ "country", "political" ]
            },
            {
               "long_name" : "34724",
               "short_name" : "34724",
               "types" : [ "postal_code" ]
            }
         ],
         "formatted_address" : "Feneryolu, Mustafa Mazhar Bey Sokağı 79 A, 34724 Kadıköy/İstanbul, Turkey",
         "geometry" : {
            "location" : {
               "lat" : 40.9818751,
               "lng" : 29.0575616
            },
            "location_type" : "ROOFTOP",
            "viewport" : {
               "northeast" : {
                  "lat" : 40.98322408029149,
                  "lng" : 29.0589105802915
               },
               "southwest" : {
                  "lat" : 40.9805261197085,
                  "lng" : 29.0562126197085
               }
            }
         },
         "place_id" : "ChIJVVVZVYXHyhQR7MWIJIrllQM",
         "plus_code" : {
            "compound_code" : "X3J5+Q2 Kadıköy/İstanbul, Turkey",
            "global_code" : "8GGFX3J5+Q2"
         },
         "types" : [ "street_address" ]
      },
      {
         "address_components" : [
            {
               "long_name" : "79",
               "short_name" : "79",
               "types" : [ "street_number" ]
            },
            {
               "long_name" : "Mustafa Mazhar Bey Sokağı",
               "short_name" : "Mustafa Mazhar Bey Sokağı",
               "types" : [ "route" ]
            },
            {
               "long_name" : "Feneryolu",
               "short_name" : "Feneryolu",
               "types" : [ "administrative_area_level_4", "political" ]
            },
            {
               "long_name" : "Kadıköy",
               "short_name" : "Kadıköy",
               "types" : [ "administrative_area_level_2", "political" ]
            },
            {
               "long_name" : "İstanbul",
               "short_name" : "İstanbul",
               "types" : [ "administrative_area_level_1", "political" ]
            },
            {
               "long_name" : "Turkey",
               "short_name" : "TR",
               "types" : [ "country", "political" ]
            },
            {
               "long_name" : "34724",
               "short_name" : "34724",
               "types" : [ "postal_code" ]
            }
         ],
         "formatted_address" : "Feneryolu, Mustafa Mazhar Bey Sokağı No:79, 34724 Kadıköy/İstanbul, Turkey",
         "geometry" : {
            "bounds" : {
               "northeast" : {
                  "lat" : 40.9819938,
                  "lng" : 29.0576804
               },
               "southwest" : {
                  "lat" : 40.9817659,
                  "lng" : 29.05745869999999
               }
            },
            "location" : {
               "lat" : 40.9818751,
               "lng" : 29.0575616
            },
            "location_type" : "ROOFTOP",
            "viewport" : {
               "northeast" : {
                  "lat" : 40.9832288302915,
                  "lng" : 29.0589185302915
               },
               "southwest" : {
                  "lat" : 40.9805308697085,
                  "lng" : 29.0562205697085
               }
            }
         },
         "place_id" : "ChIJYZD5_4_HyhQRJbElriEYC1M",
         "types" : [ "premise" ]
      },
      {
         "address_components" : [
            {
               "long_name" : "79",
               "short_name" : "79",
               "types" : [ "street_number" ]
            },
            {
               "long_name" : "Mustafa Mazhar Bey Sokağı",
               "short_name" : "Mustafa Mazhar Bey Sokağı",
               "types" : [ "route" ]
            },
            {
               "long_name" : "Feneryolu",
               "short_name" : "Feneryolu",
               "types" : [ "administrative_area_level_4", "political" ]
            },
            {
               "long_name" : "Kadıköy",
               "short_name" : "Kadıköy",
               "types" : [ "administrative_area_level_2", "political" ]
            },
            {
               "long_name" : "İstanbul",
               "short_name" : "İstanbul",
               "types" : [ "administrative_area_level_1", "political" ]
            },
            {
               "long_name" : "Turkey",
               "short_name" : "TR",
               "types" : [ "country", "political" ]
            },
            {
               "long_name" : "34724",
               "short_name" : "34724",
               "types" : [ "postal_code" ]
            }
         ],
         "formatted_address" : "Feneryolu, Mustafa Mazhar Bey Sokağı No:79, 34724 Kadıköy/İstanbul, Turkey",
         "geometry" : {
            "location" : {
               "lat" : 40.981804,
               "lng" : 29.0577299
            },
            "location_type" : "RANGE_INTERPOLATED",
            "viewport" : {
               "northeast" : {
                  "lat" : 40.9831529802915,
                  "lng" : 29.0590788802915
               },
               "southwest" : {
                  "lat" : 40.9804550197085,
                  "lng" : 29.0563809197085
               }
            }
         },
         "place_id" : "EklGZW5lcnlvbHUsIE11c3RhZmEgTWF6aGFyIEJleSBTb2thxJ_EsSBObzo3OSwgS2FkxLFrw7Z5L8Swc3RhbmJ1bCwgVHVya2V5IhoSGAoUChIJ736UqprHyhQRFzjI64z2b9UQTw",
         "types" : [ "street_address" ]
      },
      {
         "address_components" : [
            {
               "long_name" : "X3J5+P3",
               "short_name" : "X3J5+P3",
               "types" : [ "plus_code" ]
            },
            {
               "long_name" : "Kadıköy",
               "short_name" : "Kadıköy",
               "types" : [ "administrative_area_level_2", "political" ]
            },
            {
               "long_name" : "İstanbul",
               "short_name" : "İstanbul",
               "types" : [ "administrative_area_level_1", "political" ]
            },
            {
               "long_name" : "Turkey",
               "short_name" : "TR",
               "types" : [ "country", "political" ]
            }
         ],
         "formatted_address" : "X3J5+P3 Kadıköy/İstanbul, Turkey",
         "geometry" : {
            "bounds" : {
               "northeast" : {
                  "lat" : 40.981875,
                  "lng" : 29.05775
               },
               "southwest" : {
                  "lat" : 40.98175,
                  "lng" : 29.057625
               }
            },
            "location" : {
               "lat" : 40.98186700000001,
               "lng" : 29.0576302
            },
            "location_type" : "GEOMETRIC_CENTER",
            "viewport" : {
               "northeast" : {
                  "lat" : 40.9831614802915,
                  "lng" : 29.0590364802915
               },
               "southwest" : {
                  "lat" : 40.9804635197085,
                  "lng" : 29.0563385197085
               }
            }
         },
         "place_id" : "GhIJxgJf0a19REARDkNQ2sAOPUA",
         "plus_code" : {
            "compound_code" : "X3J5+P3 Kadıköy/İstanbul, Turkey",
            "global_code" : "8GGFX3J5+P3"
         },
         "types" : [ "plus_code" ]
      },
      {
         "address_components" : [
            {
               "long_name" : "32",
               "short_name" : "32",
               "types" : [ "street_number" ]
            },
            {
               "long_name" : "Mustafa Mazhar Bey Sokağı",
               "short_name" : "Mustafa Mazhar Bey Sokağı",
               "types" : [ "route" ]
            },
            {
               "long_name" : "Göztepe",
               "short_name" : "Göztepe",
               "types" : [ "administrative_area_level_4", "political" ]
            },
            {
               "long_name" : "Kadıköy",
               "short_name" : "Kadıköy",
               "types" : [ "administrative_area_level_2", "political" ]
            },
            {
               "long_name" : "İstanbul",
               "short_name" : "İstanbul",
               "types" : [ "administrative_area_level_1", "political" ]
            },
            {
               "long_name" : "Turkey",
               "short_name" : "TR",
               "types" : [ "country", "political" ]
            },
            {
               "long_name" : "34724",
               "short_name" : "34724",
               "types" : [ "postal_code" ]
            }
         ],
         "formatted_address" : "Göztepe, Mustafa Mazhar Bey Sokağı No:32, 34724 Kadıköy/İstanbul, Turkey",
         "geometry" : {
            "bounds" : {
               "northeast" : {
                  "lat" : 40.9818426,
                  "lng" : 29.0577585
               },
               "southwest" : {
                  "lat" : 40.9817341,
                  "lng" : 29.0576781
               }
            },
            "location" : {
               "lat" : 40.9817884,
               "lng" : 29.0577183
            },
            "location_type" : "GEOMETRIC_CENTER",
            "viewport" : {
               "northeast" : {
                  "lat" : 40.9831373302915,
                  "lng" : 29.0590672802915
               },
               "southwest" : {
                  "lat" : 40.9804393697085,
                  "lng" : 29.0563693197085
               }
            }
         },
         "place_id" : "ChIJ736UqprHyhQRFjjI64z2b9U",
         "types" : [ "route" ]
      },
      {
         "address_components" : [
            {
               "long_name" : "Feneryolu",
               "short_name" : "Feneryolu",
               "types" : [ "administrative_area_level_4", "political" ]
            },
            {
               "long_name" : "Kadıköy",
               "short_name" : "Kadıköy",
               "types" : [ "administrative_area_level_2", "political" ]
            },
            {
               "long_name" : "İstanbul",
               "short_name" : "İstanbul",
               "types" : [ "administrative_area_level_1", "political" ]
            },
            {
               "long_name" : "Turkey",
               "short_name" : "TR",
               "types" : [ "country", "political" ]
            }
         ],
         "formatted_address" : "Feneryolu, Kadıköy/İstanbul, Turkey",
         "geometry" : {
            "bounds" : {
               "northeast" : {
                  "lat" : 40.988111,
                  "lng" : 29.0587991
               },
               "southwest" : {
                  "lat" : 40.9758411,
                  "lng" : 29.0402549
               }
            },
            "location" : {
               "lat" : 40.9819573,
               "lng" : 29.04890199999999
            },
            "location_type" : "APPROXIMATE",
            "viewport" : {
               "northeast" : {
                  "lat" : 40.988111,
                  "lng" : 29.0587991
               },
               "southwest" : {
                  "lat" : 40.9758411,
                  "lng" : 29.0402549
               }
            }
         },
         "place_id" : "ChIJm6oTV4bHyhQR8gXqRY6cSQU",
         "types" : [ "administrative_area_level_4", "political" ]
      },
      {
         "address_components" : [
            {
               "long_name" : "34724",
               "short_name" : "34724",
               "types" : [ "postal_code" ]
            },
            {
               "long_name" : "Feneryolu",
               "short_name" : "Feneryolu",
               "types" : [ "administrative_area_level_4", "political" ]
            },
            {
               "long_name" : "Kadıköy",
               "short_name" : "Kadıköy",
               "types" : [ "administrative_area_level_2", "political" ]
            },
            {
               "long_name" : "İstanbul",
               "short_name" : "İstanbul",
               "types" : [ "administrative_area_level_1", "political" ]
            },
            {
               "long_name" : "Turkey",
               "short_name" : "TR",
               "types" : [ "country", "political" ]
            }
         ],
         "formatted_address" : "Feneryolu, 34724 Kadıköy/İstanbul, Turkey",
         "geometry" : {
            "bounds" : {
               "northeast" : {
                  "lat" : 40.988111,
                  "lng" : 29.0587991
               },
               "southwest" : {
                  "lat" : 40.9758411,
                  "lng" : 29.0402549
               }
            },
            "location" : {
               "lat" : 40.9819573,
               "lng" : 29.04890199999999
            },
            "location_type" : "APPROXIMATE",
            "viewport" : {
               "northeast" : {
                  "lat" : 40.988111,
                  "lng" : 29.0587991
               },
               "southwest" : {
                  "lat" : 40.9758411,
                  "lng" : 29.0402549
               }
            }
         },
         "place_id" : "ChIJKeqs12S4yhQRvBLvwuIaWCw",
         "types" : [ "postal_code" ]
      },
      {
         "address_components" : [
            {
               "long_name" : "Kadıköy",
               "short_name" : "Kadıköy",
               "types" : [ "administrative_area_level_2", "political" ]
            },
            {
               "long_name" : "İstanbul",
               "short_name" : "İstanbul",
               "types" : [ "administrative_area_level_1", "political" ]
            },
            {
               "long_name" : "Turkey",
               "short_name" : "TR",
               "types" : [ "country", "political" ]
            }
         ],
         "formatted_address" : "Kadıköy/İstanbul, Turkey",
         "geometry" : {
            "bounds" : {
               "northeast" : {
                  "lat" : 41.012268,
                  "lng" : 29.111257
               },
               "southwest" : {
                  "lat" : 40.949998,
                  "lng" : 29.01484899999999
               }
            },
            "location" : {
               "lat" : 40.98186700000001,
               "lng" : 29.0576302
            },
            "location_type" : "APPROXIMATE",
            "viewport" : {
               "northeast" : {
                  "lat" : 41.012268,
                  "lng" : 29.111257
               },
               "southwest" : {
                  "lat" : 40.949998,
                  "lng" : 29.01484899999999
               }
            }
         },
         "place_id" : "ChIJnah7sZDHyhQR4n56Q6BO0tI",
         "types" : [ "administrative_area_level_2", "political" ]
      },
      {
         "address_components" : [
            {
               "long_name" : "Anatolian Side",
               "short_name" : "Anatolian Side",
               "types" : [ "neighborhood", "political" ]
            },
            {
               "long_name" : "İstanbul",
               "short_name" : "İstanbul",
               "types" : [ "administrative_area_level_1", "political" ]
            },
            {
               "long_name" : "Turkey",
               "short_name" : "TR",
               "types" : [ "country", "political" ]
            }
         ],
         "formatted_address" : "Anatolian Side, İstanbul, Turkey",
         "geometry" : {
            "bounds" : {
               "northeast" : {
                  "lat" : 41.173419,
                  "lng" : 29.4288049
               },
               "southwest" : {
                  "lat" : 40.811404,
                  "lng" : 29.006362
               }
            },
            "location" : {
               "lat" : 40.9815089,
               "lng" : 29.0947502
            },
            "location_type" : "APPROXIMATE",
            "viewport" : {
               "northeast" : {
                  "lat" : 41.173419,
                  "lng" : 29.4288049
               },
               "southwest" : {
                  "lat" : 40.811404,
                  "lng" : 29.006362
               }
            }
         },
         "place_id" : "ChIJ24figCrGyhQR6m5IK44mNVI",
         "types" : [ "neighborhood", "political" ]
      },
      {
         "address_components" : [
            {
               "long_name" : "İstanbul",
               "short_name" : "İstanbul",
               "types" : [ "locality", "political" ]
            },
            {
               "long_name" : "İstanbul",
               "short_name" : "İstanbul",
               "types" : [ "administrative_area_level_1", "political" ]
            },
            {
               "long_name" : "Turkey",
               "short_name" : "TR",
               "types" : [ "country", "political" ]
            }
         ],
         "formatted_address" : "İstanbul, Turkey",
         "geometry" : {
            "bounds" : {
               "northeast" : {
                  "lat" : 41.199239,
                  "lng" : 29.4288049
               },
               "southwest" : {
                  "lat" : 40.811404,
                  "lng" : 28.595554
               }
            },
            "location" : {
               "lat" : 41.0082376,
               "lng" : 28.9783589
            },
            "location_type" : "APPROXIMATE",
            "viewport" : {
               "northeast" : {
                  "lat" : 41.199239,
                  "lng" : 29.4288049
               },
               "southwest" : {
                  "lat" : 40.811404,
                  "lng" : 28.595554
               }
            }
         },
         "place_id" : "ChIJawhoAASnyhQR0LABvJj-zOE",
         "types" : [ "locality", "political" ]
      },
      {
         "address_components" : [
            {
               "long_name" : "İstanbul",
               "short_name" : "İstanbul",
               "types" : [ "administrative_area_level_1", "political" ]
            },
            {
               "long_name" : "Turkey",
               "short_name" : "TR",
               "types" : [ "country", "political" ]
            }
         ],
         "formatted_address" : "İstanbul, Turkey",
         "geometry" : {
            "bounds" : {
               "northeast" : {
                  "lat" : 41.58461,
                  "lng" : 29.915705
               },
               "southwest" : {
                  "lat" : 40.8026889,
                  "lng" : 27.971373
               }
            },
            "location" : {
               "lat" : 41.1634302,
               "lng" : 28.7664408
            },
            "location_type" : "APPROXIMATE",
            "viewport" : {
               "northeast" : {
                  "lat" : 41.58461,
                  "lng" : 29.915705
               },
               "southwest" : {
                  "lat" : 40.8026889,
                  "lng" : 27.971373
               }
            }
         },
         "place_id" : "ChIJexVgWlG2yhQR6B1akfSarCI",
         "types" : [ "administrative_area_level_1", "political" ]
      },
      {
         "address_components" : [
            {
               "long_name" : "Turkey",
               "short_name" : "TR",
               "types" : [ "country", "political" ]
            }
         ],
         "formatted_address" : "Turkey",
         "geometry" : {
            "bounds" : {
               "northeast" : {
                  "lat" : 42.3666999,
                  "lng" : 44.8178449
               },
               "southwest" : {
                  "lat" : 35.808592,
                  "lng" : 25.5377
               }
            },
            "location" : {
               "lat" : 38.963745,
               "lng" : 35.243322
            },
            "location_type" : "APPROXIMATE",
            "viewport" : {
               "northeast" : {
                  "lat" : 42.3666999,
                  "lng" : 44.8178449
               },
               "southwest" : {
                  "lat" : 35.808592,
                  "lng" : 25.5377
               }
            }
         },
         "place_id" : "ChIJcSZPllwVsBQRKl9iKtTb2UA",
         "types" : [ "country", "political" ]
      }
   ],
   "status" : "OK"
}
