{
   "plus_code" : {
      "compound_code" : "9329+GP Çifteler/Eskişehir, Turkey",
      "global_code" : "8GFH9329+GP"
   },
   "results" : [
      {
         "address_components" : [
            {
               "long_name" : "9329+GP",
               "short_name" : "9329+GP",
               "types" : [ "plus_code" ]
            },
            {
               "long_name" : "Çifteler",
               "short_name" : "Çifteler",
               "types" : [ "administrative_area_level_2", "political" ]
            },
            {
               "long_name" : "Eskişehir",
               "short_name" : "Eskişehir",
               "types" : [ "administrative_area_level_1", "political" ]
            },
            {
               "long_name" : "Turkey",
               "short_name" : "TR",
               "types" : [ "country", "political" ]
            }
         ],
         "formatted_address" : "9329+GP Çifteler/Eskişehir, Turkey",
         "geometry" : {
            "bounds" : {
               "northeast" : {
                  "lat" : 39.351375,
                  "lng" : 31.069375
               },
               "southwest" : {
                  "lat" : 39.35125,
                  "lng" : 31.06925
               }
            },
            "location" : {
               "lat" : 39.3512904,
               "lng" : 31.0693359
            },
            "location_type" : "ROOFTOP",
            "viewport" : {
               "northeast" : {
                  "lat" : 39.3526614802915,
                  "lng" : 31.0706614802915
               },
               "southwest" : {
                  "lat" : 39.3499635197085,
                  "lng" : 31.0679635197085
               }
            }
         },
         "place_id" : "GhIJCrN1FfesQ0ARUPBe_78RP0A",
         "plus_code" : {
            "compound_code" : "9329+GP Çifteler/Eskişehir, Turkey",
            "global_code" : "8GFH9329+GP"
         },
         "types" : [ "plus_code" ]
      },
      {
         "address_components" : [
            {
               "long_name" : "Unnamed Road",
               "short_name" : "Unnamed Road",
               "types" : [ "route" ]
            },
            {
               "long_name" : "Erbap",
               "short_name" : "Erbap",
               "types" : [ "administrative_area_level_4", "political" ]
            },
            {
               "long_name" : "Çifteler",
               "short_name" : "Çifteler",
               "types" : [ "administrative_area_level_2", "political" ]
            },
            {
               "long_name" : "Eskişehir",
               "short_name" : "Eskişehir",
               "types" : [ "administrative_area_level_1", "political" ]
            },
            {
               "long_name" : "Turkey",
               "short_name" : "TR",
               "types" : [ "country", "political" ]
            },
            {
               "long_name" : "26700",
               "short_name" : "26700",
               "types" : [ "postal_code" ]
            }
         ],
         "formatted_address" : "Erbap, Unnamed Road, 26700 Çifteler/Eskişehir, Turkey",
         "geometry" : {
            "bounds" : {
               "northeast" : {
                  "lat" : 39.3528773,
                  "lng" : 31.0612045
               },
               "southwest" : {
                  "lat" : 39.3484625,
                  "lng" : 31.0548726
               }
            },
            "location" : {
               "lat" : 39.3500314,
               "lng" : 31.0588515
            },
            "location_type" : "GEOMETRIC_CENTER",
            "viewport" : {
               "northeast" : {
                  "lat" : 39.3528773,
                  "lng" : 31.0612045
               },
               "southwest" : {
                  "lat" : 39.3484625,
                  "lng" : 31.0548726
               }
            }
         },
         "place_id" : "ChIJjRnwJcp5zhQRFvROVJEwhxg",
         "types" : [ "route" ]
      },
      {
         "address_components" : [
            {
               "long_name" : "26700",
               "short_name" : "26700",
               "types" : [ "postal_code" ]
            },
            {
               "long_name" : "Çifteler",
               "short_name" : "Çifteler",
               "types" : [ "administrative_area_level_2", "political" ]
            },
            {
               "long_name" : "Eskişehir",
               "short_name" : "Eskişehir",
               "types" : [ "administrative_area_level_1", "political" ]
            },
            {
               "long_name" : "Turkey",
               "short_name" : "TR",
               "types" : [ "country", "political" ]
            }
         ],
         "formatted_address" : "26700 Çifteler/Eskişehir, Turkey",
         "geometry" : {
            "bounds" : {
               "northeast" : {
                  "lat" : 39.378968,
                  "lng" : 31.0924119
               },
               "southwest" : {
                  "lat" : 39.300237,
                  "lng" : 31.0252229
               }
            },
            "location" : {
               "lat" : 39.3597771,
               "lng" : 31.0621749
            },
            "location_type" : "APPROXIMATE",
            "viewport" : {
               "northeast" : {
                  "lat" : 39.378968,
                  "lng" : 31.0924119
               },
               "southwest" : {
                  "lat" : 39.300237,
                  "lng" : 31.0252229
               }
            }
         },
         "place_id" : "ChIJMwcmVsB5zhQR2FCWb2-dLMA",
         "types" : [ "postal_code" ]
      },
      {
         "address_components" : [
            {
               "long_name" : "Erbap",
               "short_name" : "Erbap",
               "types" : [ "administrative_area_level_4", "political" ]
            },
            {
               "long_name" : "Çifteler",
               "short_name" : "Çifteler",
               "types" : [ "administrative_area_level_2", "political" ]
            },
            {
               "long_name" : "Eskişehir",
               "short_name" : "Eskişehir",
               "types" : [ "administrative_area_level_1", "political" ]
            },
            {
               "long_name" : "Turkey",
               "short_name" : "TR",
               "types" : [ "country", "political" ]
            }
         ],
         "formatted_address" : "Erbap, Çifteler/Eskişehir, Turkey",
         "geometry" : {
            "bounds" : {
               "northeast" : {
                  "lat" : 39.375799,
                  "lng" : 31.0896051
               },
               "southwest" : {
                  "lat" : 39.3353429,
                  "lng" : 30.978458
               }
            },
            "location" : {
               "lat" : 39.3650433,
               "lng" : 31.0363768
            },
            "location_type" : "APPROXIMATE",
            "viewport" : {
               "northeast" : {
                  "lat" : 39.375799,
                  "lng" : 31.0896051
               },
               "southwest" : {
                  "lat" : 39.3353429,
                  "lng" : 30.978458
               }
            }
         },
         "place_id" : "ChIJxeD_WFF4zhQRw-o5NpikDQU",
         "types" : [ "administrative_area_level_4", "political" ]
      },
      {
         "address_components" : [
            {
               "long_name" : "Çifteler",
               "short_name" : "Çifteler",
               "types" : [ "administrative_area_level_2", "political" ]
            },
            {
               "long_name" : "Eskişehir",
               "short_name" : "Eskişehir",
               "types" : [ "administrative_area_level_1", "political" ]
            },
            {
               "long_name" : "Turkey",
               "short_name" : "TR",
               "types" : [ "country", "political" ]
            }
         ],
         "formatted_address" : "Çifteler/Eskişehir, Turkey",
         "geometry" : {
            "bounds" : {
               "northeast" : {
                  "lat" : 39.490528,
                  "lng" : 31.3349241
               },
               "southwest" : {
                  "lat" : 39.153676,
                  "lng" : 30.8269111
               }
            },
            "location" : {
               "lat" : 39.3364382,
               "lng" : 31.1252135
            },
            "location_type" : "APPROXIMATE",
            "viewport" : {
               "northeast" : {
                  "lat" : 39.490528,
                  "lng" : 31.3349241
               },
               "southwest" : {
                  "lat" : 39.153676,
                  "lng" : 30.8269111
               }
            }
         },
         "place_id" : "ChIJXcPTKuJ5zhQRvM3CNdi-4S8",
         "types" : [ "administrative_area_level_2", "political" ]
      },
      {
         "address_components" : [
            {
               "long_name" : "Eskişehir",
               "short_name" : "Eskişehir",
               "types" : [ "administrative_area_level_1", "political" ]
            },
            {
               "long_name" : "Turkey",
               "short_name" : "TR",
               "types" : [ "country", "political" ]
            }
         ],
         "formatted_address" : "Eskişehir, Turkey",
         "geometry" : {
            "bounds" : {
               "northeast" : {
                  "lat" : 40.158349,
                  "lng" : 32.009396
               },
               "southwest" : {
                  "lat" : 39.029024,
                  "lng" : 29.97498299999999
               }
            },
            "location" : {
               "lat" : 39.6329657,
               "lng" : 31.2626366
            },
            "location_type" : "APPROXIMATE",
            "viewport" : {
               "northeast" : {
                  "lat" : 40.158349,
                  "lng" : 32.009396
               },
               "southwest" : {
                  "lat" : 39.029024,
                  "lng" : 29.97498299999999
               }
            }
         },
         "place_id" : "ChIJF44c-PoVzBQRTydTJ7V7mtg",
         "types" : [ "administrative_area_level_1", "political" ]
      },
      {
         "address_components" : [
            {
               "long_name" : "Turkey",
               "short_name" : "TR",
               "types" : [ "country", "political" ]
            }
         ],
         "formatted_address" : "Turkey",
         "geometry" : {
            "bounds" : {
               "northeast" : {
                  "lat" : 42.3666999,
                  "lng" : 44.8178449
               },
               "southwest" : {
                  "lat" : 35.808592,
                  "lng" : 25.5377
               }
            },
            "location" : {
               "lat" : 38.963745,
               "lng" : 35.243322
            },
            "location_type" : "APPROXIMATE",
            "viewport" : {
               "northeast" : {
                  "lat" : 42.3666999,
                  "lng" : 44.8178449
               },
               "southwest" : {
                  "lat" : 35.808592,
                  "lng" : 25.5377
               }
            }
         },
         "place_id" : "ChIJcSZPllwVsBQRKl9iKtTb2UA",
         "types" : [ "country", "political" ]
      }
   ],
   "status" : "OK"
}
