{
   "plus_code" : {
      "compound_code" : "Q3MW+6G4 Merkezefendi/Denizli, Turkey",
      "global_code" : "8G9FQ3MW+6G4"
   },
   "results" : [
      {
         "address_components" : [
            {
               "long_name" : "2",
               "short_name" : "2",
               "types" : [ "street_number" ]
            },
            {
               "long_name" : "Fevzi Çakmak Bulvarı Yanyolu",
               "short_name" : "Fevzi Çakmak Blv. Yanyolu",
               "types" : [ "route" ]
            },
            {
               "long_name" : "Topraklık",
               "short_name" : "Topraklık",
               "types" : [ "administrative_area_level_4", "political" ]
            },
            {
               "long_name" : "Denizli Merkez",
               "short_name" : "Denizli Merkez",
               "types" : [ "administrative_area_level_2", "political" ]
            },
            {
               "long_name" : "Denizli",
               "short_name" : "Denizli",
               "types" : [ "administrative_area_level_1", "political" ]
            },
            {
               "long_name" : "Turkey",
               "short_name" : "TR",
               "types" : [ "country", "political" ]
            },
            {
               "long_name" : "20150",
               "short_name" : "20150",
               "types" : [ "postal_code" ]
            }
         ],
         "formatted_address" : "Topraklık, Fevzi Çakmak Blv. Yanyolu No:2, 20150 Denizli Merkez/Denizli, Turkey",
         "geometry" : {
            "location" : {
               "lat" : 37.782373,
               "lng" : 29.095635
            },
            "location_type" : "ROOFTOP",
            "viewport" : {
               "northeast" : {
                  "lat" : 37.7837219802915,
                  "lng" : 29.0969839802915
               },
               "southwest" : {
                  "lat" : 37.7810240197085,
                  "lng" : 29.0942860197085
               }
            }
         },
         "place_id" : "ChIJ02UIn0s-xxQR9M6RbGsaL-4",
         "plus_code" : {
            "compound_code" : "Q3JW+W7 Pamukkale/Denizli, Turkey",
            "global_code" : "8G9FQ3JW+W7"
         },
         "types" : [ "street_address" ]
      },
      {
         "address_components" : [
            {
               "long_name" : "Q3MW+6G",
               "short_name" : "Q3MW+6G",
               "types" : [ "plus_code" ]
            },
            {
               "long_name" : "Merkezefendi",
               "short_name" : "Merkezefendi",
               "types" : [ "administrative_area_level_2", "political" ]
            },
            {
               "long_name" : "Denizli",
               "short_name" : "Denizli",
               "types" : [ "administrative_area_level_1", "political" ]
            },
            {
               "long_name" : "Turkey",
               "short_name" : "TR",
               "types" : [ "country", "political" ]
            }
         ],
         "formatted_address" : "Q3MW+6G Merkezefendi/Denizli, Turkey",
         "geometry" : {
            "bounds" : {
               "northeast" : {
                  "lat" : 37.783125,
                  "lng" : 29.096375
               },
               "southwest" : {
                  "lat" : 37.783,
                  "lng" : 29.09625
               }
            },
            "location" : {
               "lat" : 37.7830159,
               "lng" : 29.0963328
            },
            "location_type" : "GEOMETRIC_CENTER",
            "viewport" : {
               "northeast" : {
                  "lat" : 37.7844114802915,
                  "lng" : 29.0976614802915
               },
               "southwest" : {
                  "lat" : 37.7817135197085,
                  "lng" : 29.0949635197085
               }
            }
         },
         "place_id" : "GhIJvl9x3TnkQkAROIgxRKkYPUA",
         "plus_code" : {
            "compound_code" : "Q3MW+6G Merkezefendi/Denizli, Turkey",
            "global_code" : "8G9FQ3MW+6G"
         },
         "types" : [ "plus_code" ]
      },
      {
         "address_components" : [
            {
               "long_name" : "İzmir Bulvarı",
               "short_name" : "İzmir Blv.",
               "types" : [ "route" ]
            },
            {
               "long_name" : "Denizli",
               "short_name" : "Denizli",
               "types" : [ "administrative_area_level_1", "political" ]
            },
            {
               "long_name" : "Turkey",
               "short_name" : "TR",
               "types" : [ "country", "political" ]
            }
         ],
         "formatted_address" : "İzmir Blv., Denizli, Turkey",
         "geometry" : {
            "bounds" : {
               "northeast" : {
                  "lat" : 37.7832961,
                  "lng" : 29.0966065
               },
               "southwest" : {
                  "lat" : 37.782345,
                  "lng" : 29.0955483
               }
            },
            "location" : {
               "lat" : 37.7828586,
               "lng" : 29.0961322
            },
            "location_type" : "GEOMETRIC_CENTER",
            "viewport" : {
               "northeast" : {
                  "lat" : 37.7841695302915,
                  "lng" : 29.09742638029149
               },
               "southwest" : {
                  "lat" : 37.7814715697085,
                  "lng" : 29.0947284197085
               }
            }
         },
         "place_id" : "ChIJLR3gpEs-xxQROGUwJbtyCBk",
         "types" : [ "route" ]
      },
      {
         "address_components" : [
            {
               "long_name" : "2",
               "short_name" : "2",
               "types" : [ "street_number" ]
            },
            {
               "long_name" : "Fevzi Çakmak Bulvarı Yanyolu",
               "short_name" : "Fevzi Çakmak Blv. Yanyolu",
               "types" : [ "route" ]
            },
            {
               "long_name" : "Topraklık",
               "short_name" : "Topraklık",
               "types" : [ "administrative_area_level_4", "political" ]
            },
            {
               "long_name" : "Pamukkale",
               "short_name" : "Pamukkale",
               "types" : [ "administrative_area_level_2", "political" ]
            },
            {
               "long_name" : "Denizli",
               "short_name" : "Denizli",
               "types" : [ "administrative_area_level_1", "political" ]
            },
            {
               "long_name" : "Turkey",
               "short_name" : "TR",
               "types" : [ "country", "political" ]
            },
            {
               "long_name" : "20150",
               "short_name" : "20150",
               "types" : [ "postal_code" ]
            }
         ],
         "formatted_address" : "Topraklık, Fevzi Çakmak Blv. Yanyolu No:2, 20150 Pamukkale/Denizli, Turkey",
         "geometry" : {
            "location" : {
               "lat" : 37.7821587,
               "lng" : 29.0959761
            },
            "location_type" : "RANGE_INTERPOLATED",
            "viewport" : {
               "northeast" : {
                  "lat" : 37.7835076802915,
                  "lng" : 29.0973250802915
               },
               "southwest" : {
                  "lat" : 37.7808097197085,
                  "lng" : 29.0946271197085
               }
            }
         },
         "place_id" : "EkJUb3ByYWtsxLFrLCBGZXZ6aSDDh2FrbWFrIEJsdi4gWWFueW9sdSBObzoyLCAyMDE1MCBEZW5pemxpLCBUdXJrZXkiGhIYChQKEgnvcceYSz7HFBFuRkL5HuZIiRAC",
         "types" : [ "street_address" ]
      },
      {
         "address_components" : [
            {
               "long_name" : "Sümer",
               "short_name" : "Sümer",
               "types" : [ "administrative_area_level_4", "political" ]
            },
            {
               "long_name" : "Merkezefendi",
               "short_name" : "Merkezefendi",
               "types" : [ "administrative_area_level_2", "political" ]
            },
            {
               "long_name" : "Denizli",
               "short_name" : "Denizli",
               "types" : [ "administrative_area_level_1", "political" ]
            },
            {
               "long_name" : "Turkey",
               "short_name" : "TR",
               "types" : [ "country", "political" ]
            },
            {
               "long_name" : "20050",
               "short_name" : "20050",
               "types" : [ "postal_code" ]
            }
         ],
         "formatted_address" : "Sümer, 20050 Merkezefendi/Denizli, Turkey",
         "geometry" : {
            "bounds" : {
               "northeast" : {
                  "lat" : 37.8060479,
                  "lng" : 29.1044651
               },
               "southwest" : {
                  "lat" : 37.782384,
                  "lng" : 29.0787259
               }
            },
            "location" : {
               "lat" : 37.7950588,
               "lng" : 29.08962709999999
            },
            "location_type" : "APPROXIMATE",
            "viewport" : {
               "northeast" : {
                  "lat" : 37.8060479,
                  "lng" : 29.1044651
               },
               "southwest" : {
                  "lat" : 37.782384,
                  "lng" : 29.0787259
               }
            }
         },
         "place_id" : "ChIJ67ZG38w_xxQRYrmQoYQtBFE",
         "types" : [ "administrative_area_level_4", "political" ]
      },
      {
         "address_components" : [
            {
               "long_name" : "20050",
               "short_name" : "20050",
               "types" : [ "postal_code" ]
            },
            {
               "long_name" : "Sümer",
               "short_name" : "Sümer",
               "types" : [ "administrative_area_level_4", "political" ]
            },
            {
               "long_name" : "Merkezefendi",
               "short_name" : "Merkezefendi",
               "types" : [ "administrative_area_level_2", "political" ]
            },
            {
               "long_name" : "Denizli",
               "short_name" : "Denizli",
               "types" : [ "administrative_area_level_1", "political" ]
            },
            {
               "long_name" : "Turkey",
               "short_name" : "TR",
               "types" : [ "country", "political" ]
            }
         ],
         "formatted_address" : "Sümer, 20050 Merkezefendi/Denizli, Turkey",
         "geometry" : {
            "bounds" : {
               "northeast" : {
                  "lat" : 37.8060479,
                  "lng" : 29.1044651
               },
               "southwest" : {
                  "lat" : 37.782384,
                  "lng" : 29.0787259
               }
            },
            "location" : {
               "lat" : 37.7950588,
               "lng" : 29.08962709999999
            },
            "location_type" : "APPROXIMATE",
            "viewport" : {
               "northeast" : {
                  "lat" : 37.8060479,
                  "lng" : 29.1044651
               },
               "southwest" : {
                  "lat" : 37.782384,
                  "lng" : 29.0787259
               }
            }
         },
         "place_id" : "ChIJAVrW28w_xxQRa1NacyOBq1o",
         "types" : [ "postal_code" ]
      },
      {
         "address_components" : [
            {
               "long_name" : "Denizli",
               "short_name" : "Denizli",
               "types" : [ "locality", "political" ]
            },
            {
               "long_name" : "Kumkısık",
               "short_name" : "Kumkısık",
               "types" : [ "administrative_area_level_4", "political" ]
            },
            {
               "long_name" : "Denizli",
               "short_name" : "Denizli",
               "types" : [ "administrative_area_level_1", "political" ]
            },
            {
               "long_name" : "Turkey",
               "short_name" : "TR",
               "types" : [ "country", "political" ]
            }
         ],
         "formatted_address" : "Denizli, Kumkısık, Denizli, Turkey",
         "geometry" : {
            "bounds" : {
               "northeast" : {
                  "lat" : 37.8434867,
                  "lng" : 29.1701541
               },
               "southwest" : {
                  "lat" : 37.7223328,
                  "lng" : 28.9931391
               }
            },
            "location" : {
               "lat" : 37.7830159,
               "lng" : 29.0963328
            },
            "location_type" : "APPROXIMATE",
            "viewport" : {
               "northeast" : {
                  "lat" : 37.8434867,
                  "lng" : 29.1701541
               },
               "southwest" : {
                  "lat" : 37.7223328,
                  "lng" : 28.9931391
               }
            }
         },
         "place_id" : "ChIJaWo6NbE_xxQRrmgg5v5jMy4",
         "types" : [ "locality", "political" ]
      },
      {
         "address_components" : [
            {
               "long_name" : "Merkezefendi",
               "short_name" : "Merkezefendi",
               "types" : [ "administrative_area_level_2", "political" ]
            },
            {
               "long_name" : "Denizli",
               "short_name" : "Denizli",
               "types" : [ "administrative_area_level_1", "political" ]
            },
            {
               "long_name" : "Turkey",
               "short_name" : "TR",
               "types" : [ "country", "political" ]
            }
         ],
         "formatted_address" : "Merkezefendi/Denizli, Turkey",
         "geometry" : {
            "bounds" : {
               "northeast" : {
                  "lat" : 37.927661,
                  "lng" : 29.134084
               },
               "southwest" : {
                  "lat" : 37.6901179,
                  "lng" : 28.905616
               }
            },
            "location" : {
               "lat" : 37.8057579,
               "lng" : 29.0227159
            },
            "location_type" : "APPROXIMATE",
            "viewport" : {
               "northeast" : {
                  "lat" : 37.927661,
                  "lng" : 29.134084
               },
               "southwest" : {
                  "lat" : 37.6901179,
                  "lng" : 28.905616
               }
            }
         },
         "place_id" : "ChIJ_bGiqj9AxxQRGnFnJhKYeaw",
         "types" : [ "administrative_area_level_2", "political" ]
      },
      {
         "address_components" : [
            {
               "long_name" : "Denizli",
               "short_name" : "Denizli",
               "types" : [ "administrative_area_level_1", "political" ]
            },
            {
               "long_name" : "Turkey",
               "short_name" : "TR",
               "types" : [ "country", "political" ]
            }
         ],
         "formatted_address" : "Denizli, Turkey",
         "geometry" : {
            "bounds" : {
               "northeast" : {
                  "lat" : 38.469457,
                  "lng" : 30.084129
               },
               "southwest" : {
                  "lat" : 36.867439,
                  "lng" : 28.584399
               }
            },
            "location" : {
               "lat" : 37.6128395,
               "lng" : 29.2320784
            },
            "location_type" : "APPROXIMATE",
            "viewport" : {
               "northeast" : {
                  "lat" : 38.469457,
                  "lng" : 30.084129
               },
               "southwest" : {
                  "lat" : 36.867439,
                  "lng" : 28.584399
               }
            }
         },
         "place_id" : "ChIJyUoz1lMhxxQRPutwm0_SDq4",
         "types" : [ "administrative_area_level_1", "political" ]
      },
      {
         "address_components" : [
            {
               "long_name" : "Turkey",
               "short_name" : "TR",
               "types" : [ "country", "political" ]
            }
         ],
         "formatted_address" : "Turkey",
         "geometry" : {
            "bounds" : {
               "northeast" : {
                  "lat" : 42.3666999,
                  "lng" : 44.8178449
               },
               "southwest" : {
                  "lat" : 35.808592,
                  "lng" : 25.5377
               }
            },
            "location" : {
               "lat" : 38.963745,
               "lng" : 35.243322
            },
            "location_type" : "APPROXIMATE",
            "viewport" : {
               "northeast" : {
                  "lat" : 42.3666999,
                  "lng" : 44.8178449
               },
               "southwest" : {
                  "lat" : 35.808592,
                  "lng" : 25.5377
               }
            }
         },
         "place_id" : "ChIJcSZPllwVsBQRKl9iKtTb2UA",
         "types" : [ "country", "political" ]
      }
   ],
   "status" : "OK"
}
