{
   "plus_code" : {
      "compound_code" : "35C2+4X Kandıra/Kocaeli, Turkey",
      "global_code" : "8GHG35C2+4X"
   },
   "results" : [
      {
         "address_components" : [
            {
               "long_name" : "4",
               "short_name" : "4",
               "types" : [ "street_number" ]
            },
            {
               "long_name" : "Cumhuriyet Caddesi",
               "short_name" : "Cumhuriyet Cd.",
               "types" : [ "route" ]
            },
            {
               "long_name" : "Çarşı",
               "short_name" : "Çarşı",
               "types" : [ "administrative_area_level_4", "political" ]
            },
            {
               "long_name" : "Kandıra",
               "short_name" : "Kandıra",
               "types" : [ "administrative_area_level_2", "political" ]
            },
            {
               "long_name" : "Kocaeli",
               "short_name" : "Kocaeli",
               "types" : [ "administrative_area_level_1", "political" ]
            },
            {
               "long_name" : "Turkey",
               "short_name" : "TR",
               "types" : [ "country", "political" ]
            },
            {
               "long_name" : "41600",
               "short_name" : "41600",
               "types" : [ "postal_code" ]
            }
         ],
         "formatted_address" : "Çarşı, Cumhuriyet Cd. No:4, 41600 Kandıra/Kocaeli, Turkey",
         "geometry" : {
            "location" : {
               "lat" : 41.0701964,
               "lng" : 30.1522342
            },
            "location_type" : "ROOFTOP",
            "viewport" : {
               "northeast" : {
                  "lat" : 41.0715453802915,
                  "lng" : 30.1535831802915
               },
               "southwest" : {
                  "lat" : 41.0688474197085,
                  "lng" : 30.1508852197085
               }
            }
         },
         "place_id" : "ChIJSQgKTvYRnkARGy4NBWV1swY",
         "plus_code" : {
            "compound_code" : "35C2+3V Kandıra/Kocaeli, Turkey",
            "global_code" : "8GHG35C2+3V"
         },
         "types" : [ "street_address" ]
      },
      {
         "address_components" : [
            {
               "long_name" : "2",
               "short_name" : "2",
               "types" : [ "street_number" ]
            },
            {
               "long_name" : "Cumhuriyet Caddesi",
               "short_name" : "Cumhuriyet Cd.",
               "types" : [ "route" ]
            },
            {
               "long_name" : "Çarşı",
               "short_name" : "Çarşı",
               "types" : [ "administrative_area_level_4", "political" ]
            },
            {
               "long_name" : "Kandıra",
               "short_name" : "Kandıra",
               "types" : [ "administrative_area_level_2", "political" ]
            },
            {
               "long_name" : "Kocaeli",
               "short_name" : "Kocaeli",
               "types" : [ "administrative_area_level_1", "political" ]
            },
            {
               "long_name" : "Turkey",
               "short_name" : "TR",
               "types" : [ "country", "political" ]
            },
            {
               "long_name" : "41600",
               "short_name" : "41600",
               "types" : [ "postal_code" ]
            }
         ],
         "formatted_address" : "Çarşı, Cumhuriyet Cd. No:2, 41600 Kandıra/Kocaeli, Turkey",
         "geometry" : {
            "bounds" : {
               "northeast" : {
                  "lat" : 41.0703263,
                  "lng" : 30.1522302
               },
               "southwest" : {
                  "lat" : 41.0702298,
                  "lng" : 30.152108
               }
            },
            "location" : {
               "lat" : 41.0702766,
               "lng" : 30.1521541
            },
            "location_type" : "ROOFTOP",
            "viewport" : {
               "northeast" : {
                  "lat" : 41.0716270302915,
                  "lng" : 30.15351808029149
               },
               "southwest" : {
                  "lat" : 41.0689290697085,
                  "lng" : 30.1508201197085
               }
            }
         },
         "place_id" : "ChIJLTUiUPYRnkAR16lb3xHK-GI",
         "types" : [ "premise" ]
      },
      {
         "address_components" : [
            {
               "long_name" : "2",
               "short_name" : "2",
               "types" : [ "street_number" ]
            },
            {
               "long_name" : "Cumhuriyet Caddesi",
               "short_name" : "Cumhuriyet Cd.",
               "types" : [ "route" ]
            },
            {
               "long_name" : "Çarşı",
               "short_name" : "Çarşı",
               "types" : [ "administrative_area_level_4", "political" ]
            },
            {
               "long_name" : "Kandıra",
               "short_name" : "Kandıra",
               "types" : [ "administrative_area_level_2", "political" ]
            },
            {
               "long_name" : "Kocaeli",
               "short_name" : "Kocaeli",
               "types" : [ "administrative_area_level_1", "political" ]
            },
            {
               "long_name" : "Turkey",
               "short_name" : "TR",
               "types" : [ "country", "political" ]
            },
            {
               "long_name" : "41600",
               "short_name" : "41600",
               "types" : [ "postal_code" ]
            }
         ],
         "formatted_address" : "Çarşı, Cumhuriyet Cd. No:2, 41600 Kandıra/Kocaeli, Turkey",
         "geometry" : {
            "location" : {
               "lat" : 41.0703094,
               "lng" : 30.152368
            },
            "location_type" : "RANGE_INTERPOLATED",
            "viewport" : {
               "northeast" : {
                  "lat" : 41.0716583802915,
                  "lng" : 30.1537169802915
               },
               "southwest" : {
                  "lat" : 41.0689604197085,
                  "lng" : 30.1510190197085
               }
            }
         },
         "place_id" : "Ej3Dh2FyxZ_EsSwgQ3VtaHVyaXlldCBDZC4gTm86MiwgNDE2MDAgS2FuZMSxcmEvS29jYWVsaSwgVHVya2V5IhoSGAoUChIJi8K3TfYRnkARm_0gp-P_OwoQAg",
         "types" : [ "street_address" ]
      },
      {
         "address_components" : [
            {
               "long_name" : "1",
               "short_name" : "1",
               "types" : [ "street_number" ]
            },
            {
               "long_name" : "Cumhuriyet Caddesi",
               "short_name" : "Cumhuriyet Cd.",
               "types" : [ "route" ]
            },
            {
               "long_name" : "Akdurak",
               "short_name" : "Akdurak",
               "types" : [ "administrative_area_level_4", "political" ]
            },
            {
               "long_name" : "Kandıra",
               "short_name" : "Kandıra",
               "types" : [ "administrative_area_level_2", "political" ]
            },
            {
               "long_name" : "Kocaeli",
               "short_name" : "Kocaeli",
               "types" : [ "administrative_area_level_1", "political" ]
            },
            {
               "long_name" : "Turkey",
               "short_name" : "TR",
               "types" : [ "country", "political" ]
            },
            {
               "long_name" : "41600",
               "short_name" : "41600",
               "types" : [ "postal_code" ]
            }
         ],
         "formatted_address" : "Akdurak, Cumhuriyet Cd. No:1, 41600 Kandıra/Kocaeli, Turkey",
         "geometry" : {
            "bounds" : {
               "northeast" : {
                  "lat" : 41.0704262,
                  "lng" : 30.15245
               },
               "southwest" : {
                  "lat" : 41.0701278,
                  "lng" : 30.1523339
               }
            },
            "location" : {
               "lat" : 41.070275,
               "lng" : 30.1523825
            },
            "location_type" : "GEOMETRIC_CENTER",
            "viewport" : {
               "northeast" : {
                  "lat" : 41.0716259802915,
                  "lng" : 30.1537409302915
               },
               "southwest" : {
                  "lat" : 41.0689280197085,
                  "lng" : 30.1510429697085
               }
            }
         },
         "place_id" : "ChIJi8K3TfYRnkARmv0gp-P_Owo",
         "types" : [ "route" ]
      },
      {
         "address_components" : [
            {
               "long_name" : "35C2+4X",
               "short_name" : "35C2+4X",
               "types" : [ "plus_code" ]
            },
            {
               "long_name" : "Kandıra",
               "short_name" : "Kandıra",
               "types" : [ "administrative_area_level_2", "political" ]
            },
            {
               "long_name" : "Kocaeli",
               "short_name" : "Kocaeli",
               "types" : [ "administrative_area_level_1", "political" ]
            },
            {
               "long_name" : "Turkey",
               "short_name" : "TR",
               "types" : [ "country", "political" ]
            }
         ],
         "formatted_address" : "35C2+4X Kandıra/Kocaeli, Turkey",
         "geometry" : {
            "bounds" : {
               "northeast" : {
                  "lat" : 41.070375,
                  "lng" : 30.1525
               },
               "southwest" : {
                  "lat" : 41.07025000000001,
                  "lng" : 30.152375
               }
            },
            "location" : {
               "lat" : 41.070363,
               "lng" : 30.15239399999999
            },
            "location_type" : "ROOFTOP",
            "viewport" : {
               "northeast" : {
                  "lat" : 41.0716614802915,
                  "lng" : 30.1537864802915
               },
               "southwest" : {
                  "lat" : 41.0689635197085,
                  "lng" : 30.1510885197085
               }
            }
         },
         "place_id" : "GhIJmuyfpwGJREARShsOSwMnPkA",
         "plus_code" : {
            "compound_code" : "35C2+4X Kandıra/Kocaeli, Turkey",
            "global_code" : "8GHG35C2+4X"
         },
         "types" : [ "plus_code" ]
      },
      {
         "address_components" : [
            {
               "long_name" : "41600",
               "short_name" : "41600",
               "types" : [ "postal_code" ]
            },
            {
               "long_name" : "Çarşı",
               "short_name" : "Çarşı",
               "types" : [ "administrative_area_level_4", "political" ]
            },
            {
               "long_name" : "Kandıra",
               "short_name" : "Kandıra",
               "types" : [ "administrative_area_level_2", "political" ]
            },
            {
               "long_name" : "Kocaeli",
               "short_name" : "Kocaeli",
               "types" : [ "administrative_area_level_1", "political" ]
            },
            {
               "long_name" : "Turkey",
               "short_name" : "TR",
               "types" : [ "country", "political" ]
            }
         ],
         "formatted_address" : "Çarşı, 41600 Kandıra/Kocaeli, Turkey",
         "geometry" : {
            "bounds" : {
               "northeast" : {
                  "lat" : 41.071049,
                  "lng" : 30.155396
               },
               "southwest" : {
                  "lat" : 41.05699,
                  "lng" : 30.141103
               }
            },
            "location" : {
               "lat" : 41.0648698,
               "lng" : 30.1484512
            },
            "location_type" : "APPROXIMATE",
            "viewport" : {
               "northeast" : {
                  "lat" : 41.071049,
                  "lng" : 30.155396
               },
               "southwest" : {
                  "lat" : 41.05699,
                  "lng" : 30.141103
               }
            }
         },
         "place_id" : "ChIJQQ2QHPARnkARdXzB8TmnS5w",
         "types" : [ "postal_code" ]
      },
      {
         "address_components" : [
            {
               "long_name" : "Çarşı",
               "short_name" : "Çarşı",
               "types" : [ "administrative_area_level_4", "political" ]
            },
            {
               "long_name" : "Kandıra",
               "short_name" : "Kandıra",
               "types" : [ "administrative_area_level_2", "political" ]
            },
            {
               "long_name" : "Kocaeli",
               "short_name" : "Kocaeli",
               "types" : [ "administrative_area_level_1", "political" ]
            },
            {
               "long_name" : "Turkey",
               "short_name" : "TR",
               "types" : [ "country", "political" ]
            },
            {
               "long_name" : "41600",
               "short_name" : "41600",
               "types" : [ "postal_code" ]
            }
         ],
         "formatted_address" : "Çarşı, 41600 Kandıra/Kocaeli, Turkey",
         "geometry" : {
            "bounds" : {
               "northeast" : {
                  "lat" : 41.071049,
                  "lng" : 30.155396
               },
               "southwest" : {
                  "lat" : 41.05699,
                  "lng" : 30.141103
               }
            },
            "location" : {
               "lat" : 41.0648698,
               "lng" : 30.1484512
            },
            "location_type" : "APPROXIMATE",
            "viewport" : {
               "northeast" : {
                  "lat" : 41.071049,
                  "lng" : 30.155396
               },
               "southwest" : {
                  "lat" : 41.05699,
                  "lng" : 30.141103
               }
            }
         },
         "place_id" : "ChIJEfuTHPARnkARqlJ7khRgR84",
         "types" : [ "administrative_area_level_4", "political" ]
      },
      {
         "address_components" : [
            {
               "long_name" : "Kandıra",
               "short_name" : "Kandıra",
               "types" : [ "locality", "political" ]
            },
            {
               "long_name" : "Kandıra",
               "short_name" : "Kandıra",
               "types" : [ "administrative_area_level_2", "political" ]
            },
            {
               "long_name" : "Kocaeli",
               "short_name" : "Kocaeli",
               "types" : [ "administrative_area_level_1", "political" ]
            },
            {
               "long_name" : "Turkey",
               "short_name" : "TR",
               "types" : [ "country", "political" ]
            }
         ],
         "formatted_address" : "Kandıra, Kocaeli, Turkey",
         "geometry" : {
            "bounds" : {
               "northeast" : {
                  "lat" : 41.086336,
                  "lng" : 30.176257
               },
               "southwest" : {
                  "lat" : 41.060839,
                  "lng" : 30.1253881
               }
            },
            "location" : {
               "lat" : 41.070363,
               "lng" : 30.15239399999999
            },
            "location_type" : "APPROXIMATE",
            "viewport" : {
               "northeast" : {
                  "lat" : 41.086336,
                  "lng" : 30.176257
               },
               "southwest" : {
                  "lat" : 41.060839,
                  "lng" : 30.1253881
               }
            }
         },
         "place_id" : "ChIJbRm-ggISnkARYW3FrO0Xih8",
         "types" : [ "locality", "political" ]
      },
      {
         "address_components" : [
            {
               "long_name" : "Kandıra",
               "short_name" : "Kandıra",
               "types" : [ "administrative_area_level_2", "political" ]
            },
            {
               "long_name" : "Kocaeli",
               "short_name" : "Kocaeli",
               "types" : [ "administrative_area_level_1", "political" ]
            },
            {
               "long_name" : "Turkey",
               "short_name" : "TR",
               "types" : [ "country", "political" ]
            }
         ],
         "formatted_address" : "Kandıra/Kocaeli, Turkey",
         "geometry" : {
            "bounds" : {
               "northeast" : {
                  "lat" : 41.20976,
                  "lng" : 30.367743
               },
               "southwest" : {
                  "lat" : 40.87206,
                  "lng" : 29.8340371
               }
            },
            "location" : {
               "lat" : 41.0527636,
               "lng" : 30.0896746
            },
            "location_type" : "APPROXIMATE",
            "viewport" : {
               "northeast" : {
                  "lat" : 41.20976,
                  "lng" : 30.367743
               },
               "southwest" : {
                  "lat" : 40.87206,
                  "lng" : 29.8340371
               }
            }
         },
         "place_id" : "ChIJSSipFUwQnkARWtGd1XFliEE",
         "types" : [ "administrative_area_level_2", "political" ]
      },
      {
         "address_components" : [
            {
               "long_name" : "Kocaeli",
               "short_name" : "Kocaeli",
               "types" : [ "administrative_area_level_1", "political" ]
            },
            {
               "long_name" : "Turkey",
               "short_name" : "TR",
               "types" : [ "country", "political" ]
            }
         ],
         "formatted_address" : "Kocaeli, Turkey",
         "geometry" : {
            "bounds" : {
               "northeast" : {
                  "lat" : 41.20976,
                  "lng" : 30.367743
               },
               "southwest" : {
                  "lat" : 40.524151,
                  "lng" : 29.3331261
               }
            },
            "location" : {
               "lat" : 40.8532704,
               "lng" : 29.8815203
            },
            "location_type" : "APPROXIMATE",
            "viewport" : {
               "northeast" : {
                  "lat" : 41.20976,
                  "lng" : 30.367743
               },
               "southwest" : {
                  "lat" : 40.524151,
                  "lng" : 29.3331261
               }
            }
         },
         "place_id" : "ChIJQ8zKb5QgyxQRWdhW642zLKg",
         "types" : [ "administrative_area_level_1", "political" ]
      },
      {
         "address_components" : [
            {
               "long_name" : "Turkey",
               "short_name" : "TR",
               "types" : [ "country", "political" ]
            }
         ],
         "formatted_address" : "Turkey",
         "geometry" : {
            "bounds" : {
               "northeast" : {
                  "lat" : 42.3666999,
                  "lng" : 44.8178449
               },
               "southwest" : {
                  "lat" : 35.808592,
                  "lng" : 25.5377
               }
            },
            "location" : {
               "lat" : 38.963745,
               "lng" : 35.243322
            },
            "location_type" : "APPROXIMATE",
            "viewport" : {
               "northeast" : {
                  "lat" : 42.3666999,
                  "lng" : 44.8178449
               },
               "southwest" : {
                  "lat" : 35.808592,
                  "lng" : 25.5377
               }
            }
         },
         "place_id" : "ChIJcSZPllwVsBQRKl9iKtTb2UA",
         "types" : [ "country", "political" ]
      }
   ],
   "status" : "OK"
}
