{
   "plus_code" : {
      "compound_code" : "3WJW+C56 Eyüpsultan/İstanbul, Turkey",
      "global_code" : "8GHC3WJW+C56"
   },
   "results" : [
      {
         "address_components" : [
            {
               "long_name" : "42",
               "short_name" : "42",
               "types" : [ "street_number" ]
            },
            {
               "long_name" : "Kekik Sokak",
               "short_name" : "Kekik Sk.",
               "types" : [ "route" ]
            },
            {
               "long_name" : "Alibeyköy",
               "short_name" : "Alibeyköy",
               "types" : [ "administrative_area_level_4", "political" ]
            },
            {
               "long_name" : "Eyüpsultan",
               "short_name" : "Eyüpsultan",
               "types" : [ "administrative_area_level_2", "political" ]
            },
            {
               "long_name" : "İstanbul",
               "short_name" : "İstanbul",
               "types" : [ "administrative_area_level_1", "political" ]
            },
            {
               "long_name" : "Turkey",
               "short_name" : "TR",
               "types" : [ "country", "political" ]
            },
            {
               "long_name" : "34060",
               "short_name" : "34060",
               "types" : [ "postal_code" ]
            }
         ],
         "formatted_address" : "Alibeyköy, Kekik Sk. No:42, 34060 Eyüpsultan/İstanbul, Turkey",
         "geometry" : {
            "location" : {
               "lat" : 41.081031,
               "lng" : 28.94539
            },
            "location_type" : "ROOFTOP",
            "viewport" : {
               "northeast" : {
                  "lat" : 41.08237998029149,
                  "lng" : 28.9467389802915
               },
               "southwest" : {
                  "lat" : 41.07968201970849,
                  "lng" : 28.9440410197085
               }
            }
         },
         "place_id" : "ChIJXZArPimxyhQRY2Lda_extdc",
         "plus_code" : {
            "compound_code" : "3WJW+C5 Eyüpsultan/İstanbul, Turkey",
            "global_code" : "8GHC3WJW+C5"
         },
         "types" : [ "street_address" ]
      },
      {
         "address_components" : [
            {
               "long_name" : "28",
               "short_name" : "28",
               "types" : [ "street_number" ]
            },
            {
               "long_name" : "Güzelce Caddesi",
               "short_name" : "Güzelce Cd.",
               "types" : [ "route" ]
            },
            {
               "long_name" : "Alibeyköy",
               "short_name" : "Alibeyköy",
               "types" : [ "administrative_area_level_4", "political" ]
            },
            {
               "long_name" : "Eyüpsultan",
               "short_name" : "Eyüpsultan",
               "types" : [ "administrative_area_level_2", "political" ]
            },
            {
               "long_name" : "İstanbul",
               "short_name" : "İstanbul",
               "types" : [ "administrative_area_level_1", "political" ]
            },
            {
               "long_name" : "Turkey",
               "short_name" : "TR",
               "types" : [ "country", "political" ]
            },
            {
               "long_name" : "34060",
               "short_name" : "34060",
               "types" : [ "postal_code" ]
            }
         ],
         "formatted_address" : "Alibeyköy, Güzelce Cd. No:28, 34060 Eyüpsultan/İstanbul, Turkey",
         "geometry" : {
            "bounds" : {
               "northeast" : {
                  "lat" : 41.081247,
                  "lng" : 28.9454541
               },
               "southwest" : {
                  "lat" : 41.08112999999999,
                  "lng" : 28.9453281
               }
            },
            "location" : {
               "lat" : 41.0811806,
               "lng" : 28.9453818
            },
            "location_type" : "ROOFTOP",
            "viewport" : {
               "northeast" : {
                  "lat" : 41.08253748029149,
                  "lng" : 28.9467400802915
               },
               "southwest" : {
                  "lat" : 41.07983951970849,
                  "lng" : 28.9440421197085
               }
            }
         },
         "place_id" : "ChIJM_r8PimxyhQR9_PMyC56kes",
         "types" : [ "premise" ]
      },
      {
         "address_components" : [
            {
               "long_name" : "42",
               "short_name" : "42",
               "types" : [ "street_number" ]
            },
            {
               "long_name" : "Kekik Sokak",
               "short_name" : "Kekik Sk.",
               "types" : [ "route" ]
            },
            {
               "long_name" : "Alibeyköy",
               "short_name" : "Alibeyköy",
               "types" : [ "administrative_area_level_4", "political" ]
            },
            {
               "long_name" : "Eyüpsultan",
               "short_name" : "Eyüpsultan",
               "types" : [ "administrative_area_level_2", "political" ]
            },
            {
               "long_name" : "İstanbul",
               "short_name" : "İstanbul",
               "types" : [ "administrative_area_level_1", "political" ]
            },
            {
               "long_name" : "Turkey",
               "short_name" : "TR",
               "types" : [ "country", "political" ]
            },
            {
               "long_name" : "34060",
               "short_name" : "34060",
               "types" : [ "postal_code" ]
            }
         ],
         "formatted_address" : "Alibeyköy, Kekik Sk. No:42, 34060 Eyüpsultan/İstanbul, Turkey",
         "geometry" : {
            "location" : {
               "lat" : 41.08098,
               "lng" : 28.9454926
            },
            "location_type" : "RANGE_INTERPOLATED",
            "viewport" : {
               "northeast" : {
                  "lat" : 41.08232898029149,
                  "lng" : 28.9468415802915
               },
               "southwest" : {
                  "lat" : 41.0796310197085,
                  "lng" : 28.9441436197085
               }
            }
         },
         "place_id" : "EkBBbGliZXlrw7Z5LCBLZWtpayBTay4gTm86NDIsIDM0MDYwIEV5w7xwc3VsdGFuL8Swc3RhbmJ1bCwgVHVya2V5IhoSGAoUChIJpcxoqy6xyhQRh6ixPk1EfbIQKg",
         "types" : [ "street_address" ]
      },
      {
         "address_components" : [
            {
               "long_name" : "3WJW+C5",
               "short_name" : "3WJW+C5",
               "types" : [ "plus_code" ]
            },
            {
               "long_name" : "Eyüpsultan",
               "short_name" : "Eyüpsultan",
               "types" : [ "administrative_area_level_2", "political" ]
            },
            {
               "long_name" : "İstanbul",
               "short_name" : "İstanbul",
               "types" : [ "administrative_area_level_1", "political" ]
            },
            {
               "long_name" : "Turkey",
               "short_name" : "TR",
               "types" : [ "country", "political" ]
            }
         ],
         "formatted_address" : "3WJW+C5 Eyüpsultan/İstanbul, Turkey",
         "geometry" : {
            "bounds" : {
               "northeast" : {
                  "lat" : 41.08112500000001,
                  "lng" : 28.9455
               },
               "southwest" : {
                  "lat" : 41.081,
                  "lng" : 28.945375
               }
            },
            "location" : {
               "lat" : 41.081031,
               "lng" : 28.94539
            },
            "location_type" : "GEOMETRIC_CENTER",
            "viewport" : {
               "northeast" : {
                  "lat" : 41.0824114802915,
                  "lng" : 28.9467864802915
               },
               "southwest" : {
                  "lat" : 41.07971351970851,
                  "lng" : 28.9440885197085
               }
            }
         },
         "place_id" : "GhIJKHtLOV-KREARKPc7FAXyPEA",
         "plus_code" : {
            "compound_code" : "3WJW+C5 Eyüpsultan/İstanbul, Turkey",
            "global_code" : "8GHC3WJW+C5"
         },
         "types" : [ "plus_code" ]
      },
      {
         "address_components" : [
            {
               "long_name" : "27-1",
               "short_name" : "27-1",
               "types" : [ "street_number" ]
            },
            {
               "long_name" : "Kekik Sokak",
               "short_name" : "Kekik Sk.",
               "types" : [ "route" ]
            },
            {
               "long_name" : "Alibeyköy",
               "short_name" : "Alibeyköy",
               "types" : [ "administrative_area_level_4", "political" ]
            },
            {
               "long_name" : "Eyüpsultan",
               "short_name" : "Eyüpsultan",
               "types" : [ "administrative_area_level_2", "political" ]
            },
            {
               "long_name" : "İstanbul",
               "short_name" : "İstanbul",
               "types" : [ "administrative_area_level_1", "political" ]
            },
            {
               "long_name" : "Turkey",
               "short_name" : "TR",
               "types" : [ "country", "political" ]
            },
            {
               "long_name" : "34060",
               "short_name" : "34060",
               "types" : [ "postal_code" ]
            }
         ],
         "formatted_address" : "Alibeyköy, Kekik Sk. 27-1, 34060 Eyüpsultan/İstanbul, Turkey",
         "geometry" : {
            "bounds" : {
               "northeast" : {
                  "lat" : 41.0826188,
                  "lng" : 28.9478923
               },
               "southwest" : {
                  "lat" : 41.0808517,
                  "lng" : 28.9451972
               }
            },
            "location" : {
               "lat" : 41.08168860000001,
               "lng" : 28.9466542
            },
            "location_type" : "GEOMETRIC_CENTER",
            "viewport" : {
               "northeast" : {
                  "lat" : 41.0830842302915,
                  "lng" : 28.9478937302915
               },
               "southwest" : {
                  "lat" : 41.0803862697085,
                  "lng" : 28.9451957697085
               }
            }
         },
         "place_id" : "ChIJpcxoqy6xyhQRhqixPk1EfbI",
         "types" : [ "route" ]
      },
      {
         "address_components" : [
            {
               "long_name" : "34060",
               "short_name" : "34060",
               "types" : [ "postal_code" ]
            },
            {
               "long_name" : "Alibeyköy",
               "short_name" : "Alibeyköy",
               "types" : [ "administrative_area_level_4", "political" ]
            },
            {
               "long_name" : "Eyüpsultan",
               "short_name" : "Eyüpsultan",
               "types" : [ "administrative_area_level_2", "political" ]
            },
            {
               "long_name" : "İstanbul",
               "short_name" : "İstanbul",
               "types" : [ "administrative_area_level_1", "political" ]
            },
            {
               "long_name" : "Turkey",
               "short_name" : "TR",
               "types" : [ "country", "political" ]
            }
         ],
         "formatted_address" : "Alibeyköy, 34060 Eyüpsultan/İstanbul, Turkey",
         "geometry" : {
            "bounds" : {
               "northeast" : {
                  "lat" : 41.0872159,
                  "lng" : 28.9502379
               },
               "southwest" : {
                  "lat" : 41.070547,
                  "lng" : 28.939031
               }
            },
            "location" : {
               "lat" : 41.0809618,
               "lng" : 28.9455865
            },
            "location_type" : "APPROXIMATE",
            "viewport" : {
               "northeast" : {
                  "lat" : 41.0872159,
                  "lng" : 28.9502379
               },
               "southwest" : {
                  "lat" : 41.070547,
                  "lng" : 28.939031
               }
            }
         },
         "place_id" : "ChIJNY_QySmxyhQRUjYd52opfNY",
         "types" : [ "postal_code" ]
      },
      {
         "address_components" : [
            {
               "long_name" : "Alibeyköy",
               "short_name" : "Alibeyköy",
               "types" : [ "administrative_area_level_4", "political" ]
            },
            {
               "long_name" : "Eyüpsultan",
               "short_name" : "Eyüpsultan",
               "types" : [ "administrative_area_level_2", "political" ]
            },
            {
               "long_name" : "İstanbul",
               "short_name" : "İstanbul",
               "types" : [ "administrative_area_level_1", "political" ]
            },
            {
               "long_name" : "Turkey",
               "short_name" : "TR",
               "types" : [ "country", "political" ]
            },
            {
               "long_name" : "34060",
               "short_name" : "34060",
               "types" : [ "postal_code" ]
            }
         ],
         "formatted_address" : "Alibeyköy, 34060 Eyüpsultan/İstanbul, Turkey",
         "geometry" : {
            "bounds" : {
               "northeast" : {
                  "lat" : 41.0872159,
                  "lng" : 28.9502379
               },
               "southwest" : {
                  "lat" : 41.070547,
                  "lng" : 28.939031
               }
            },
            "location" : {
               "lat" : 41.0809618,
               "lng" : 28.9455865
            },
            "location_type" : "APPROXIMATE",
            "viewport" : {
               "northeast" : {
                  "lat" : 41.0872159,
                  "lng" : 28.9502379
               },
               "southwest" : {
                  "lat" : 41.070547,
                  "lng" : 28.939031
               }
            }
         },
         "place_id" : "ChIJI5zjyimxyhQRNPBu0Kqrklo",
         "types" : [ "administrative_area_level_4", "political" ]
      },
      {
         "address_components" : [
            {
               "long_name" : "Eyüpsultan",
               "short_name" : "Eyüpsultan",
               "types" : [ "administrative_area_level_2", "political" ]
            },
            {
               "long_name" : "İstanbul",
               "short_name" : "İstanbul",
               "types" : [ "administrative_area_level_1", "political" ]
            },
            {
               "long_name" : "Turkey",
               "short_name" : "TR",
               "types" : [ "country", "political" ]
            }
         ],
         "formatted_address" : "Eyüpsultan/İstanbul, Turkey",
         "geometry" : {
            "bounds" : {
               "northeast" : {
                  "lat" : 41.308697,
                  "lng" : 28.9762831
               },
               "southwest" : {
                  "lat" : 41.0243391,
                  "lng" : 28.770507
               }
            },
            "location" : {
               "lat" : 41.1871598,
               "lng" : 28.8829816
            },
            "location_type" : "APPROXIMATE",
            "viewport" : {
               "northeast" : {
                  "lat" : 41.308697,
                  "lng" : 28.9762831
               },
               "southwest" : {
                  "lat" : 41.0243391,
                  "lng" : 28.770507
               }
            }
         },
         "place_id" : "ChIJZRLW7GSyyhQRB0Z9KwRKCJs",
         "types" : [ "administrative_area_level_2", "political" ]
      },
      {
         "address_components" : [
            {
               "long_name" : "European Side",
               "short_name" : "European Side",
               "types" : [ "neighborhood", "political" ]
            },
            {
               "long_name" : "İstanbul",
               "short_name" : "İstanbul",
               "types" : [ "administrative_area_level_1", "political" ]
            },
            {
               "long_name" : "Turkey",
               "short_name" : "TR",
               "types" : [ "country", "political" ]
            }
         ],
         "formatted_address" : "European Side, İstanbul, Turkey",
         "geometry" : {
            "bounds" : {
               "northeast" : {
                  "lat" : 41.199239,
                  "lng" : 29.077487
               },
               "southwest" : {
                  "lat" : 40.954508,
                  "lng" : 28.595554
               }
            },
            "location" : {
               "lat" : 41.0286909,
               "lng" : 28.92404269999999
            },
            "location_type" : "APPROXIMATE",
            "viewport" : {
               "northeast" : {
                  "lat" : 41.199239,
                  "lng" : 29.077487
               },
               "southwest" : {
                  "lat" : 40.954508,
                  "lng" : 28.595554
               }
            }
         },
         "place_id" : "ChIJhTq6hpGkyhQRC5OjsPQ0MVY",
         "types" : [ "neighborhood", "political" ]
      },
      {
         "address_components" : [
            {
               "long_name" : "İstanbul",
               "short_name" : "İstanbul",
               "types" : [ "locality", "political" ]
            },
            {
               "long_name" : "İstanbul",
               "short_name" : "İstanbul",
               "types" : [ "administrative_area_level_1", "political" ]
            },
            {
               "long_name" : "Turkey",
               "short_name" : "TR",
               "types" : [ "country", "political" ]
            }
         ],
         "formatted_address" : "İstanbul, Turkey",
         "geometry" : {
            "bounds" : {
               "northeast" : {
                  "lat" : 41.199239,
                  "lng" : 29.4288049
               },
               "southwest" : {
                  "lat" : 40.811404,
                  "lng" : 28.595554
               }
            },
            "location" : {
               "lat" : 41.0082376,
               "lng" : 28.9783589
            },
            "location_type" : "APPROXIMATE",
            "viewport" : {
               "northeast" : {
                  "lat" : 41.199239,
                  "lng" : 29.4288049
               },
               "southwest" : {
                  "lat" : 40.811404,
                  "lng" : 28.595554
               }
            }
         },
         "place_id" : "ChIJawhoAASnyhQR0LABvJj-zOE",
         "types" : [ "locality", "political" ]
      },
      {
         "address_components" : [
            {
               "long_name" : "İstanbul",
               "short_name" : "İstanbul",
               "types" : [ "administrative_area_level_1", "political" ]
            },
            {
               "long_name" : "Turkey",
               "short_name" : "TR",
               "types" : [ "country", "political" ]
            }
         ],
         "formatted_address" : "İstanbul, Turkey",
         "geometry" : {
            "bounds" : {
               "northeast" : {
                  "lat" : 41.58461,
                  "lng" : 29.915705
               },
               "southwest" : {
                  "lat" : 40.8026889,
                  "lng" : 27.971373
               }
            },
            "location" : {
               "lat" : 41.1634302,
               "lng" : 28.7664408
            },
            "location_type" : "APPROXIMATE",
            "viewport" : {
               "northeast" : {
                  "lat" : 41.58461,
                  "lng" : 29.915705
               },
               "southwest" : {
                  "lat" : 40.8026889,
                  "lng" : 27.971373
               }
            }
         },
         "place_id" : "ChIJexVgWlG2yhQR6B1akfSarCI",
         "types" : [ "administrative_area_level_1", "political" ]
      },
      {
         "address_components" : [
            {
               "long_name" : "Turkey",
               "short_name" : "TR",
               "types" : [ "country", "political" ]
            }
         ],
         "formatted_address" : "Turkey",
         "geometry" : {
            "bounds" : {
               "northeast" : {
                  "lat" : 42.3666999,
                  "lng" : 44.8178449
               },
               "southwest" : {
                  "lat" : 35.808592,
                  "lng" : 25.5377
               }
            },
            "location" : {
               "lat" : 38.963745,
               "lng" : 35.243322
            },
            "location_type" : "APPROXIMATE",
            "viewport" : {
               "northeast" : {
                  "lat" : 42.3666999,
                  "lng" : 44.8178449
               },
               "southwest" : {
                  "lat" : 35.808592,
                  "lng" : 25.5377
               }
            }
         },
         "place_id" : "ChIJcSZPllwVsBQRKl9iKtTb2UA",
         "types" : [ "country", "political" ]
      }
   ],
   "status" : "OK"
}
