{
   "plus_code" : {
      "compound_code" : "53Q6+C98 Osmangazi/Bursa, Turkey",
      "global_code" : "8GGF53Q6+C98"
   },
   "results" : [
      {
         "address_components" : [
            {
               "long_name" : "12",
               "short_name" : "12",
               "types" : [ "street_number" ]
            },
            {
               "long_name" : "Ahmet Hamdi Tanpınar Caddesi",
               "short_name" : "Ahmet Hamdi Tanpınar Cd.",
               "types" : [ "route" ]
            },
            {
               "long_name" : "Şehreküstü",
               "short_name" : "Şehreküstü",
               "types" : [ "administrative_area_level_4", "political" ]
            },
            {
               "long_name" : "Osmangazi",
               "short_name" : "Osmangazi",
               "types" : [ "administrative_area_level_2", "political" ]
            },
            {
               "long_name" : "Bursa",
               "short_name" : "Bursa",
               "types" : [ "administrative_area_level_1", "political" ]
            },
            {
               "long_name" : "Turkey",
               "short_name" : "TR",
               "types" : [ "country", "political" ]
            },
            {
               "long_name" : "16050",
               "short_name" : "16050",
               "types" : [ "postal_code" ]
            }
         ],
         "formatted_address" : "Şehreküstü, Ahmet Hamdi Tanpınar Cd. No:12, 16050 Osmangazi/Bursa, Turkey",
         "geometry" : {
            "location" : {
               "lat" : 40.188382,
               "lng" : 29.0605975
            },
            "location_type" : "ROOFTOP",
            "viewport" : {
               "northeast" : {
                  "lat" : 40.18973098029149,
                  "lng" : 29.0619464802915
               },
               "southwest" : {
                  "lat" : 40.18703301970849,
                  "lng" : 29.0592485197085
               }
            }
         },
         "place_id" : "ChIJKX9KJgg-yhQRb2CaApVtVC0",
         "plus_code" : {
            "compound_code" : "53Q6+96 Osmangazi/Bursa, Turkey",
            "global_code" : "8GGF53Q6+96"
         },
         "types" : [ "street_address" ]
      },
      {
         "address_components" : [
            {
               "long_name" : "2",
               "short_name" : "2",
               "types" : [ "street_number" ]
            },
            {
               "long_name" : "Haşim İşcan Caddesi",
               "short_name" : "Haşim İşcan Cd.",
               "types" : [ "route" ]
            },
            {
               "long_name" : "Reyhan",
               "short_name" : "Reyhan",
               "types" : [ "administrative_area_level_4", "political" ]
            },
            {
               "long_name" : "Osmangazi",
               "short_name" : "Osmangazi",
               "types" : [ "administrative_area_level_2", "political" ]
            },
            {
               "long_name" : "Bursa",
               "short_name" : "Bursa",
               "types" : [ "administrative_area_level_1", "political" ]
            },
            {
               "long_name" : "Turkey",
               "short_name" : "TR",
               "types" : [ "country", "political" ]
            },
            {
               "long_name" : "16030",
               "short_name" : "16030",
               "types" : [ "postal_code" ]
            }
         ],
         "formatted_address" : "Reyhan, Haşim İşcan Cd. No:2, 16030 Osmangazi/Bursa, Turkey",
         "geometry" : {
            "location" : {
               "lat" : 40.1885089,
               "lng" : 29.0612653
            },
            "location_type" : "RANGE_INTERPOLATED",
            "viewport" : {
               "northeast" : {
                  "lat" : 40.1898578802915,
                  "lng" : 29.0626142802915
               },
               "southwest" : {
                  "lat" : 40.1871599197085,
                  "lng" : 29.0599163197085
               }
            }
         },
         "place_id" : "Ej5SZXloYW4sIEhhxZ9pbSDEsMWfY2FuIENkLiBObzoyLCAxNjAzMCBPc21hbmdhemkvQnVyc2EsIFR1cmtleSIaEhgKFAoSCQtWUc8JPsoUEbQJyF0-jVXJEAI",
         "types" : [ "street_address" ]
      },
      {
         "address_components" : [
            {
               "long_name" : "53Q6+C9",
               "short_name" : "53Q6+C9",
               "types" : [ "plus_code" ]
            },
            {
               "long_name" : "Osmangazi",
               "short_name" : "Osmangazi",
               "types" : [ "administrative_area_level_2", "political" ]
            },
            {
               "long_name" : "Bursa",
               "short_name" : "Bursa",
               "types" : [ "administrative_area_level_1", "political" ]
            },
            {
               "long_name" : "Turkey",
               "short_name" : "TR",
               "types" : [ "country", "political" ]
            }
         ],
         "formatted_address" : "53Q6+C9 Osmangazi/Bursa, Turkey",
         "geometry" : {
            "bounds" : {
               "northeast" : {
                  "lat" : 40.18862499999999,
                  "lng" : 29.061
               },
               "southwest" : {
                  "lat" : 40.1885,
                  "lng" : 29.060875
               }
            },
            "location" : {
               "lat" : 40.1885282,
               "lng" : 29.0609636
            },
            "location_type" : "GEOMETRIC_CENTER",
            "viewport" : {
               "northeast" : {
                  "lat" : 40.18991148029149,
                  "lng" : 29.0622864802915
               },
               "southwest" : {
                  "lat" : 40.1872135197085,
                  "lng" : 29.05958851970851
               }
            }
         },
         "place_id" : "GhIJ168qsSEYREARFT98T5sPPUA",
         "plus_code" : {
            "compound_code" : "53Q6+C9 Osmangazi/Bursa, Turkey",
            "global_code" : "8GGF53Q6+C9"
         },
         "types" : [ "plus_code" ]
      },
      {
         "address_components" : [
            {
               "long_name" : "2-4",
               "short_name" : "2-4",
               "types" : [ "street_number" ]
            },
            {
               "long_name" : "Haşim İşcan Caddesi",
               "short_name" : "Haşim İşcan Cd.",
               "types" : [ "route" ]
            },
            {
               "long_name" : "Reyhan",
               "short_name" : "Reyhan",
               "types" : [ "administrative_area_level_4", "political" ]
            },
            {
               "long_name" : "Osmangazi",
               "short_name" : "Osmangazi",
               "types" : [ "administrative_area_level_2", "political" ]
            },
            {
               "long_name" : "Bursa",
               "short_name" : "Bursa",
               "types" : [ "administrative_area_level_1", "political" ]
            },
            {
               "long_name" : "Turkey",
               "short_name" : "TR",
               "types" : [ "country", "political" ]
            },
            {
               "long_name" : "16030",
               "short_name" : "16030",
               "types" : [ "postal_code" ]
            }
         ],
         "formatted_address" : "Reyhan, Haşim İşcan Cd. 2-4, 16030 Osmangazi/Bursa, Turkey",
         "geometry" : {
            "bounds" : {
               "northeast" : {
                  "lat" : 40.1885498,
                  "lng" : 29.0614419
               },
               "southwest" : {
                  "lat" : 40.1884979,
                  "lng" : 29.061018
               }
            },
            "location" : {
               "lat" : 40.1885043,
               "lng" : 29.0612342
            },
            "location_type" : "GEOMETRIC_CENTER",
            "viewport" : {
               "northeast" : {
                  "lat" : 40.1898728302915,
                  "lng" : 29.0625789302915
               },
               "southwest" : {
                  "lat" : 40.1871748697085,
                  "lng" : 29.0598809697085
               }
            }
         },
         "place_id" : "ChIJC1ZRzwk-yhQRtAnIXT6NVck",
         "types" : [ "route" ]
      },
      {
         "address_components" : [
            {
               "long_name" : "16020",
               "short_name" : "16020",
               "types" : [ "postal_code" ]
            },
            {
               "long_name" : "Reyhan",
               "short_name" : "Reyhan",
               "types" : [ "administrative_area_level_4", "political" ]
            },
            {
               "long_name" : "Osmangazi",
               "short_name" : "Osmangazi",
               "types" : [ "administrative_area_level_2", "political" ]
            },
            {
               "long_name" : "Bursa",
               "short_name" : "Bursa",
               "types" : [ "administrative_area_level_1", "political" ]
            },
            {
               "long_name" : "Turkey",
               "short_name" : "TR",
               "types" : [ "country", "political" ]
            }
         ],
         "formatted_address" : "Reyhan, 16020 Osmangazi/Bursa, Turkey",
         "geometry" : {
            "bounds" : {
               "northeast" : {
                  "lat" : 40.1886689,
                  "lng" : 29.065342
               },
               "southwest" : {
                  "lat" : 40.185709,
                  "lng" : 29.060733
               }
            },
            "location" : {
               "lat" : 40.1866838,
               "lng" : 29.0627207
            },
            "location_type" : "APPROXIMATE",
            "viewport" : {
               "northeast" : {
                  "lat" : 40.1886689,
                  "lng" : 29.065342
               },
               "southwest" : {
                  "lat" : 40.185709,
                  "lng" : 29.060733
               }
            }
         },
         "place_id" : "ChIJYYv3_Qk-yhQR49C6hgvErt0",
         "types" : [ "postal_code" ]
      },
      {
         "address_components" : [
            {
               "long_name" : "Reyhan",
               "short_name" : "Reyhan",
               "types" : [ "administrative_area_level_4", "political" ]
            },
            {
               "long_name" : "Osmangazi",
               "short_name" : "Osmangazi",
               "types" : [ "administrative_area_level_2", "political" ]
            },
            {
               "long_name" : "Bursa",
               "short_name" : "Bursa",
               "types" : [ "administrative_area_level_1", "political" ]
            },
            {
               "long_name" : "Turkey",
               "short_name" : "TR",
               "types" : [ "country", "political" ]
            },
            {
               "long_name" : "16030",
               "short_name" : "16030",
               "types" : [ "postal_code" ]
            }
         ],
         "formatted_address" : "Reyhan, 16030 Osmangazi/Bursa, Turkey",
         "geometry" : {
            "bounds" : {
               "northeast" : {
                  "lat" : 40.1886689,
                  "lng" : 29.065342
               },
               "southwest" : {
                  "lat" : 40.185709,
                  "lng" : 29.060733
               }
            },
            "location" : {
               "lat" : 40.1866838,
               "lng" : 29.0627207
            },
            "location_type" : "APPROXIMATE",
            "viewport" : {
               "northeast" : {
                  "lat" : 40.1886689,
                  "lng" : 29.065342
               },
               "southwest" : {
                  "lat" : 40.185709,
                  "lng" : 29.060733
               }
            }
         },
         "place_id" : "ChIJYYv3_Qk-yhQRgnc9zfAzuEg",
         "types" : [ "administrative_area_level_4", "political" ]
      },
      {
         "address_components" : [
            {
               "long_name" : "Bursa",
               "short_name" : "Bursa",
               "types" : [ "locality", "political" ]
            },
            {
               "long_name" : "Bursa",
               "short_name" : "Bursa",
               "types" : [ "administrative_area_level_1", "political" ]
            },
            {
               "long_name" : "Turkey",
               "short_name" : "TR",
               "types" : [ "country", "political" ]
            }
         ],
         "formatted_address" : "Bursa, Turkey",
         "geometry" : {
            "bounds" : {
               "northeast" : {
                  "lat" : 40.276336,
                  "lng" : 29.202363
               },
               "southwest" : {
                  "lat" : 40.16702,
                  "lng" : 28.862216
               }
            },
            "location" : {
               "lat" : 40.1885281,
               "lng" : 29.0609636
            },
            "location_type" : "APPROXIMATE",
            "viewport" : {
               "northeast" : {
                  "lat" : 40.276336,
                  "lng" : 29.202363
               },
               "southwest" : {
                  "lat" : 40.16702,
                  "lng" : 28.862216
               }
            }
         },
         "place_id" : "ChIJlVbU2IIVyhQRkjOX_FUFoGE",
         "types" : [ "locality", "political" ]
      },
      {
         "address_components" : [
            {
               "long_name" : "Osmangazi",
               "short_name" : "Osmangazi",
               "types" : [ "administrative_area_level_2", "political" ]
            },
            {
               "long_name" : "Bursa",
               "short_name" : "Bursa",
               "types" : [ "administrative_area_level_1", "political" ]
            },
            {
               "long_name" : "Turkey",
               "short_name" : "TR",
               "types" : [ "country", "political" ]
            }
         ],
         "formatted_address" : "Osmangazi/Bursa, Turkey",
         "geometry" : {
            "bounds" : {
               "northeast" : {
                  "lat" : 40.3447159,
                  "lng" : 29.26984
               },
               "southwest" : {
                  "lat" : 39.98636399999999,
                  "lng" : 28.919984
               }
            },
            "location" : {
               "lat" : 40.1794498,
               "lng" : 29.0227201
            },
            "location_type" : "APPROXIMATE",
            "viewport" : {
               "northeast" : {
                  "lat" : 40.3447159,
                  "lng" : 29.26984
               },
               "southwest" : {
                  "lat" : 39.98636399999999,
                  "lng" : 28.919984
               }
            }
         },
         "place_id" : "ChIJO1HUDDM8yhQROsoHltWpfgY",
         "types" : [ "administrative_area_level_2", "political" ]
      },
      {
         "address_components" : [
            {
               "long_name" : "Bursa",
               "short_name" : "Bursa",
               "types" : [ "administrative_area_level_1", "political" ]
            },
            {
               "long_name" : "Turkey",
               "short_name" : "TR",
               "types" : [ "country", "political" ]
            }
         ],
         "formatted_address" : "Bursa, Turkey",
         "geometry" : {
            "bounds" : {
               "northeast" : {
                  "lat" : 40.6212121,
                  "lng" : 29.9561661
               },
               "southwest" : {
                  "lat" : 39.5937439,
                  "lng" : 28.0876659
               }
            },
            "location" : {
               "lat" : 40.0655459,
               "lng" : 29.2320784
            },
            "location_type" : "APPROXIMATE",
            "viewport" : {
               "northeast" : {
                  "lat" : 40.6212121,
                  "lng" : 29.9561661
               },
               "southwest" : {
                  "lat" : 39.5937439,
                  "lng" : 28.0876659
               }
            }
         },
         "place_id" : "ChIJqSK43XuPtRQRzUZGtXCmLJI",
         "types" : [ "administrative_area_level_1", "political" ]
      },
      {
         "address_components" : [
            {
               "long_name" : "Turkey",
               "short_name" : "TR",
               "types" : [ "country", "political" ]
            }
         ],
         "formatted_address" : "Turkey",
         "geometry" : {
            "bounds" : {
               "northeast" : {
                  "lat" : 42.3666999,
                  "lng" : 44.8178449
               },
               "southwest" : {
                  "lat" : 35.808592,
                  "lng" : 25.5377
               }
            },
            "location" : {
               "lat" : 38.963745,
               "lng" : 35.243322
            },
            "location_type" : "APPROXIMATE",
            "viewport" : {
               "northeast" : {
                  "lat" : 42.3666999,
                  "lng" : 44.8178449
               },
               "southwest" : {
                  "lat" : 35.808592,
                  "lng" : 25.5377
               }
            }
         },
         "place_id" : "ChIJcSZPllwVsBQRKl9iKtTb2UA",
         "types" : [ "country", "political" ]
      }
   ],
   "status" : "OK"
}
