{
   "results" : [
      {
         "address_components" : [
            {
               "long_name" : "Hasan Kaya Sokak",
               "short_name" : "Hasan Kaya Sk.",
               "types" : [ "route" ]
            },
            {
               "long_name" : "M. Alipaşa",
               "short_name" : "M. Alipaşa",
               "types" : [ "administrative_area_level_4", "political" ]
            },
            {
               "long_name" : "İzmit",
               "short_name" : "İzmit",
               "types" : [ "administrative_area_level_2", "political" ]
            },
            {
               "long_name" : "Kocaeli",
               "short_name" : "Kocaeli",
               "types" : [ "administrative_area_level_1", "political" ]
            },
            {
               "long_name" : "Turkey",
               "short_name" : "TR",
               "types" : [ "country", "political" ]
            },
            {
               "long_name" : "41050",
               "short_name" : "41050",
               "types" : [ "postal_code" ]
            }
         ],
         "formatted_address" : "M. Alipaşa, Hasan Kaya Sk., 41050 İzmit/Kocaeli, Turkey",
         "geometry" : {
            "bounds" : {
               "northeast" : {
                  "lat" : 40.7712217,
                  "lng" : 29.9552627
               },
               "southwest" : {
                  "lat" : 40.77002179999999,
                  "lng" : 29.9512874
               }
            },
            "location" : {
               "lat" : 40.7706725,
               "lng" : 29.9531633
            },
            "location_type" : "GEOMETRIC_CENTER",
            "viewport" : {
               "northeast" : {
                  "lat" : 40.7719707302915,
                  "lng" : 29.9552627
               },
               "southwest" : {
                  "lat" : 40.7692727697085,
                  "lng" : 29.9512874
               }
            }
         },
         "place_id" : "ChIJ2UMA_exPyxQRlVxztGFL1Io",
         "types" : [ "route" ]
      },
      {
         "address_components" : [
            {
               "long_name" : "Hasan Kaya Sokak",
               "short_name" : "Hasan Kaya Sk.",
               "types" : [ "route" ]
            },
            {
               "long_name" : "Yenişehir",
               "short_name" : "Yenişehir",
               "types" : [ "administrative_area_level_4", "political" ]
            },
            {
               "long_name" : "İzmit",
               "short_name" : "İzmit",
               "types" : [ "administrative_area_level_2", "political" ]
            },
            {
               "long_name" : "Kocaeli",
               "short_name" : "Kocaeli",
               "types" : [ "administrative_area_level_1", "political" ]
            },
            {
               "long_name" : "Turkey",
               "short_name" : "TR",
               "types" : [ "country", "political" ]
            },
            {
               "long_name" : "41050",
               "short_name" : "41050",
               "types" : [ "postal_code" ]
            }
         ],
         "formatted_address" : "Yenişehir, Hasan Kaya Sk., 41050 İzmit/Kocaeli, Turkey",
         "geometry" : {
            "bounds" : {
               "northeast" : {
                  "lat" : 40.7712592,
                  "lng" : 29.9566179
               },
               "southwest" : {
                  "lat" : 40.7708612,
                  "lng" : 29.9552627
               }
            },
            "location" : {
               "lat" : 40.7709742,
               "lng" : 29.9557913
            },
            "location_type" : "GEOMETRIC_CENTER",
            "viewport" : {
               "northeast" : {
                  "lat" : 40.7724091802915,
                  "lng" : 29.9572892802915
               },
               "southwest" : {
                  "lat" : 40.7697112197085,
                  "lng" : 29.9545913197085
               }
            }
         },
         "place_id" : "ChIJMWhaF-xPyxQR-WcZXOe-DiY",
         "types" : [ "route" ]
      }
   ],
   "status" : "OK"
}
