{
   "plus_code" : {
      "compound_code" : "9C6P+WX Ambe, Nigeria",
      "global_code" : "6FXC9C6P+WX"
   },
   "results" : [
      {
         "address_components" : [
            {
               "long_name" : "Arak",
               "short_name" : "Arak",
               "types" : [ "administrative_area_level_3", "political" ]
            },
            {
               "long_name" : "Sanga",
               "short_name" : "Sanga",
               "types" : [ "administrative_area_level_2", "political" ]
            },
            {
               "long_name" : "Kaduna",
               "short_name" : "KD",
               "types" : [ "administrative_area_level_1", "political" ]
            },
            {
               "long_name" : "Nigeria",
               "short_name" : "NG",
               "types" : [ "country", "political" ]
            }
         ],
         "formatted_address" : "Arak, Nigeria",
         "geometry" : {
            "bounds" : {
               "northeast" : {
                  "lat" : 9.3972754,
                  "lng" : 8.508289999999999
               },
               "southwest" : {
                  "lat" : 9.1829401,
                  "lng" : 8.199843599999999
               }
            },
            "location" : {
               "lat" : 9.248216599999999,
               "lng" : 8.3307468
            },
            "location_type" : "APPROXIMATE",
            "viewport" : {
               "northeast" : {
                  "lat" : 9.3972754,
                  "lng" : 8.508289999999999
               },
               "southwest" : {
                  "lat" : 9.1829401,
                  "lng" : 8.199843599999999
               }
            }
         },
         "place_id" : "ChIJRfOF6soxUhARsB9yNN7U6Pk",
         "types" : [ "administrative_area_level_3", "political" ]
      },
      {
         "address_components" : [
            {
               "long_name" : "801130",
               "short_name" : "801130",
               "types" : [ "postal_code" ]
            },
            {
               "long_name" : "Kaduna",
               "short_name" : "KD",
               "types" : [ "administrative_area_level_1", "political" ]
            },
            {
               "long_name" : "Nigeria",
               "short_name" : "NG",
               "types" : [ "country", "political" ]
            }
         ],
         "formatted_address" : "801130, Nigeria",
         "geometry" : {
            "bounds" : {
               "northeast" : {
                  "lat" : 9.397274999999999,
                  "lng" : 8.508289999999999
               },
               "southwest" : {
                  "lat" : 9.180361999999999,
                  "lng" : 8.199843899999999
               }
            },
            "location" : {
               "lat" : 9.248216599999999,
               "lng" : 8.3307468
            },
            "location_type" : "APPROXIMATE",
            "viewport" : {
               "northeast" : {
                  "lat" : 9.397274999999999,
                  "lng" : 8.508289999999999
               },
               "southwest" : {
                  "lat" : 9.180361999999999,
                  "lng" : 8.199843899999999
               }
            }
         },
         "place_id" : "ChIJCeTxH8sxUhARdeCFOKX3LZg",
         "types" : [ "postal_code" ]
      },
      {
         "address_components" : [
            {
               "long_name" : "Jema'a",
               "short_name" : "Jema'a",
               "types" : [ "administrative_area_level_2", "political" ]
            },
            {
               "long_name" : "Kaduna",
               "short_name" : "KD",
               "types" : [ "administrative_area_level_1", "political" ]
            },
            {
               "long_name" : "Nigeria",
               "short_name" : "NG",
               "types" : [ "country", "political" ]
            }
         ],
         "formatted_address" : "Jema'a, Nigeria",
         "geometry" : {
            "bounds" : {
               "northeast" : {
                  "lat" : 9.592304,
                  "lng" : 8.585521699999999
               },
               "southwest" : {
                  "lat" : 9.0494463,
                  "lng" : 7.996593199999999
               }
            },
            "location" : {
               "lat" : 9.360704199999999,
               "lng" : 8.2212979
            },
            "location_type" : "APPROXIMATE",
            "viewport" : {
               "northeast" : {
                  "lat" : 9.592304,
                  "lng" : 8.585521699999999
               },
               "southwest" : {
                  "lat" : 9.0494463,
                  "lng" : 7.996593199999999
               }
            }
         },
         "place_id" : "ChIJMcb3tWY6UhAR8YQ0zyhOz4w",
         "types" : [ "administrative_area_level_2", "political" ]
      },
      {
         "address_components" : [
            {
               "long_name" : "Kaduna",
               "short_name" : "KD",
               "types" : [ "administrative_area_level_1", "political" ]
            },
            {
               "long_name" : "Nigeria",
               "short_name" : "NG",
               "types" : [ "country", "political" ]
            }
         ],
         "formatted_address" : "Kaduna, Nigeria",
         "geometry" : {
            "bounds" : {
               "northeast" : {
                  "lat" : 11.523989,
                  "lng" : 8.818318
               },
               "southwest" : {
                  "lat" : 9.000640899999999,
                  "lng" : 6.092243000000001
               }
            },
            "location" : {
               "lat" : 10.3764006,
               "lng" : 7.7094537
            },
            "location_type" : "APPROXIMATE",
            "viewport" : {
               "northeast" : {
                  "lat" : 11.523989,
                  "lng" : 8.818318
               },
               "southwest" : {
                  "lat" : 9.000640899999999,
                  "lng" : 6.092243000000001
               }
            }
         },
         "place_id" : "ChIJPR3j26pKTRARV8S8klgpnRQ",
         "types" : [ "administrative_area_level_1", "political" ]
      },
      {
         "address_components" : [
            {
               "long_name" : "Nigeria",
               "short_name" : "NG",
               "types" : [ "country", "political" ]
            }
         ],
         "formatted_address" : "Nigeria",
         "geometry" : {
            "bounds" : {
               "northeast" : {
                  "lat" : 13.8856449,
                  "lng" : 14.677982
               },
               "southwest" : {
                  "lat" : 4.1821001,
                  "lng" : 2.676932
               }
            },
            "location" : {
               "lat" : 9.081999,
               "lng" : 8.675276999999999
            },
            "location_type" : "APPROXIMATE",
            "viewport" : {
               "northeast" : {
                  "lat" : 13.8856449,
                  "lng" : 14.677982
               },
               "southwest" : {
                  "lat" : 4.1821001,
                  "lng" : 2.676932
               }
            }
         },
         "place_id" : "ChIJDY2kfa8LThARyAvFaEH-qJk",
         "types" : [ "country", "political" ]
      },
      {
         "address_components" : [
            {
               "long_name" : "9C6P+WX",
               "short_name" : "9C6P+WX",
               "types" : [ "plus_code" ]
            },
            {
               "long_name" : "Ambe",
               "short_name" : "Ambe",
               "types" : [ "locality", "political" ]
            },
            {
               "long_name" : "Jema'a",
               "short_name" : "Jema'a",
               "types" : [ "administrative_area_level_2", "political" ]
            },
            {
               "long_name" : "Kaduna",
               "short_name" : "KD",
               "types" : [ "administrative_area_level_1", "political" ]
            },
            {
               "long_name" : "Nigeria",
               "short_name" : "NG",
               "types" : [ "country", "political" ]
            },
            {
               "long_name" : "801130",
               "short_name" : "801130",
               "types" : [ "postal_code" ]
            }
         ],
         "formatted_address" : "9C6P+WX Ambe, Nigeria",
         "geometry" : {
            "bounds" : {
               "northeast" : {
                  "lat" : 9.362375,
                  "lng" : 8.4375
               },
               "southwest" : {
                  "lat" : 9.36225,
                  "lng" : 8.437374999999999
               }
            },
            "location" : {
               "lat" : 9.3623528,
               "lng" : 8.4375
            },
            "location_type" : "ROOFTOP",
            "viewport" : {
               "northeast" : {
                  "lat" : 9.363661480291501,
                  "lng" : 8.438786480291503
               },
               "southwest" : {
                  "lat" : 9.360963519708497,
                  "lng" : 8.436088519708498
               }
            }
         },
         "place_id" : "GhIJYjpjToa5IkARAAAAAADgIEA",
         "plus_code" : {
            "compound_code" : "9C6P+WX Ambe, Nigeria",
            "global_code" : "6FXC9C6P+WX"
         },
         "types" : [ "plus_code" ]
      }
   ],
   "status" : "OK"
}
