{
   "results" : [
      {
         "address_components" : [
            {
               "long_name" : "36FW+VH",
               "short_name" : "36FW+VH",
               "types" : [ "plus_code" ]
            },
            {
               "long_name" : "Osmaniye Merkez",
               "short_name" : "Osmaniye Merkez",
               "types" : [ "administrative_area_level_2", "political" ]
            },
            {
               "long_name" : "Osmaniye",
               "short_name" : "Osmaniye",
               "types" : [ "administrative_area_level_1", "political" ]
            },
            {
               "long_name" : "Turkey",
               "short_name" : "TR",
               "types" : [ "country", "political" ]
            }
         ],
         "formatted_address" : "36FW+VH Osmaniye Merkez/Osmaniye, Turkey",
         "geometry" : {
            "bounds" : {
               "northeast" : {
                  "lat" : 37.07475,
                  "lng" : 36.2465
               },
               "southwest" : {
                  "lat" : 37.074625,
                  "lng" : 36.246375
               }
            },
            "location" : {
               "lat" : 37.0746875,
               "lng" : 36.2464375
            },
            "location_type" : "ROOFTOP",
            "viewport" : {
               "northeast" : {
                  "lat" : 37.07603648029149,
                  "lng" : 36.2477864802915
               },
               "southwest" : {
                  "lat" : 37.07333851970849,
                  "lng" : 36.2450885197085
               }
            }
         },
         "place_id" : "GhIJwvUoXI-JQkARBoGVQ4sfQkA",
         "plus_code" : {
            "compound_code" : "36FW+VH Osmaniye Merkez/Osmaniye, Turkey",
            "global_code" : "8G9R36FW+VH"
         },
         "types" : [ "plus_code" ]
      }
   ],
   "status" : "OK"
}
