{
   "plus_code" : {
      "compound_code" : "P767+G3 Ajelanwa, Nigeria",
      "global_code" : "6FW6P767+G3"
   },
   "results" : [
      {
         "address_components" : [
            {
               "long_name" : "P767+G3",
               "short_name" : "P767+G3",
               "types" : [ "plus_code" ]
            },
            {
               "long_name" : "Ajelanwa",
               "short_name" : "Ajelanwa",
               "types" : [ "locality", "political" ]
            },
            {
               "long_name" : "Moro",
               "short_name" : "Moro",
               "types" : [ "administrative_area_level_2", "political" ]
            },
            {
               "long_name" : "Kwara",
               "short_name" : "KW",
               "types" : [ "administrative_area_level_1", "political" ]
            },
            {
               "long_name" : "Nigeria",
               "short_name" : "NG",
               "types" : [ "country", "political" ]
            },
            {
               "long_name" : "240106",
               "short_name" : "240106",
               "types" : [ "postal_code" ]
            }
         ],
         "formatted_address" : "P767+G3 Ajelanwa, Nigeria",
         "geometry" : {
            "bounds" : {
               "northeast" : {
                  "lat" : 8.711375,
                  "lng" : 4.26275
               },
               "southwest" : {
                  "lat" : 8.71125,
                  "lng" : 4.262625
               }
            },
            "location" : {
               "lat" : 8.7113589,
               "lng" : 4.2626953
            },
            "location_type" : "ROOFTOP",
            "viewport" : {
               "northeast" : {
                  "lat" : 8.712661480291503,
                  "lng" : 4.264036480291503
               },
               "southwest" : {
                  "lat" : 8.709963519708499,
                  "lng" : 4.261338519708498
               }
            }
         },
         "place_id" : "GhIJ5G_WOzdsIUARa0Ap__8MEUA",
         "plus_code" : {
            "compound_code" : "P767+G3 Ajelanwa, Nigeria",
            "global_code" : "6FW6P767+G3"
         },
         "types" : [ "plus_code" ]
      },
      {
         "address_components" : [
            {
               "long_name" : "Unnamed Road",
               "short_name" : "Unnamed Road",
               "types" : [ "route" ]
            },
            {
               "long_name" : "Moro",
               "short_name" : "Moro",
               "types" : [ "administrative_area_level_2", "political" ]
            },
            {
               "long_name" : "Kwara",
               "short_name" : "KW",
               "types" : [ "administrative_area_level_1", "political" ]
            },
            {
               "long_name" : "Nigeria",
               "short_name" : "NG",
               "types" : [ "country", "political" ]
            }
         ],
         "formatted_address" : "Unnamed Road, Nigeria",
         "geometry" : {
            "bounds" : {
               "northeast" : {
                  "lat" : 8.744943599999999,
                  "lng" : 4.274239500000001
               },
               "southwest" : {
                  "lat" : 8.723130299999999,
                  "lng" : 4.2510653
               }
            },
            "location" : {
               "lat" : 8.730625,
               "lng" : 4.2654219
            },
            "location_type" : "GEOMETRIC_CENTER",
            "viewport" : {
               "northeast" : {
                  "lat" : 8.744943599999999,
                  "lng" : 4.274239500000001
               },
               "southwest" : {
                  "lat" : 8.723130299999999,
                  "lng" : 4.2510653
               }
            }
         },
         "place_id" : "ChIJ6fJSPiXyNhARRghovg4muEg",
         "types" : [ "route" ]
      },
      {
         "address_components" : [
            {
               "long_name" : "Megida",
               "short_name" : "Megida",
               "types" : [ "administrative_area_level_3", "political" ]
            },
            {
               "long_name" : "Moro",
               "short_name" : "Moro",
               "types" : [ "administrative_area_level_2", "political" ]
            },
            {
               "long_name" : "Kwara",
               "short_name" : "KW",
               "types" : [ "administrative_area_level_1", "political" ]
            },
            {
               "long_name" : "Nigeria",
               "short_name" : "NG",
               "types" : [ "country", "political" ]
            }
         ],
         "formatted_address" : "Megida, Nigeria",
         "geometry" : {
            "bounds" : {
               "northeast" : {
                  "lat" : 8.9355355,
                  "lng" : 4.3606201
               },
               "southwest" : {
                  "lat" : 8.6965015,
                  "lng" : 4.1826273
               }
            },
            "location" : {
               "lat" : 8.7681094,
               "lng" : 4.2743628
            },
            "location_type" : "APPROXIMATE",
            "viewport" : {
               "northeast" : {
                  "lat" : 8.9355355,
                  "lng" : 4.3606201
               },
               "southwest" : {
                  "lat" : 8.6965015,
                  "lng" : 4.1826273
               }
            }
         },
         "place_id" : "ChIJK7lZtCuNNhARGHzagWRJcqI",
         "types" : [ "administrative_area_level_3", "political" ]
      },
      {
         "address_components" : [
            {
               "long_name" : "240106",
               "short_name" : "240106",
               "types" : [ "postal_code" ]
            },
            {
               "long_name" : "Kwara",
               "short_name" : "KW",
               "types" : [ "administrative_area_level_1", "political" ]
            },
            {
               "long_name" : "Nigeria",
               "short_name" : "NG",
               "types" : [ "country", "political" ]
            }
         ],
         "formatted_address" : "240106, Nigeria",
         "geometry" : {
            "bounds" : {
               "northeast" : {
                  "lat" : 8.816330899999999,
                  "lng" : 4.483718000000001
               },
               "southwest" : {
                  "lat" : 8.507194,
                  "lng" : 4.190364
               }
            },
            "location" : {
               "lat" : 8.591545,
               "lng" : 4.356513
            },
            "location_type" : "APPROXIMATE",
            "viewport" : {
               "northeast" : {
                  "lat" : 8.816330899999999,
                  "lng" : 4.483718000000001
               },
               "southwest" : {
                  "lat" : 8.507194,
                  "lng" : 4.190364
               }
            }
         },
         "place_id" : "ChIJ3ZY86xX3NhARjIZ7Swsz5Vg",
         "types" : [ "postal_code" ]
      },
      {
         "address_components" : [
            {
               "long_name" : "Moro",
               "short_name" : "Moro",
               "types" : [ "administrative_area_level_2", "political" ]
            },
            {
               "long_name" : "Kwara",
               "short_name" : "KW",
               "types" : [ "administrative_area_level_1", "political" ]
            },
            {
               "long_name" : "Nigeria",
               "short_name" : "NG",
               "types" : [ "country", "political" ]
            }
         ],
         "formatted_address" : "Moro, Nigeria",
         "geometry" : {
            "bounds" : {
               "northeast" : {
                  "lat" : 9.157888200000002,
                  "lng" : 4.8995554
               },
               "southwest" : {
                  "lat" : 8.553744099999999,
                  "lng" : 4.1895826
               }
            },
            "location" : {
               "lat" : 8.895691599999999,
               "lng" : 4.645035
            },
            "location_type" : "APPROXIMATE",
            "viewport" : {
               "northeast" : {
                  "lat" : 9.157888200000002,
                  "lng" : 4.8995554
               },
               "southwest" : {
                  "lat" : 8.553744099999999,
                  "lng" : 4.1895826
               }
            }
         },
         "place_id" : "ChIJReCrVTRmNhAR9q2aOk50E64",
         "types" : [ "administrative_area_level_2", "political" ]
      },
      {
         "address_components" : [
            {
               "long_name" : "Kwara",
               "short_name" : "KW",
               "types" : [ "administrative_area_level_1", "political" ]
            },
            {
               "long_name" : "Nigeria",
               "short_name" : "NG",
               "types" : [ "country", "political" ]
            }
         ],
         "formatted_address" : "Kwara, Nigeria",
         "geometry" : {
            "bounds" : {
               "northeast" : {
                  "lat" : 10.156666,
                  "lng" : 6.208536100000001
               },
               "southwest" : {
                  "lat" : 8.007673,
                  "lng" : 2.729579
               }
            },
            "location" : {
               "lat" : 8.9668961,
               "lng" : 4.3874051
            },
            "location_type" : "APPROXIMATE",
            "viewport" : {
               "northeast" : {
                  "lat" : 10.156666,
                  "lng" : 6.208536100000001
               },
               "southwest" : {
                  "lat" : 8.007673,
                  "lng" : 2.729579
               }
            }
         },
         "place_id" : "ChIJMbt8W4-lSRARz52F4APcaJw",
         "types" : [ "administrative_area_level_1", "political" ]
      },
      {
         "address_components" : [
            {
               "long_name" : "Nigeria",
               "short_name" : "NG",
               "types" : [ "country", "political" ]
            }
         ],
         "formatted_address" : "Nigeria",
         "geometry" : {
            "bounds" : {
               "northeast" : {
                  "lat" : 13.8856449,
                  "lng" : 14.677982
               },
               "southwest" : {
                  "lat" : 4.1821001,
                  "lng" : 2.676932
               }
            },
            "location" : {
               "lat" : 9.081999,
               "lng" : 8.675276999999999
            },
            "location_type" : "APPROXIMATE",
            "viewport" : {
               "northeast" : {
                  "lat" : 13.8856449,
                  "lng" : 14.677982
               },
               "southwest" : {
                  "lat" : 4.1821001,
                  "lng" : 2.676932
               }
            }
         },
         "place_id" : "ChIJDY2kfa8LThARyAvFaEH-qJk",
         "types" : [ "country", "political" ]
      }
   ],
   "status" : "OK"
}
