{
   "plus_code" : {
      "compound_code" : "22WG+W5 Al Fifi, Sudan",
      "global_code" : "7G2722WG+W5"
   },
   "results" : [
      {
         "address_components" : [
            {
               "long_name" : "Raga",
               "short_name" : "Raga",
               "types" : [ "administrative_area_level_2", "political" ]
            },
            {
               "long_name" : "Western Bahr el Ghazal",
               "short_name" : "Western Bahr el Ghazal",
               "types" : [ "administrative_area_level_1", "political" ]
            },
            {
               "long_name" : "South Sudan",
               "short_name" : "SS",
               "types" : [ "country", "political" ]
            }
         ],
         "formatted_address" : "Raga, South Sudan",
         "geometry" : {
            "bounds" : {
               "northeast" : {
                  "lat" : 10.435819,
                  "lng" : 26.8072413
               },
               "southwest" : {
                  "lat" : 6.995948400000001,
                  "lng" : 24.154129
               }
            },
            "location" : {
               "lat" : 8.6452399,
               "lng" : 25.2837585
            },
            "location_type" : "APPROXIMATE",
            "viewport" : {
               "northeast" : {
                  "lat" : 10.435819,
                  "lng" : 26.8072413
               },
               "southwest" : {
                  "lat" : 6.995948400000001,
                  "lng" : 24.154129
               }
            }
         },
         "place_id" : "ChIJZRQUwAOaKBcRGtvWPzel5bo",
         "types" : [ "administrative_area_level_2", "political" ]
      },
      {
         "address_components" : [
            {
               "long_name" : "Janub Darfur",
               "short_name" : "Janub Darfur",
               "types" : [ "administrative_area_level_1", "political" ]
            },
            {
               "long_name" : "Sudan",
               "short_name" : "SD",
               "types" : [ "country", "political" ]
            }
         ],
         "formatted_address" : "Janub Darfur, Sudan",
         "geometry" : {
            "bounds" : {
               "northeast" : {
                  "lat" : 13.133373,
                  "lng" : 27.9055547
               },
               "southwest" : {
                  "lat" : 9.488954,
                  "lng" : 23.0464332
               }
            },
            "location" : {
               "lat" : 11.6488639,
               "lng" : 24.9042208
            },
            "location_type" : "APPROXIMATE",
            "viewport" : {
               "northeast" : {
                  "lat" : 13.133373,
                  "lng" : 27.9055547
               },
               "southwest" : {
                  "lat" : 9.488954,
                  "lng" : 23.0464332
               }
            }
         },
         "place_id" : "ChIJZ_f9fgaz0BYRyovVN9H4TUw",
         "types" : [ "administrative_area_level_1", "political" ]
      },
      {
         "address_components" : [
            {
               "long_name" : "Sudan",
               "short_name" : "SD",
               "types" : [ "country", "political" ]
            }
         ],
         "formatted_address" : "Sudan",
         "geometry" : {
            "bounds" : {
               "northeast" : {
                  "lat" : 22.224918,
                  "lng" : 38.69379989999999
               },
               "southwest" : {
                  "lat" : 9.3472209,
                  "lng" : 21.8146345
               }
            },
            "location" : {
               "lat" : 12.862807,
               "lng" : 30.217636
            },
            "location_type" : "APPROXIMATE",
            "viewport" : {
               "northeast" : {
                  "lat" : 22.224918,
                  "lng" : 38.69379989999999
               },
               "southwest" : {
                  "lat" : 9.3472209,
                  "lng" : 21.8146345
               }
            }
         },
         "place_id" : "ChIJlbFyEMQc2RURNythKkZwv9I",
         "types" : [ "country", "political" ]
      },
      {
         "address_components" : [
            {
               "long_name" : "22WG+W5",
               "short_name" : "22WG+W5",
               "types" : [ "plus_code" ]
            },
            {
               "long_name" : "Al Fifi",
               "short_name" : "Al Fifi",
               "types" : [ "locality", "political" ]
            },
            {
               "long_name" : "Janub Darfur",
               "short_name" : "Janub Darfur",
               "types" : [ "administrative_area_level_1", "political" ]
            },
            {
               "long_name" : "Sudan",
               "short_name" : "SD",
               "types" : [ "country", "political" ]
            }
         ],
         "formatted_address" : "22WG+W5 Al Fifi, Sudan",
         "geometry" : {
            "bounds" : {
               "northeast" : {
                  "lat" : 10.047375,
                  "lng" : 25.0255
               },
               "southwest" : {
                  "lat" : 10.04725,
                  "lng" : 25.025375
               }
            },
            "location" : {
               "lat" : 10.0472895,
               "lng" : 25.0254822
            },
            "location_type" : "ROOFTOP",
            "viewport" : {
               "northeast" : {
                  "lat" : 10.0486614802915,
                  "lng" : 25.0267864802915
               },
               "southwest" : {
                  "lat" : 10.0459635197085,
                  "lng" : 25.0240885197085
               }
            }
         },
         "place_id" : "GhIJbeNPVDYYJEARUKFfAIYGOUA",
         "plus_code" : {
            "compound_code" : "22WG+W5 Al Fifi, Sudan",
            "global_code" : "7G2722WG+W5"
         },
         "types" : [ "plus_code" ]
      }
   ],
   "status" : "OK"
}
