{
   "plus_code" : {
      "compound_code" : "7M2G+4R Mysuru, Karnataka, India",
      "global_code" : "7J4R7M2G+4R"
   },
   "results" : [
      {
         "address_components" : [
            {
               "long_name" : "7M2G+4R",
               "short_name" : "7M2G+4R",
               "types" : [ "plus_code" ]
            },
            {
               "long_name" : "Mysuru",
               "short_name" : "Mysuru",
               "types" : [ "locality", "political" ]
            },
            {
               "long_name" : "Mysuru",
               "short_name" : "Mysuru",
               "types" : [ "administrative_area_level_2", "political" ]
            },
            {
               "long_name" : "Karnataka",
               "short_name" : "KA",
               "types" : [ "administrative_area_level_1", "political" ]
            },
            {
               "long_name" : "India",
               "short_name" : "IN",
               "types" : [ "country", "political" ]
            }
         ],
         "formatted_address" : "7M2G+4R Mysuru, Karnataka, India",
         "geometry" : {
            "bounds" : {
               "northeast" : {
                  "lat" : 12.250375,
                  "lng" : 76.67712499999999
               },
               "southwest" : {
                  "lat" : 12.25025,
                  "lng" : 76.67699999999999
               }
            },
            "location" : {
               "lat" : 12.2502695,
               "lng" : 76.67701719999999
            },
            "location_type" : "ROOFTOP",
            "viewport" : {
               "northeast" : {
                  "lat" : 12.2516614802915,
                  "lng" : 76.6784114802915
               },
               "southwest" : {
                  "lat" : 12.2489635197085,
                  "lng" : 76.67571351970848
               }
            }
         },
         "place_id" : "GhIJX1_rUiOAKEARFjXzP1QrU0A",
         "plus_code" : {
            "compound_code" : "7M2G+4R Mysuru, Karnataka, India",
            "global_code" : "7J4R7M2G+4R"
         },
         "types" : [ "plus_code" ]
      },
      {
         "address_components" : [
            {
               "long_name" : "Mysore - Hadinaru Road",
               "short_name" : "Mysore - Hadinaru Rd",
               "types" : [ "route" ]
            },
            {
               "long_name" : "Mysuru",
               "short_name" : "Mysuru",
               "types" : [ "locality", "political" ]
            },
            {
               "long_name" : "Mysuru",
               "short_name" : "Mysuru",
               "types" : [ "administrative_area_level_2", "political" ]
            },
            {
               "long_name" : "Karnataka",
               "short_name" : "KA",
               "types" : [ "administrative_area_level_1", "political" ]
            },
            {
               "long_name" : "India",
               "short_name" : "IN",
               "types" : [ "country", "political" ]
            },
            {
               "long_name" : "571311",
               "short_name" : "571311",
               "types" : [ "postal_code" ]
            }
         ],
         "formatted_address" : "Mysore - Hadinaru Rd, Mysuru, Karnataka 571311, India",
         "geometry" : {
            "bounds" : {
               "northeast" : {
                  "lat" : 12.252779,
                  "lng" : 76.67886249999999
               },
               "southwest" : {
                  "lat" : 12.2506723,
                  "lng" : 76.6768124
               }
            },
            "location" : {
               "lat" : 12.2517528,
               "lng" : 76.67785719999999
            },
            "location_type" : "GEOMETRIC_CENTER",
            "viewport" : {
               "northeast" : {
                  "lat" : 12.2530746302915,
                  "lng" : 76.67918643029151
               },
               "southwest" : {
                  "lat" : 12.2503766697085,
                  "lng" : 76.6764884697085
               }
            }
         },
         "place_id" : "ChIJg_Kl6ahvrzsRcvt0w_9syfo",
         "types" : [ "route" ]
      },
      {
         "address_components" : [
            {
               "long_name" : "571311",
               "short_name" : "571311",
               "types" : [ "postal_code" ]
            },
            {
               "long_name" : "Mysuru",
               "short_name" : "Mysuru",
               "types" : [ "administrative_area_level_2", "political" ]
            },
            {
               "long_name" : "Karnataka",
               "short_name" : "KA",
               "types" : [ "administrative_area_level_1", "political" ]
            },
            {
               "long_name" : "India",
               "short_name" : "IN",
               "types" : [ "country", "political" ]
            }
         ],
         "formatted_address" : "Karnataka 571311, India",
         "geometry" : {
            "bounds" : {
               "northeast" : {
                  "lat" : 12.2667018,
                  "lng" : 76.7668992
               },
               "southwest" : {
                  "lat" : 12.1505011,
                  "lng" : 76.59990069999999
               }
            },
            "location" : {
               "lat" : 12.2150895,
               "lng" : 76.6990172
            },
            "location_type" : "APPROXIMATE",
            "viewport" : {
               "northeast" : {
                  "lat" : 12.2667018,
                  "lng" : 76.7668992
               },
               "southwest" : {
                  "lat" : 12.1505011,
                  "lng" : 76.59990069999999
               }
            }
         },
         "place_id" : "ChIJp4MX3ytvrzsR89S7aqNM-fY",
         "types" : [ "postal_code" ]
      },
      {
         "address_components" : [
            {
               "long_name" : "Mysuru",
               "short_name" : "Mysuru",
               "types" : [ "administrative_area_level_2", "political" ]
            },
            {
               "long_name" : "Karnataka",
               "short_name" : "KA",
               "types" : [ "administrative_area_level_1", "political" ]
            },
            {
               "long_name" : "India",
               "short_name" : "IN",
               "types" : [ "country", "political" ]
            }
         ],
         "formatted_address" : "Mysuru, Karnataka, India",
         "geometry" : {
            "bounds" : {
               "northeast" : {
                  "lat" : 12.6549399,
                  "lng" : 77.1343799
               },
               "southwest" : {
                  "lat" : 11.73662,
                  "lng" : 75.90937009999999
               }
            },
            "location" : {
               "lat" : 12.1873152,
               "lng" : 76.36372849999999
            },
            "location_type" : "APPROXIMATE",
            "viewport" : {
               "northeast" : {
                  "lat" : 12.6549399,
                  "lng" : 77.1343799
               },
               "southwest" : {
                  "lat" : 11.73662,
                  "lng" : 75.90937009999999
               }
            }
         },
         "place_id" : "ChIJ5XOPmBBwrzsRCe4TG2b7kns",
         "types" : [ "administrative_area_level_2", "political" ]
      },
      {
         "address_components" : [
            {
               "long_name" : "Karnataka",
               "short_name" : "KA",
               "types" : [ "administrative_area_level_1", "political" ]
            },
            {
               "long_name" : "India",
               "short_name" : "IN",
               "types" : [ "country", "political" ]
            }
         ],
         "formatted_address" : "Karnataka, India",
         "geometry" : {
            "bounds" : {
               "northeast" : {
                  "lat" : 18.4411689,
                  "lng" : 78.5860101
               },
               "southwest" : {
                  "lat" : 11.593352,
                  "lng" : 74.04960609999999
               }
            },
            "location" : {
               "lat" : 15.3172775,
               "lng" : 75.7138884
            },
            "location_type" : "APPROXIMATE",
            "viewport" : {
               "northeast" : {
                  "lat" : 18.4411689,
                  "lng" : 78.5860101
               },
               "southwest" : {
                  "lat" : 11.593352,
                  "lng" : 74.04960609999999
               }
            }
         },
         "place_id" : "ChIJj0i_N0xaozsR1Xx10YzS8UE",
         "types" : [ "administrative_area_level_1", "political" ]
      },
      {
         "address_components" : [
            {
               "long_name" : "India",
               "short_name" : "IN",
               "types" : [ "country", "political" ]
            }
         ],
         "formatted_address" : "India",
         "geometry" : {
            "bounds" : {
               "northeast" : {
                  "lat" : 35.513327,
                  "lng" : 97.39535869999999
               },
               "southwest" : {
                  "lat" : 6.4626999,
                  "lng" : 68.1097
               }
            },
            "location" : {
               "lat" : 20.593684,
               "lng" : 78.96288
            },
            "location_type" : "APPROXIMATE",
            "viewport" : {
               "northeast" : {
                  "lat" : 35.513327,
                  "lng" : 97.39535869999999
               },
               "southwest" : {
                  "lat" : 6.4626999,
                  "lng" : 68.1097
               }
            }
         },
         "place_id" : "ChIJkbeSa_BfYzARphNChaFPjNc",
         "types" : [ "country", "political" ]
      }
   ],
   "status" : "OK"
}
