{
   "plus_code" : {
      "compound_code" : "9W6R+2C Boston, MA, USA",
      "global_code" : "87JC9W6R+2C"
   },
   "results" : [
      {
         "address_components" : [
            {
               "long_name" : "Government Center",
               "short_name" : "Government Center",
               "types" : [
                  "establishment",
                  "point_of_interest",
                  "subway_station",
                  "transit_station"
               ]
            },
            {
               "long_name" : "1",
               "short_name" : "1",
               "types" : [ "street_number" ]
            },
            {
               "long_name" : "Cambridge Street",
               "short_name" : "Cambridge St",
               "types" : [ "route" ]
            },
            {
               "long_name" : "Downtown",
               "short_name" : "Downtown",
               "types" : [ "neighborhood", "political" ]
            },
            {
               "long_name" : "Boston",
               "short_name" : "Boston",
               "types" : [ "locality", "political" ]
            },
            {
               "long_name" : "Suffolk County",
               "short_name" : "Suffolk County",
               "types" : [ "administrative_area_level_2", "political" ]
            },
            {
               "long_name" : "Massachusetts",
               "short_name" : "MA",
               "types" : [ "administrative_area_level_1", "political" ]
            },
            {
               "long_name" : "United States",
               "short_name" : "US",
               "types" : [ "country", "political" ]
            },
            {
               "long_name" : "02114",
               "short_name" : "02114",
               "types" : [ "postal_code" ]
            }
         ],
         "formatted_address" : "Government Center, 1 Cambridge St, Boston, MA 02114, USA",
         "geometry" : {
            "location" : {
               "lat" : 42.3597232,
               "lng" : -71.0594023
            },
            "location_type" : "ROOFTOP",
            "viewport" : {
               "northeast" : {
                  "lat" : 42.3610721802915,
                  "lng" : -71.05805331970849
               },
               "southwest" : {
                  "lat" : 42.3583742197085,
                  "lng" : -71.06075128029151
               }
            }
         },
         "place_id" : "ChIJE2RcAoVw44kRVahXVz4Ux30",
         "plus_code" : {
            "compound_code" : "9W5R+V6 Boston, MA, USA",
            "global_code" : "87JC9W5R+V6"
         },
         "types" : [
            "establishment",
            "point_of_interest",
            "subway_station",
            "transit_station"
         ]
      },
      {
         "address_components" : [
            {
               "long_name" : "1",
               "short_name" : "1",
               "types" : [ "street_number" ]
            },
            {
               "long_name" : "Cambridge Street",
               "short_name" : "Cambridge St",
               "types" : [ "route" ]
            },
            {
               "long_name" : "Downtown",
               "short_name" : "Downtown",
               "types" : [ "neighborhood", "political" ]
            },
            {
               "long_name" : "Boston",
               "short_name" : "Boston",
               "types" : [ "locality", "political" ]
            },
            {
               "long_name" : "Suffolk County",
               "short_name" : "Suffolk County",
               "types" : [ "administrative_area_level_2", "political" ]
            },
            {
               "long_name" : "Massachusetts",
               "short_name" : "MA",
               "types" : [ "administrative_area_level_1", "political" ]
            },
            {
               "long_name" : "United States",
               "short_name" : "US",
               "types" : [ "country", "political" ]
            },
            {
               "long_name" : "02114",
               "short_name" : "02114",
               "types" : [ "postal_code" ]
            }
         ],
         "formatted_address" : "1 Cambridge St, Boston, MA 02114, USA",
         "geometry" : {
            "bounds" : {
               "northeast" : {
                  "lat" : 42.3598883,
                  "lng" : -71.0592473
               },
               "southwest" : {
                  "lat" : 42.3595853,
                  "lng" : -71.0595752
               }
            },
            "location" : {
               "lat" : 42.3597417,
               "lng" : -71.05941059999999
            },
            "location_type" : "ROOFTOP",
            "viewport" : {
               "northeast" : {
                  "lat" : 42.3610857802915,
                  "lng" : -71.0580622697085
               },
               "southwest" : {
                  "lat" : 42.3583878197085,
                  "lng" : -71.06076023029151
               }
            }
         },
         "place_id" : "ChIJ4cLJAoVw44kRR9lY1Vq2j-o",
         "types" : [ "premise" ]
      },
      {
         "address_components" : [
            {
               "long_name" : "100",
               "short_name" : "100",
               "types" : [ "street_number" ]
            },
            {
               "long_name" : "City Hall Square",
               "short_name" : "City Hall Square",
               "types" : [ "route" ]
            },
            {
               "long_name" : "Downtown",
               "short_name" : "Downtown",
               "types" : [ "neighborhood", "political" ]
            },
            {
               "long_name" : "Boston",
               "short_name" : "Boston",
               "types" : [ "locality", "political" ]
            },
            {
               "long_name" : "Suffolk County",
               "short_name" : "Suffolk County",
               "types" : [ "administrative_area_level_2", "political" ]
            },
            {
               "long_name" : "Massachusetts",
               "short_name" : "MA",
               "types" : [ "administrative_area_level_1", "political" ]
            },
            {
               "long_name" : "United States",
               "short_name" : "US",
               "types" : [ "country", "political" ]
            },
            {
               "long_name" : "02108",
               "short_name" : "02108",
               "types" : [ "postal_code" ]
            }
         ],
         "formatted_address" : "100 City Hall Square, Boston, MA 02108, USA",
         "geometry" : {
            "location" : {
               "lat" : 42.3595784,
               "lng" : -71.05870209999999
            },
            "location_type" : "ROOFTOP",
            "viewport" : {
               "northeast" : {
                  "lat" : 42.36092738029149,
                  "lng" : -71.05735311970848
               },
               "southwest" : {
                  "lat" : 42.35822941970849,
                  "lng" : -71.06005108029149
               }
            }
         },
         "place_id" : "ChIJQ4Cci4Rw44kRYJw5VVjgcis",
         "plus_code" : {
            "compound_code" : "9W5R+RG Boston, MA, USA",
            "global_code" : "87JC9W5R+RG"
         },
         "types" : [ "street_address" ]
      },
      {
         "address_components" : [
            {
               "long_name" : "9W6R+2C",
               "short_name" : "9W6R+2C",
               "types" : [ "plus_code" ]
            },
            {
               "long_name" : "Boston",
               "short_name" : "Boston",
               "types" : [ "locality", "political" ]
            },
            {
               "long_name" : "Suffolk County",
               "short_name" : "Suffolk County",
               "types" : [ "administrative_area_level_2", "political" ]
            },
            {
               "long_name" : "Massachusetts",
               "short_name" : "MA",
               "types" : [ "administrative_area_level_1", "political" ]
            },
            {
               "long_name" : "United States",
               "short_name" : "US",
               "types" : [ "country", "political" ]
            }
         ],
         "formatted_address" : "9W6R+2C Boston, MA, USA",
         "geometry" : {
            "bounds" : {
               "northeast" : {
                  "lat" : 42.360125,
                  "lng" : -71.058875
               },
               "southwest" : {
                  "lat" : 42.36,
                  "lng" : -71.059
               }
            },
            "location" : {
               "lat" : 42.3600825,
               "lng" : -71.0588801
            },
            "location_type" : "ROOFTOP",
            "viewport" : {
               "northeast" : {
                  "lat" : 42.36141148029149,
                  "lng" : -71.05758851970849
               },
               "southwest" : {
                  "lat" : 42.3587135197085,
                  "lng" : -71.0602864802915
               }
            }
         },
         "place_id" : "GhIJU67wLhcuRUARp_gJscTDUcA",
         "plus_code" : {
            "compound_code" : "9W6R+2C Boston, MA, USA",
            "global_code" : "87JC9W6R+2C"
         },
         "types" : [ "plus_code" ]
      },
      {
         "address_components" : [
            {
               "long_name" : "99",
               "short_name" : "99",
               "types" : [ "street_number" ]
            },
            {
               "long_name" : "Cornhill",
               "short_name" : "Cornhill",
               "types" : [ "route" ]
            },
            {
               "long_name" : "Downtown",
               "short_name" : "Downtown",
               "types" : [ "neighborhood", "political" ]
            },
            {
               "long_name" : "Boston",
               "short_name" : "Boston",
               "types" : [ "locality", "political" ]
            },
            {
               "long_name" : "Suffolk County",
               "short_name" : "Suffolk County",
               "types" : [ "administrative_area_level_2", "political" ]
            },
            {
               "long_name" : "Massachusetts",
               "short_name" : "MA",
               "types" : [ "administrative_area_level_1", "political" ]
            },
            {
               "long_name" : "United States",
               "short_name" : "US",
               "types" : [ "country", "political" ]
            },
            {
               "long_name" : "02203",
               "short_name" : "02203",
               "types" : [ "postal_code" ]
            }
         ],
         "formatted_address" : "99 Cornhill, Boston, MA 02203, USA",
         "geometry" : {
            "location" : {
               "lat" : 42.3596408,
               "lng" : -71.0584594
            },
            "location_type" : "RANGE_INTERPOLATED",
            "viewport" : {
               "northeast" : {
                  "lat" : 42.3609897802915,
                  "lng" : -71.05711041970849
               },
               "southwest" : {
                  "lat" : 42.3582918197085,
                  "lng" : -71.0598083802915
               }
            }
         },
         "place_id" : "EiI5OSBDb3JuaGlsbCwgQm9zdG9uLCBNQSAwMjIwMywgVVNBIhoSGAoUChIJx5J7rIVw44kR-Ff0LcKRkPAQYw",
         "types" : [ "street_address" ]
      },
      {
         "address_components" : [
            {
               "long_name" : "12-2",
               "short_name" : "12-2",
               "types" : [ "street_number" ]
            },
            {
               "long_name" : "Franklin Avenue",
               "short_name" : "Franklin Ave",
               "types" : [ "route" ]
            },
            {
               "long_name" : "Downtown",
               "short_name" : "Downtown",
               "types" : [ "neighborhood", "political" ]
            },
            {
               "long_name" : "Boston",
               "short_name" : "Boston",
               "types" : [ "locality", "political" ]
            },
            {
               "long_name" : "Suffolk County",
               "short_name" : "Suffolk County",
               "types" : [ "administrative_area_level_2", "political" ]
            },
            {
               "long_name" : "Massachusetts",
               "short_name" : "MA",
               "types" : [ "administrative_area_level_1", "political" ]
            },
            {
               "long_name" : "United States",
               "short_name" : "US",
               "types" : [ "country", "political" ]
            },
            {
               "long_name" : "02203",
               "short_name" : "02203",
               "types" : [ "postal_code" ]
            }
         ],
         "formatted_address" : "12-2 Franklin Ave, Boston, MA 02203, USA",
         "geometry" : {
            "bounds" : {
               "northeast" : {
                  "lat" : 42.3596408,
                  "lng" : -71.0584594
               },
               "southwest" : {
                  "lat" : 42.3591923,
                  "lng" : -71.05856899999999
               }
            },
            "location" : {
               "lat" : 42.3594166,
               "lng" : -71.05851419999999
            },
            "location_type" : "GEOMETRIC_CENTER",
            "viewport" : {
               "northeast" : {
                  "lat" : 42.3607655302915,
                  "lng" : -71.05716521970849
               },
               "southwest" : {
                  "lat" : 42.3580675697085,
                  "lng" : -71.05986318029152
               }
            }
         },
         "place_id" : "ChIJL0ayVYRw44kRBtATOHCbXAc",
         "types" : [ "route" ]
      },
      {
         "address_components" : [
            {
               "long_name" : "02203",
               "short_name" : "02203",
               "types" : [ "postal_code" ]
            },
            {
               "long_name" : "Downtown",
               "short_name" : "Downtown",
               "types" : [ "neighborhood", "political" ]
            },
            {
               "long_name" : "Boston",
               "short_name" : "Boston",
               "types" : [ "locality", "political" ]
            },
            {
               "long_name" : "Suffolk County",
               "short_name" : "Suffolk County",
               "types" : [ "administrative_area_level_2", "political" ]
            },
            {
               "long_name" : "Massachusetts",
               "short_name" : "MA",
               "types" : [ "administrative_area_level_1", "political" ]
            },
            {
               "long_name" : "United States",
               "short_name" : "US",
               "types" : [ "country", "political" ]
            }
         ],
         "formatted_address" : "Boston, MA 02203, USA",
         "geometry" : {
            "bounds" : {
               "northeast" : {
                  "lat" : 42.3625111,
                  "lng" : -71.0568251
               },
               "southwest" : {
                  "lat" : 42.358875,
                  "lng" : -71.06110009999999
               }
            },
            "location" : {
               "lat" : 42.3604802,
               "lng" : -71.0590624
            },
            "location_type" : "APPROXIMATE",
            "viewport" : {
               "northeast" : {
                  "lat" : 42.3625111,
                  "lng" : -71.0568251
               },
               "southwest" : {
                  "lat" : 42.358875,
                  "lng" : -71.06110009999999
               }
            }
         },
         "place_id" : "ChIJVy-GC4Vw44kRHPUrr32JP8M",
         "types" : [ "postal_code" ]
      },
      {
         "address_components" : [
            {
               "long_name" : "Government Center",
               "short_name" : "Government Center",
               "types" : [ "neighborhood", "political" ]
            },
            {
               "long_name" : "Boston",
               "short_name" : "Boston",
               "types" : [ "locality", "political" ]
            },
            {
               "long_name" : "Suffolk County",
               "short_name" : "Suffolk County",
               "types" : [ "administrative_area_level_2", "political" ]
            },
            {
               "long_name" : "Massachusetts",
               "short_name" : "MA",
               "types" : [ "administrative_area_level_1", "political" ]
            },
            {
               "long_name" : "United States",
               "short_name" : "US",
               "types" : [ "country", "political" ]
            }
         ],
         "formatted_address" : "Government Center, Boston, MA, USA",
         "geometry" : {
            "bounds" : {
               "northeast" : {
                  "lat" : 42.3627586,
                  "lng" : -71.0524338
               },
               "southwest" : {
                  "lat" : 42.3588324,
                  "lng" : -71.06123719999999
               }
            },
            "location" : {
               "lat" : 42.3604802,
               "lng" : -71.0590624
            },
            "location_type" : "APPROXIMATE",
            "viewport" : {
               "northeast" : {
                  "lat" : 42.3627586,
                  "lng" : -71.0524338
               },
               "southwest" : {
                  "lat" : 42.3588324,
                  "lng" : -71.06123719999999
               }
            }
         },
         "place_id" : "ChIJU2IeEIVw44kRH9C7b6NI2o4",
         "types" : [ "neighborhood", "political" ]
      },
      {
         "address_components" : [
            {
               "long_name" : "Downtown",
               "short_name" : "Downtown",
               "types" : [ "neighborhood", "political" ]
            },
            {
               "long_name" : "Boston",
               "short_name" : "Boston",
               "types" : [ "locality", "political" ]
            },
            {
               "long_name" : "Suffolk County",
               "short_name" : "Suffolk County",
               "types" : [ "administrative_area_level_2", "political" ]
            },
            {
               "long_name" : "Massachusetts",
               "short_name" : "MA",
               "types" : [ "administrative_area_level_1", "political" ]
            },
            {
               "long_name" : "United States",
               "short_name" : "US",
               "types" : [ "country", "political" ]
            }
         ],
         "formatted_address" : "Downtown, Boston, MA, USA",
         "geometry" : {
            "bounds" : {
               "northeast" : {
                  "lat" : 42.36839699999999,
                  "lng" : -71.04779599999999
               },
               "southwest" : {
                  "lat" : 42.342797,
                  "lng" : -71.072996
               }
            },
            "location" : {
               "lat" : 42.3557089,
               "lng" : -71.05720529999999
            },
            "location_type" : "APPROXIMATE",
            "viewport" : {
               "northeast" : {
                  "lat" : 42.36839699999999,
                  "lng" : -71.04779599999999
               },
               "southwest" : {
                  "lat" : 42.342797,
                  "lng" : -71.072996
               }
            }
         },
         "place_id" : "ChIJW60DJYNw44kRmL2Ehm4t0Bg",
         "types" : [ "neighborhood", "political" ]
      },
      {
         "address_components" : [
            {
               "long_name" : "Boston",
               "short_name" : "Boston",
               "types" : [ "locality", "political" ]
            },
            {
               "long_name" : "Suffolk County",
               "short_name" : "Suffolk County",
               "types" : [ "administrative_area_level_2", "political" ]
            },
            {
               "long_name" : "Massachusetts",
               "short_name" : "MA",
               "types" : [ "administrative_area_level_1", "political" ]
            },
            {
               "long_name" : "United States",
               "short_name" : "US",
               "types" : [ "country", "political" ]
            }
         ],
         "formatted_address" : "Boston, MA, USA",
         "geometry" : {
            "bounds" : {
               "northeast" : {
                  "lat" : 42.40081989999999,
                  "lng" : -70.749455
               },
               "southwest" : {
                  "lat" : 42.22788,
                  "lng" : -71.191113
               }
            },
            "location" : {
               "lat" : 42.3600825,
               "lng" : -71.0588801
            },
            "location_type" : "APPROXIMATE",
            "viewport" : {
               "northeast" : {
                  "lat" : 42.40081989999999,
                  "lng" : -70.749455
               },
               "southwest" : {
                  "lat" : 42.22788,
                  "lng" : -71.191113
               }
            }
         },
         "place_id" : "ChIJGzE9DS1l44kRoOhiASS_fHg",
         "types" : [ "locality", "political" ]
      },
      {
         "address_components" : [
            {
               "long_name" : "Suffolk County",
               "short_name" : "Suffolk County",
               "types" : [ "administrative_area_level_2", "political" ]
            },
            {
               "long_name" : "Massachusetts",
               "short_name" : "MA",
               "types" : [ "administrative_area_level_1", "political" ]
            },
            {
               "long_name" : "United States",
               "short_name" : "US",
               "types" : [ "country", "political" ]
            }
         ],
         "formatted_address" : "Suffolk County, MA, USA",
         "geometry" : {
            "bounds" : {
               "northeast" : {
                  "lat" : 42.4500959,
                  "lng" : -70.648072
               },
               "southwest" : {
                  "lat" : 42.22788,
                  "lng" : -71.191113
               }
            },
            "location" : {
               "lat" : 42.3522866,
               "lng" : -71.0504229
            },
            "location_type" : "APPROXIMATE",
            "viewport" : {
               "northeast" : {
                  "lat" : 42.4500959,
                  "lng" : -70.648072
               },
               "southwest" : {
                  "lat" : 42.22788,
                  "lng" : -71.191113
               }
            }
         },
         "place_id" : "ChIJ6TarW9Sc44kR4nUWuotzEyI",
         "types" : [ "administrative_area_level_2", "political" ]
      },
      {
         "address_components" : [
            {
               "long_name" : "Massachusetts",
               "short_name" : "MA",
               "types" : [ "administrative_area_level_1", "political" ]
            },
            {
               "long_name" : "United States",
               "short_name" : "US",
               "types" : [ "country", "political" ]
            }
         ],
         "formatted_address" : "Massachusetts, USA",
         "geometry" : {
            "bounds" : {
               "northeast" : {
                  "lat" : 42.88679,
                  "lng" : -69.85886099999999
               },
               "southwest" : {
                  "lat" : 41.18705300000001,
                  "lng" : -73.5081419
               }
            },
            "location" : {
               "lat" : 42.4072107,
               "lng" : -71.3824374
            },
            "location_type" : "APPROXIMATE",
            "viewport" : {
               "northeast" : {
                  "lat" : 42.88679,
                  "lng" : -69.85886099999999
               },
               "southwest" : {
                  "lat" : 41.18705300000001,
                  "lng" : -73.5081419
               }
            }
         },
         "place_id" : "ChIJ_b9z6W1l44kRHA2DVTbQxkU",
         "types" : [ "administrative_area_level_1", "political" ]
      },
      {
         "address_components" : [
            {
               "long_name" : "United States",
               "short_name" : "US",
               "types" : [ "country", "political" ]
            }
         ],
         "formatted_address" : "United States",
         "geometry" : {
            "bounds" : {
               "northeast" : {
                  "lat" : 71.5388001,
                  "lng" : -66.885417
               },
               "southwest" : {
                  "lat" : 18.7763,
                  "lng" : 170.5957
               }
            },
            "location" : {
               "lat" : 37.09024,
               "lng" : -95.712891
            },
            "location_type" : "APPROXIMATE",
            "viewport" : {
               "northeast" : {
                  "lat" : 71.5388001,
                  "lng" : -66.885417
               },
               "southwest" : {
                  "lat" : 18.7763,
                  "lng" : 170.5957
               }
            }
         },
         "place_id" : "ChIJCzYy5IS16lQRQrfeQ5K5Oxw",
         "types" : [ "country", "political" ]
      }
   ],
   "status" : "OK"
}
