{
   "plus_code" : {
      "compound_code" : "2395+H3C Üsküdar/İstanbul, Turkey",
      "global_code" : "8GHF2395+H3C"
   },
   "results" : [
      {
         "address_components" : [
            {
               "long_name" : "5A",
               "short_name" : "5A",
               "types" : [ "street_number" ]
            },
            {
               "long_name" : "Seher Sokak",
               "short_name" : "Seher Sk.",
               "types" : [ "route" ]
            },
            {
               "long_name" : "Küçük Çamlıca Mh",
               "short_name" : "Küçük Çamlıca Mh",
               "types" : [ "administrative_area_level_4", "political" ]
            },
            {
               "long_name" : "Üsküdar",
               "short_name" : "Üsküdar",
               "types" : [ "administrative_area_level_2", "political" ]
            },
            {
               "long_name" : "İstanbul",
               "short_name" : "İstanbul",
               "types" : [ "administrative_area_level_1", "political" ]
            },
            {
               "long_name" : "Turkey",
               "short_name" : "TR",
               "types" : [ "country", "political" ]
            },
            {
               "long_name" : "34696",
               "short_name" : "34696",
               "types" : [ "postal_code" ]
            }
         ],
         "formatted_address" : "Küçük Çamlıca Mh, Seher Sk. 5A, 34696 Üsküdar/İstanbul, Turkey",
         "geometry" : {
            "location" : {
               "lat" : 41.0184842,
               "lng" : 29.0568347
            },
            "location_type" : "ROOFTOP",
            "viewport" : {
               "northeast" : {
                  "lat" : 41.0198331802915,
                  "lng" : 29.0581836802915
               },
               "southwest" : {
                  "lat" : 41.0171352197085,
                  "lng" : 29.0554857197085
               }
            }
         },
         "place_id" : "ChIJ_7Q7RQXIyhQRR_XYsOGLQpA",
         "plus_code" : {
            "compound_code" : "2394+9P Üsküdar/İstanbul, Turkey",
            "global_code" : "8GHF2394+9P"
         },
         "types" : [ "street_address" ]
      },
      {
         "address_components" : [
            {
               "long_name" : "2395+H3",
               "short_name" : "2395+H3",
               "types" : [ "plus_code" ]
            },
            {
               "long_name" : "Üsküdar",
               "short_name" : "Üsküdar",
               "types" : [ "administrative_area_level_2", "political" ]
            },
            {
               "long_name" : "İstanbul",
               "short_name" : "İstanbul",
               "types" : [ "administrative_area_level_1", "political" ]
            },
            {
               "long_name" : "Turkey",
               "short_name" : "TR",
               "types" : [ "country", "political" ]
            }
         ],
         "formatted_address" : "2395+H3 Üsküdar/İstanbul, Turkey",
         "geometry" : {
            "bounds" : {
               "northeast" : {
                  "lat" : 41.019,
                  "lng" : 29.05775
               },
               "southwest" : {
                  "lat" : 41.018875,
                  "lng" : 29.057625
               }
            },
            "location" : {
               "lat" : 41.0189418,
               "lng" : 29.0576298
            },
            "location_type" : "GEOMETRIC_CENTER",
            "viewport" : {
               "northeast" : {
                  "lat" : 41.0202864802915,
                  "lng" : 29.0590364802915
               },
               "southwest" : {
                  "lat" : 41.0175885197085,
                  "lng" : 29.0563385197085
               }
            }
         },
         "place_id" : "GhIJgcNVr2yCREARZ0aa08AOPUA",
         "plus_code" : {
            "compound_code" : "2395+H3 Üsküdar/İstanbul, Turkey",
            "global_code" : "8GHF2395+H3"
         },
         "types" : [ "plus_code" ]
      },
      {
         "address_components" : [
            {
               "long_name" : "24",
               "short_name" : "24",
               "types" : [ "street_number" ]
            },
            {
               "long_name" : "Deva Sokak",
               "short_name" : "Deva Sk.",
               "types" : [ "route" ]
            },
            {
               "long_name" : "Küçük Çamlıca",
               "short_name" : "Küçük Çamlıca",
               "types" : [ "administrative_area_level_4", "political" ]
            },
            {
               "long_name" : "Üsküdar",
               "short_name" : "Üsküdar",
               "types" : [ "administrative_area_level_2", "political" ]
            },
            {
               "long_name" : "İstanbul",
               "short_name" : "İstanbul",
               "types" : [ "administrative_area_level_1", "political" ]
            },
            {
               "long_name" : "Turkey",
               "short_name" : "TR",
               "types" : [ "country", "political" ]
            },
            {
               "long_name" : "34696",
               "short_name" : "34696",
               "types" : [ "postal_code" ]
            }
         ],
         "formatted_address" : "Küçük Çamlıca, Deva Sk. No:24, 34696 Üsküdar/İstanbul, Turkey",
         "geometry" : {
            "location" : {
               "lat" : 41.0185401,
               "lng" : 29.056877
            },
            "location_type" : "RANGE_INTERPOLATED",
            "viewport" : {
               "northeast" : {
                  "lat" : 41.01988908029149,
                  "lng" : 29.0582259802915
               },
               "southwest" : {
                  "lat" : 41.01719111970849,
                  "lng" : 29.0555280197085
               }
            }
         },
         "place_id" : "EkVLw7zDp8O8ayDDh2FtbMSxY2EsIERldmEgU2suIE5vOjI0LCAzNDY5NiDDnHNrw7xkYXIvxLBzdGFuYnVsLCBUdXJrZXkiGhIYChQKEgmFwVdOBcjKFBGktdDYZ3B_yhAY",
         "types" : [ "street_address" ]
      },
      {
         "address_components" : [
            {
               "long_name" : "10-28",
               "short_name" : "10-28",
               "types" : [ "street_number" ]
            },
            {
               "long_name" : "Deva Sokak",
               "short_name" : "Deva Sk.",
               "types" : [ "route" ]
            },
            {
               "long_name" : "Küçük Çamlıca",
               "short_name" : "Küçük Çamlıca",
               "types" : [ "administrative_area_level_4", "political" ]
            },
            {
               "long_name" : "Üsküdar",
               "short_name" : "Üsküdar",
               "types" : [ "administrative_area_level_2", "political" ]
            },
            {
               "long_name" : "İstanbul",
               "short_name" : "İstanbul",
               "types" : [ "administrative_area_level_1", "political" ]
            },
            {
               "long_name" : "Turkey",
               "short_name" : "TR",
               "types" : [ "country", "political" ]
            },
            {
               "long_name" : "34696",
               "short_name" : "34696",
               "types" : [ "postal_code" ]
            }
         ],
         "formatted_address" : "Küçük Çamlıca, Deva Sk. 10-28, 34696 Üsküdar/İstanbul, Turkey",
         "geometry" : {
            "bounds" : {
               "northeast" : {
                  "lat" : 41.01924899999999,
                  "lng" : 29.0570776
               },
               "southwest" : {
                  "lat" : 41.0183018,
                  "lng" : 29.0563392
               }
            },
            "location" : {
               "lat" : 41.0187697,
               "lng" : 29.0566954
            },
            "location_type" : "GEOMETRIC_CENTER",
            "viewport" : {
               "northeast" : {
                  "lat" : 41.02012438029149,
                  "lng" : 29.0580573802915
               },
               "southwest" : {
                  "lat" : 41.01742641970849,
                  "lng" : 29.0553594197085
               }
            }
         },
         "place_id" : "ChIJhcFXTgXIyhQRpLXQ2Gdwf8o",
         "types" : [ "route" ]
      },
      {
         "address_components" : [
            {
               "long_name" : "34696",
               "short_name" : "34696",
               "types" : [ "postal_code" ]
            },
            {
               "long_name" : "Küçük Çamlıca",
               "short_name" : "Küçük Çamlıca",
               "types" : [ "administrative_area_level_4", "political" ]
            },
            {
               "long_name" : "Üsküdar",
               "short_name" : "Üsküdar",
               "types" : [ "administrative_area_level_2", "political" ]
            },
            {
               "long_name" : "İstanbul",
               "short_name" : "İstanbul",
               "types" : [ "administrative_area_level_1", "political" ]
            },
            {
               "long_name" : "Turkey",
               "short_name" : "TR",
               "types" : [ "country", "political" ]
            }
         ],
         "formatted_address" : "Küçük Çamlıca, 34696 Üsküdar/İstanbul, Turkey",
         "geometry" : {
            "bounds" : {
               "northeast" : {
                  "lat" : 41.02321,
                  "lng" : 29.075458
               },
               "southwest" : {
                  "lat" : 41.00561200000001,
                  "lng" : 29.0476989
               }
            },
            "location" : {
               "lat" : 41.0142241,
               "lng" : 29.066357
            },
            "location_type" : "APPROXIMATE",
            "viewport" : {
               "northeast" : {
                  "lat" : 41.02321,
                  "lng" : 29.075458
               },
               "southwest" : {
                  "lat" : 41.00561200000001,
                  "lng" : 29.0476989
               }
            }
         },
         "place_id" : "ChIJbWz9KgnIyhQRIhrDlHmtUmc",
         "types" : [ "postal_code" ]
      },
      {
         "address_components" : [
            {
               "long_name" : "Küçük Çamlıca",
               "short_name" : "Küçük Çamlıca",
               "types" : [ "administrative_area_level_4", "political" ]
            },
            {
               "long_name" : "Üsküdar",
               "short_name" : "Üsküdar",
               "types" : [ "administrative_area_level_2", "political" ]
            },
            {
               "long_name" : "İstanbul",
               "short_name" : "İstanbul",
               "types" : [ "administrative_area_level_1", "political" ]
            },
            {
               "long_name" : "Turkey",
               "short_name" : "TR",
               "types" : [ "country", "political" ]
            },
            {
               "long_name" : "34696",
               "short_name" : "34696",
               "types" : [ "postal_code" ]
            }
         ],
         "formatted_address" : "Küçük Çamlıca, 34696 Üsküdar/İstanbul, Turkey",
         "geometry" : {
            "bounds" : {
               "northeast" : {
                  "lat" : 41.02321,
                  "lng" : 29.075458
               },
               "southwest" : {
                  "lat" : 41.00561200000001,
                  "lng" : 29.0476989
               }
            },
            "location" : {
               "lat" : 41.0142241,
               "lng" : 29.066357
            },
            "location_type" : "APPROXIMATE",
            "viewport" : {
               "northeast" : {
                  "lat" : 41.02321,
                  "lng" : 29.075458
               },
               "southwest" : {
                  "lat" : 41.00561200000001,
                  "lng" : 29.0476989
               }
            }
         },
         "place_id" : "ChIJ0Rfl6Q7IyhQRFlBa-BgADfM",
         "types" : [ "administrative_area_level_4", "political" ]
      },
      {
         "address_components" : [
            {
               "long_name" : "Üsküdar",
               "short_name" : "Üsküdar",
               "types" : [ "administrative_area_level_2", "political" ]
            },
            {
               "long_name" : "İstanbul",
               "short_name" : "İstanbul",
               "types" : [ "administrative_area_level_1", "political" ]
            },
            {
               "long_name" : "Turkey",
               "short_name" : "TR",
               "types" : [ "country", "political" ]
            }
         ],
         "formatted_address" : "Üsküdar/İstanbul, Turkey",
         "geometry" : {
            "bounds" : {
               "northeast" : {
                  "lat" : 41.077997,
                  "lng" : 29.091789
               },
               "southwest" : {
                  "lat" : 40.9925,
                  "lng" : 29.00367
               }
            },
            "location" : {
               "lat" : 41.0189417,
               "lng" : 29.0576298
            },
            "location_type" : "APPROXIMATE",
            "viewport" : {
               "northeast" : {
                  "lat" : 41.077997,
                  "lng" : 29.091789
               },
               "southwest" : {
                  "lat" : 40.9925,
                  "lng" : 29.00367
               }
            }
         },
         "place_id" : "ChIJ8ckk1SbIyhQROH97MxJ2T8E",
         "types" : [ "administrative_area_level_2", "political" ]
      },
      {
         "address_components" : [
            {
               "long_name" : "Anatolian Side",
               "short_name" : "Anatolian Side",
               "types" : [ "neighborhood", "political" ]
            },
            {
               "long_name" : "İstanbul",
               "short_name" : "İstanbul",
               "types" : [ "administrative_area_level_1", "political" ]
            },
            {
               "long_name" : "Turkey",
               "short_name" : "TR",
               "types" : [ "country", "political" ]
            }
         ],
         "formatted_address" : "Anatolian Side, İstanbul, Turkey",
         "geometry" : {
            "bounds" : {
               "northeast" : {
                  "lat" : 41.173419,
                  "lng" : 29.4288049
               },
               "southwest" : {
                  "lat" : 40.811404,
                  "lng" : 29.006362
               }
            },
            "location" : {
               "lat" : 40.9815089,
               "lng" : 29.0947502
            },
            "location_type" : "APPROXIMATE",
            "viewport" : {
               "northeast" : {
                  "lat" : 41.173419,
                  "lng" : 29.4288049
               },
               "southwest" : {
                  "lat" : 40.811404,
                  "lng" : 29.006362
               }
            }
         },
         "place_id" : "ChIJ24figCrGyhQR6m5IK44mNVI",
         "types" : [ "neighborhood", "political" ]
      },
      {
         "address_components" : [
            {
               "long_name" : "İstanbul",
               "short_name" : "İstanbul",
               "types" : [ "locality", "political" ]
            },
            {
               "long_name" : "İstanbul",
               "short_name" : "İstanbul",
               "types" : [ "administrative_area_level_1", "political" ]
            },
            {
               "long_name" : "Turkey",
               "short_name" : "TR",
               "types" : [ "country", "political" ]
            }
         ],
         "formatted_address" : "İstanbul, Turkey",
         "geometry" : {
            "bounds" : {
               "northeast" : {
                  "lat" : 41.199239,
                  "lng" : 29.4288049
               },
               "southwest" : {
                  "lat" : 40.811404,
                  "lng" : 28.595554
               }
            },
            "location" : {
               "lat" : 41.0082376,
               "lng" : 28.9783589
            },
            "location_type" : "APPROXIMATE",
            "viewport" : {
               "northeast" : {
                  "lat" : 41.199239,
                  "lng" : 29.4288049
               },
               "southwest" : {
                  "lat" : 40.811404,
                  "lng" : 28.595554
               }
            }
         },
         "place_id" : "ChIJawhoAASnyhQR0LABvJj-zOE",
         "types" : [ "locality", "political" ]
      },
      {
         "address_components" : [
            {
               "long_name" : "İstanbul",
               "short_name" : "İstanbul",
               "types" : [ "administrative_area_level_1", "political" ]
            },
            {
               "long_name" : "Turkey",
               "short_name" : "TR",
               "types" : [ "country", "political" ]
            }
         ],
         "formatted_address" : "İstanbul, Turkey",
         "geometry" : {
            "bounds" : {
               "northeast" : {
                  "lat" : 41.58461,
                  "lng" : 29.915705
               },
               "southwest" : {
                  "lat" : 40.8026889,
                  "lng" : 27.971373
               }
            },
            "location" : {
               "lat" : 41.1634302,
               "lng" : 28.7664408
            },
            "location_type" : "APPROXIMATE",
            "viewport" : {
               "northeast" : {
                  "lat" : 41.58461,
                  "lng" : 29.915705
               },
               "southwest" : {
                  "lat" : 40.8026889,
                  "lng" : 27.971373
               }
            }
         },
         "place_id" : "ChIJexVgWlG2yhQR6B1akfSarCI",
         "types" : [ "administrative_area_level_1", "political" ]
      },
      {
         "address_components" : [
            {
               "long_name" : "Turkey",
               "short_name" : "TR",
               "types" : [ "country", "political" ]
            }
         ],
         "formatted_address" : "Turkey",
         "geometry" : {
            "bounds" : {
               "northeast" : {
                  "lat" : 42.3666999,
                  "lng" : 44.8178449
               },
               "southwest" : {
                  "lat" : 35.808592,
                  "lng" : 25.5377
               }
            },
            "location" : {
               "lat" : 38.963745,
               "lng" : 35.243322
            },
            "location_type" : "APPROXIMATE",
            "viewport" : {
               "northeast" : {
                  "lat" : 42.3666999,
                  "lng" : 44.8178449
               },
               "southwest" : {
                  "lat" : 35.808592,
                  "lng" : 25.5377
               }
            }
         },
         "place_id" : "ChIJcSZPllwVsBQRKl9iKtTb2UA",
         "types" : [ "country", "political" ]
      }
   ],
   "status" : "OK"
}
