{
   "plus_code" : {
      "compound_code" : "XG82+6H Gebze/Kocaeli, Turkey",
      "global_code" : "8GGFXG82+6H"
   },
   "results" : [
      {
         "address_components" : [
            {
               "long_name" : "Ovacık",
               "short_name" : "Ovacık",
               "types" : [ "administrative_area_level_4", "political" ]
            },
            {
               "long_name" : "Gebze",
               "short_name" : "Gebze",
               "types" : [ "administrative_area_level_2", "political" ]
            },
            {
               "long_name" : "Kocaeli",
               "short_name" : "Kocaeli",
               "types" : [ "administrative_area_level_1", "political" ]
            },
            {
               "long_name" : "Turkey",
               "short_name" : "TR",
               "types" : [ "country", "political" ]
            },
            {
               "long_name" : "41400",
               "short_name" : "41400",
               "types" : [ "postal_code" ]
            }
         ],
         "formatted_address" : "3344 Sok. No:7/11, Ovacık, 41400 Gebze/Kocaeli, Turkey",
         "geometry" : {
            "location" : {
               "lat" : 40.965569,
               "lng" : 29.50148
            },
            "location_type" : "GEOMETRIC_CENTER",
            "viewport" : {
               "northeast" : {
                  "lat" : 40.96691798029149,
                  "lng" : 29.5028289802915
               },
               "southwest" : {
                  "lat" : 40.96422001970849,
                  "lng" : 29.5001310197085
               }
            }
         },
         "place_id" : "ChIJG0eDzxUryxQRUe9rMhV3OGo",
         "plus_code" : {
            "compound_code" : "XG82+6H Gebze/Kocaeli, Turkey",
            "global_code" : "8GGFXG82+6H"
         },
         "types" : [ "establishment", "gym", "health", "point_of_interest" ]
      },
      {
         "address_components" : [
            {
               "long_name" : "29",
               "short_name" : "29",
               "types" : [ "street_number" ]
            },
            {
               "long_name" : "Ovacık Köyü İç Yolu",
               "short_name" : "Ovacık Köyü İç Yolu",
               "types" : [ "route" ]
            },
            {
               "long_name" : "Ovacık",
               "short_name" : "Ovacık",
               "types" : [ "administrative_area_level_4", "political" ]
            },
            {
               "long_name" : "Gebze",
               "short_name" : "Gebze",
               "types" : [ "administrative_area_level_2", "political" ]
            },
            {
               "long_name" : "Kocaeli",
               "short_name" : "Kocaeli",
               "types" : [ "administrative_area_level_1", "political" ]
            },
            {
               "long_name" : "Turkey",
               "short_name" : "TR",
               "types" : [ "country", "political" ]
            },
            {
               "long_name" : "41400",
               "short_name" : "41400",
               "types" : [ "postal_code" ]
            }
         ],
         "formatted_address" : "Ovacık, Ovacık Köyü İç Yolu No:29, 41400 Gebze/Kocaeli, Turkey",
         "geometry" : {
            "location" : {
               "lat" : 40.9658845,
               "lng" : 29.5026575
            },
            "location_type" : "ROOFTOP",
            "viewport" : {
               "northeast" : {
                  "lat" : 40.9672334802915,
                  "lng" : 29.50400648029149
               },
               "southwest" : {
                  "lat" : 40.96453551970851,
                  "lng" : 29.5013085197085
               }
            }
         },
         "place_id" : "ChIJYSldmPsryxQRKOdfc4ZyTOE",
         "plus_code" : {
            "compound_code" : "XG83+93 Gebze/Kocaeli, Turkey",
            "global_code" : "8GGFXG83+93"
         },
         "types" : [ "street_address" ]
      },
      {
         "address_components" : [
            {
               "long_name" : "Ovacık Köyü İç Yolu",
               "short_name" : "Ovacık Köyü İç Yolu",
               "types" : [ "route" ]
            },
            {
               "long_name" : "Ovacık",
               "short_name" : "Ovacık",
               "types" : [ "administrative_area_level_4", "political" ]
            },
            {
               "long_name" : "Gebze",
               "short_name" : "Gebze",
               "types" : [ "administrative_area_level_2", "political" ]
            },
            {
               "long_name" : "Kocaeli",
               "short_name" : "Kocaeli",
               "types" : [ "administrative_area_level_1", "political" ]
            },
            {
               "long_name" : "Turkey",
               "short_name" : "TR",
               "types" : [ "country", "political" ]
            },
            {
               "long_name" : "41400",
               "short_name" : "41400",
               "types" : [ "postal_code" ]
            }
         ],
         "formatted_address" : "Ovacık, Ovacık Köyü İç Yolu, 41400 Gebze/Kocaeli, Turkey",
         "geometry" : {
            "bounds" : {
               "northeast" : {
                  "lat" : 40.9661534,
                  "lng" : 29.5019701
               },
               "southwest" : {
                  "lat" : 40.9655791,
                  "lng" : 29.5014613
               }
            },
            "location" : {
               "lat" : 40.9659066,
               "lng" : 29.5016501
            },
            "location_type" : "GEOMETRIC_CENTER",
            "viewport" : {
               "northeast" : {
                  "lat" : 40.9672152302915,
                  "lng" : 29.50306468029149
               },
               "southwest" : {
                  "lat" : 40.9645172697085,
                  "lng" : 29.5003667197085
               }
            }
         },
         "place_id" : "ChIJS3Y6cfsryxQR5hqA3C-jwTo",
         "types" : [ "route" ]
      },
      {
         "address_components" : [
            {
               "long_name" : "XG82+6H",
               "short_name" : "XG82+6H",
               "types" : [ "plus_code" ]
            },
            {
               "long_name" : "Gebze",
               "short_name" : "Gebze",
               "types" : [ "administrative_area_level_2", "political" ]
            },
            {
               "long_name" : "Kocaeli",
               "short_name" : "Kocaeli",
               "types" : [ "administrative_area_level_1", "political" ]
            },
            {
               "long_name" : "Turkey",
               "short_name" : "TR",
               "types" : [ "country", "political" ]
            }
         ],
         "formatted_address" : "XG82+6H Gebze/Kocaeli, Turkey",
         "geometry" : {
            "bounds" : {
               "northeast" : {
                  "lat" : 40.965625,
                  "lng" : 29.5015
               },
               "southwest" : {
                  "lat" : 40.9655,
                  "lng" : 29.501375
               }
            },
            "location" : {
               "lat" : 40.965569,
               "lng" : 29.50148
            },
            "location_type" : "GEOMETRIC_CENTER",
            "viewport" : {
               "northeast" : {
                  "lat" : 40.96691148029151,
                  "lng" : 29.5027864802915
               },
               "southwest" : {
                  "lat" : 40.96421351970851,
                  "lng" : 29.5000885197085
               }
            }
         },
         "place_id" : "GhIJBYTWw5d7REARG5lH_mCAPUA",
         "plus_code" : {
            "compound_code" : "XG82+6H Gebze/Kocaeli, Turkey",
            "global_code" : "8GGFXG82+6H"
         },
         "types" : [ "plus_code" ]
      },
      {
         "address_components" : [
            {
               "long_name" : "Ovacık",
               "short_name" : "Ovacık",
               "types" : [ "locality", "political" ]
            },
            {
               "long_name" : "Ovacık",
               "short_name" : "Ovacık",
               "types" : [ "administrative_area_level_4", "political" ]
            },
            {
               "long_name" : "Gebze",
               "short_name" : "Gebze",
               "types" : [ "administrative_area_level_2", "political" ]
            },
            {
               "long_name" : "Kocaeli",
               "short_name" : "Kocaeli",
               "types" : [ "administrative_area_level_1", "political" ]
            },
            {
               "long_name" : "Turkey",
               "short_name" : "TR",
               "types" : [ "country", "political" ]
            },
            {
               "long_name" : "41400",
               "short_name" : "41400",
               "types" : [ "postal_code" ]
            }
         ],
         "formatted_address" : "Ovacık, 41400 Gebze/Kocaeli, Turkey",
         "geometry" : {
            "bounds" : {
               "northeast" : {
                  "lat" : 40.968397,
                  "lng" : 29.506093
               },
               "southwest" : {
                  "lat" : 40.9623041,
                  "lng" : 29.4983191
               }
            },
            "location" : {
               "lat" : 40.965569,
               "lng" : 29.50148
            },
            "location_type" : "APPROXIMATE",
            "viewport" : {
               "northeast" : {
                  "lat" : 40.968397,
                  "lng" : 29.506093
               },
               "southwest" : {
                  "lat" : 40.9623041,
                  "lng" : 29.4983191
               }
            }
         },
         "place_id" : "ChIJaVrbBPoryxQRsJASbY6P5aU",
         "types" : [ "locality", "political" ]
      },
      {
         "address_components" : [
            {
               "long_name" : "Ovacık",
               "short_name" : "Ovacık",
               "types" : [ "administrative_area_level_4", "political" ]
            },
            {
               "long_name" : "Gebze",
               "short_name" : "Gebze",
               "types" : [ "administrative_area_level_2", "political" ]
            },
            {
               "long_name" : "Kocaeli",
               "short_name" : "Kocaeli",
               "types" : [ "administrative_area_level_1", "political" ]
            },
            {
               "long_name" : "Turkey",
               "short_name" : "TR",
               "types" : [ "country", "political" ]
            },
            {
               "long_name" : "41400",
               "short_name" : "41400",
               "types" : [ "postal_code" ]
            }
         ],
         "formatted_address" : "Ovacık, 41400 Gebze/Kocaeli, Turkey",
         "geometry" : {
            "bounds" : {
               "northeast" : {
                  "lat" : 41.026705,
                  "lng" : 29.56246699999999
               },
               "southwest" : {
                  "lat" : 40.932681,
                  "lng" : 29.469408
               }
            },
            "location" : {
               "lat" : 40.9639081,
               "lng" : 29.52237149999999
            },
            "location_type" : "APPROXIMATE",
            "viewport" : {
               "northeast" : {
                  "lat" : 41.026705,
                  "lng" : 29.56246699999999
               },
               "southwest" : {
                  "lat" : 40.932681,
                  "lng" : 29.469408
               }
            }
         },
         "place_id" : "ChIJn0wde_sryxQR8gfK-XFQGns",
         "types" : [ "administrative_area_level_4", "political" ]
      },
      {
         "address_components" : [
            {
               "long_name" : "41400",
               "short_name" : "41400",
               "types" : [ "postal_code" ]
            },
            {
               "long_name" : "Ovacık",
               "short_name" : "Ovacık",
               "types" : [ "administrative_area_level_4", "political" ]
            },
            {
               "long_name" : "Gebze",
               "short_name" : "Gebze",
               "types" : [ "administrative_area_level_2", "political" ]
            },
            {
               "long_name" : "Kocaeli",
               "short_name" : "Kocaeli",
               "types" : [ "administrative_area_level_1", "political" ]
            },
            {
               "long_name" : "Turkey",
               "short_name" : "TR",
               "types" : [ "country", "political" ]
            }
         ],
         "formatted_address" : "Ovacık, 41400 Gebze/Kocaeli, Turkey",
         "geometry" : {
            "bounds" : {
               "northeast" : {
                  "lat" : 41.026705,
                  "lng" : 29.56246699999999
               },
               "southwest" : {
                  "lat" : 40.932681,
                  "lng" : 29.469604
               }
            },
            "location" : {
               "lat" : 40.9639081,
               "lng" : 29.52237149999999
            },
            "location_type" : "APPROXIMATE",
            "viewport" : {
               "northeast" : {
                  "lat" : 41.026705,
                  "lng" : 29.56246699999999
               },
               "southwest" : {
                  "lat" : 40.932681,
                  "lng" : 29.469604
               }
            }
         },
         "place_id" : "ChIJiZGqqXYsyxQRtghCLFtaEuI",
         "types" : [ "postal_code" ]
      },
      {
         "address_components" : [
            {
               "long_name" : "Gebze",
               "short_name" : "Gebze",
               "types" : [ "administrative_area_level_2", "political" ]
            },
            {
               "long_name" : "Kocaeli",
               "short_name" : "Kocaeli",
               "types" : [ "administrative_area_level_1", "political" ]
            },
            {
               "long_name" : "Turkey",
               "short_name" : "TR",
               "types" : [ "country", "political" ]
            }
         ],
         "formatted_address" : "Gebze/Kocaeli, Turkey",
         "geometry" : {
            "bounds" : {
               "northeast" : {
                  "lat" : 41.0444389,
                  "lng" : 29.753319
               },
               "southwest" : {
                  "lat" : 40.76473499999999,
                  "lng" : 29.339897
               }
            },
            "location" : {
               "lat" : 40.9329106,
               "lng" : 29.5339711
            },
            "location_type" : "APPROXIMATE",
            "viewport" : {
               "northeast" : {
                  "lat" : 41.0444389,
                  "lng" : 29.753319
               },
               "southwest" : {
                  "lat" : 40.76473499999999,
                  "lng" : 29.339897
               }
            }
         },
         "place_id" : "ChIJvZNPnBEvyxQRqVaYkWB4_nI",
         "types" : [ "administrative_area_level_2", "political" ]
      },
      {
         "address_components" : [
            {
               "long_name" : "Kocaeli",
               "short_name" : "Kocaeli",
               "types" : [ "administrative_area_level_1", "political" ]
            },
            {
               "long_name" : "Turkey",
               "short_name" : "TR",
               "types" : [ "country", "political" ]
            }
         ],
         "formatted_address" : "Kocaeli, Turkey",
         "geometry" : {
            "bounds" : {
               "northeast" : {
                  "lat" : 41.20976,
                  "lng" : 30.367743
               },
               "southwest" : {
                  "lat" : 40.524151,
                  "lng" : 29.3331261
               }
            },
            "location" : {
               "lat" : 40.8532704,
               "lng" : 29.8815203
            },
            "location_type" : "APPROXIMATE",
            "viewport" : {
               "northeast" : {
                  "lat" : 41.20976,
                  "lng" : 30.367743
               },
               "southwest" : {
                  "lat" : 40.524151,
                  "lng" : 29.3331261
               }
            }
         },
         "place_id" : "ChIJQ8zKb5QgyxQRWdhW642zLKg",
         "types" : [ "administrative_area_level_1", "political" ]
      },
      {
         "address_components" : [
            {
               "long_name" : "Turkey",
               "short_name" : "TR",
               "types" : [ "country", "political" ]
            }
         ],
         "formatted_address" : "Turkey",
         "geometry" : {
            "bounds" : {
               "northeast" : {
                  "lat" : 42.3666999,
                  "lng" : 44.8178449
               },
               "southwest" : {
                  "lat" : 35.808592,
                  "lng" : 25.5377
               }
            },
            "location" : {
               "lat" : 38.963745,
               "lng" : 35.243322
            },
            "location_type" : "APPROXIMATE",
            "viewport" : {
               "northeast" : {
                  "lat" : 42.3666999,
                  "lng" : 44.8178449
               },
               "southwest" : {
                  "lat" : 35.808592,
                  "lng" : 25.5377
               }
            }
         },
         "place_id" : "ChIJcSZPllwVsBQRKl9iKtTb2UA",
         "types" : [ "country", "political" ]
      }
   ],
   "status" : "OK"
}
