{
   "plus_code" : {
      "compound_code" : "4FR4+WX5 Çatalca/İstanbul, Turkey",
      "global_code" : "8GHC4FR4+WX5"
   },
   "results" : [
      {
         "address_components" : [
            {
               "long_name" : "Çatalca",
               "short_name" : "Çatalca",
               "types" : [ "administrative_area_level_2", "political" ]
            },
            {
               "long_name" : "Ferhatpaşa",
               "short_name" : "Ferhatpaşa",
               "types" : [ "administrative_area_level_4", "political" ]
            },
            {
               "long_name" : "İstanbul",
               "short_name" : "İstanbul",
               "types" : [ "administrative_area_level_1", "political" ]
            },
            {
               "long_name" : "Turkey",
               "short_name" : "TR",
               "types" : [ "country", "political" ]
            },
            {
               "long_name" : "34540",
               "short_name" : "34540",
               "types" : [ "postal_code" ]
            }
         ],
         "formatted_address" : "Muratbey Mah.Güzide Sokak No 20/1 Ofis Z-32, Ferhatpaşa, 34540 Çatalca/İstanbul, Turkey",
         "geometry" : {
            "location" : {
               "lat" : 41.142259,
               "lng" : 28.457469
            },
            "location_type" : "GEOMETRIC_CENTER",
            "viewport" : {
               "northeast" : {
                  "lat" : 41.14360798029151,
                  "lng" : 28.4588179802915
               },
               "southwest" : {
                  "lat" : 41.14091001970851,
                  "lng" : 28.4561200197085
               }
            }
         },
         "place_id" : "ChIJ8-zT5htFtRQRXsuuh0bLcwg",
         "plus_code" : {
            "compound_code" : "4FR4+WX Çatalca/İstanbul, Turkey",
            "global_code" : "8GHC4FR4+WX"
         },
         "types" : [ "establishment", "point_of_interest" ]
      },
      {
         "address_components" : [
            {
               "long_name" : "Vezir",
               "short_name" : "Vezir",
               "types" : [ "establishment", "point_of_interest" ]
            },
            {
               "long_name" : "50",
               "short_name" : "50",
               "types" : [ "street_number" ]
            },
            {
               "long_name" : "Ferhatpaşa Caddesi",
               "short_name" : "Ferhatpaşa Cd.",
               "types" : [ "route" ]
            },
            {
               "long_name" : "Ferhatpaşa Mh",
               "short_name" : "Ferhatpaşa Mh",
               "types" : [ "administrative_area_level_4", "political" ]
            },
            {
               "long_name" : "Çatalca",
               "short_name" : "Çatalca",
               "types" : [ "administrative_area_level_2", "political" ]
            },
            {
               "long_name" : "İstanbul",
               "short_name" : "İstanbul",
               "types" : [ "administrative_area_level_1", "political" ]
            },
            {
               "long_name" : "Turkey",
               "short_name" : "TR",
               "types" : [ "country", "political" ]
            },
            {
               "long_name" : "34888",
               "short_name" : "34888",
               "types" : [ "postal_code" ]
            }
         ],
         "formatted_address" : "Ferhatpaşa Mh, Vezir, Ferhatpaşa Cd. No:50, 34888 Çatalca/İstanbul, Turkey",
         "geometry" : {
            "location" : {
               "lat" : 41.1421909,
               "lng" : 28.457489
            },
            "location_type" : "ROOFTOP",
            "viewport" : {
               "northeast" : {
                  "lat" : 41.14353988029149,
                  "lng" : 28.4588379802915
               },
               "southwest" : {
                  "lat" : 41.14084191970849,
                  "lng" : 28.4561400197085
               }
            }
         },
         "place_id" : "ChIJYwqUfBlFtRQR1tgGx6uGyxY",
         "plus_code" : {
            "compound_code" : "4FR4+VX Çatalca/İstanbul, Turkey",
            "global_code" : "8GHC4FR4+VX"
         },
         "types" : [ "street_address" ]
      },
      {
         "address_components" : [
            {
               "long_name" : "50",
               "short_name" : "50",
               "types" : [ "street_number" ]
            },
            {
               "long_name" : "Ferhatpaşa Caddesi",
               "short_name" : "Ferhatpaşa Cd.",
               "types" : [ "route" ]
            },
            {
               "long_name" : "Kaleiçi",
               "short_name" : "Kaleiçi",
               "types" : [ "administrative_area_level_4", "political" ]
            },
            {
               "long_name" : "Çatalca",
               "short_name" : "Çatalca",
               "types" : [ "administrative_area_level_2", "political" ]
            },
            {
               "long_name" : "İstanbul",
               "short_name" : "İstanbul",
               "types" : [ "administrative_area_level_1", "political" ]
            },
            {
               "long_name" : "Turkey",
               "short_name" : "TR",
               "types" : [ "country", "political" ]
            },
            {
               "long_name" : "34540",
               "short_name" : "34540",
               "types" : [ "postal_code" ]
            }
         ],
         "formatted_address" : "Kaleiçi, Ferhatpaşa Cd. No:50, 34540 Çatalca/İstanbul, Turkey",
         "geometry" : {
            "location" : {
               "lat" : 41.1422782,
               "lng" : 28.4574893
            },
            "location_type" : "RANGE_INTERPOLATED",
            "viewport" : {
               "northeast" : {
                  "lat" : 41.1436271802915,
                  "lng" : 28.4588382802915
               },
               "southwest" : {
                  "lat" : 41.1409292197085,
                  "lng" : 28.4561403197085
               }
            }
         },
         "place_id" : "EkFLYWxlacOnaSwgRmVyaGF0cGHFn2EgQ2QuIE5vOjUwLCAzNDU0MCDDh2F0YWxjYS_EsHN0YW5idWwsIFR1cmtleSIaEhgKFAoSCWPHjdQbRbUUEebX0X0xYmKBEDI",
         "types" : [ "street_address" ]
      },
      {
         "address_components" : [
            {
               "long_name" : "44-50",
               "short_name" : "44-50",
               "types" : [ "street_number" ]
            },
            {
               "long_name" : "Ferhatpaşa Caddesi",
               "short_name" : "Ferhatpaşa Cd.",
               "types" : [ "route" ]
            },
            {
               "long_name" : "Kaleiçi",
               "short_name" : "Kaleiçi",
               "types" : [ "administrative_area_level_4", "political" ]
            },
            {
               "long_name" : "Çatalca",
               "short_name" : "Çatalca",
               "types" : [ "administrative_area_level_2", "political" ]
            },
            {
               "long_name" : "İstanbul",
               "short_name" : "İstanbul",
               "types" : [ "administrative_area_level_1", "political" ]
            },
            {
               "long_name" : "Turkey",
               "short_name" : "TR",
               "types" : [ "country", "political" ]
            },
            {
               "long_name" : "34540",
               "short_name" : "34540",
               "types" : [ "postal_code" ]
            }
         ],
         "formatted_address" : "Kaleiçi, Ferhatpaşa Cd. 44-50, 34540 Çatalca/İstanbul, Turkey",
         "geometry" : {
            "bounds" : {
               "northeast" : {
                  "lat" : 41.1432818,
                  "lng" : 28.4575407
               },
               "southwest" : {
                  "lat" : 41.1422466,
                  "lng" : 28.4563406
               }
            },
            "location" : {
               "lat" : 41.1426926,
               "lng" : 28.4568224
            },
            "location_type" : "GEOMETRIC_CENTER",
            "viewport" : {
               "northeast" : {
                  "lat" : 41.14411318029149,
                  "lng" : 28.4582896302915
               },
               "southwest" : {
                  "lat" : 41.1414152197085,
                  "lng" : 28.45559166970849
               }
            }
         },
         "place_id" : "ChIJY8eN1BtFtRQR5tfRfTFiYoE",
         "types" : [ "route" ]
      },
      {
         "address_components" : [
            {
               "long_name" : "4FR4+WX",
               "short_name" : "4FR4+WX",
               "types" : [ "plus_code" ]
            },
            {
               "long_name" : "Çatalca",
               "short_name" : "Çatalca",
               "types" : [ "administrative_area_level_2", "political" ]
            },
            {
               "long_name" : "İstanbul",
               "short_name" : "İstanbul",
               "types" : [ "administrative_area_level_1", "political" ]
            },
            {
               "long_name" : "Turkey",
               "short_name" : "TR",
               "types" : [ "country", "political" ]
            }
         ],
         "formatted_address" : "4FR4+WX Çatalca/İstanbul, Turkey",
         "geometry" : {
            "bounds" : {
               "northeast" : {
                  "lat" : 41.142375,
                  "lng" : 28.4575
               },
               "southwest" : {
                  "lat" : 41.14225,
                  "lng" : 28.457375
               }
            },
            "location" : {
               "lat" : 41.142259,
               "lng" : 28.457469
            },
            "location_type" : "GEOMETRIC_CENTER",
            "viewport" : {
               "northeast" : {
                  "lat" : 41.14366148029149,
                  "lng" : 28.4587864802915
               },
               "southwest" : {
                  "lat" : 41.14096351970849,
                  "lng" : 28.4560885197085
               }
            }
         },
         "place_id" : "GhIJ5Uf8ijWSREARD-85sBx1PEA",
         "plus_code" : {
            "compound_code" : "4FR4+WX Çatalca/İstanbul, Turkey",
            "global_code" : "8GHC4FR4+WX"
         },
         "types" : [ "plus_code" ]
      },
      {
         "address_components" : [
            {
               "long_name" : "Çatalca",
               "short_name" : "Çatalca",
               "types" : [ "locality", "political" ]
            },
            {
               "long_name" : "Çatalca",
               "short_name" : "Çatalca",
               "types" : [ "administrative_area_level_2", "political" ]
            },
            {
               "long_name" : "İstanbul",
               "short_name" : "İstanbul",
               "types" : [ "administrative_area_level_1", "political" ]
            },
            {
               "long_name" : "Turkey",
               "short_name" : "TR",
               "types" : [ "country", "political" ]
            }
         ],
         "formatted_address" : "Çatalca, İstanbul, Turkey",
         "geometry" : {
            "bounds" : {
               "northeast" : {
                  "lat" : 41.1660391,
                  "lng" : 28.4916331
               },
               "southwest" : {
                  "lat" : 41.125505,
                  "lng" : 28.431541
               }
            },
            "location" : {
               "lat" : 41.142259,
               "lng" : 28.457469
            },
            "location_type" : "APPROXIMATE",
            "viewport" : {
               "northeast" : {
                  "lat" : 41.1660391,
                  "lng" : 28.4916331
               },
               "southwest" : {
                  "lat" : 41.125505,
                  "lng" : 28.431541
               }
            }
         },
         "place_id" : "ChIJpVw6wT5FtRQRgc3ShJNNjb8",
         "types" : [ "locality", "political" ]
      },
      {
         "address_components" : [
            {
               "long_name" : "Kaleiçi",
               "short_name" : "Kaleiçi",
               "types" : [ "administrative_area_level_4", "political" ]
            },
            {
               "long_name" : "Çatalca",
               "short_name" : "Çatalca",
               "types" : [ "administrative_area_level_2", "political" ]
            },
            {
               "long_name" : "İstanbul",
               "short_name" : "İstanbul",
               "types" : [ "administrative_area_level_1", "political" ]
            },
            {
               "long_name" : "Turkey",
               "short_name" : "TR",
               "types" : [ "country", "political" ]
            },
            {
               "long_name" : "34540",
               "short_name" : "34540",
               "types" : [ "postal_code" ]
            }
         ],
         "formatted_address" : "Kaleiçi, 34540 Çatalca/İstanbul, Turkey",
         "geometry" : {
            "bounds" : {
               "northeast" : {
                  "lat" : 41.1920461,
                  "lng" : 28.4835851
               },
               "southwest" : {
                  "lat" : 41.1340689,
                  "lng" : 28.4074971
               }
            },
            "location" : {
               "lat" : 41.1621282,
               "lng" : 28.4455164
            },
            "location_type" : "APPROXIMATE",
            "viewport" : {
               "northeast" : {
                  "lat" : 41.1920461,
                  "lng" : 28.4835851
               },
               "southwest" : {
                  "lat" : 41.1340689,
                  "lng" : 28.4074971
               }
            }
         },
         "place_id" : "ChIJT7qB93VFtRQR7DKXMVAhCxw",
         "types" : [ "administrative_area_level_4", "political" ]
      },
      {
         "address_components" : [
            {
               "long_name" : "34540",
               "short_name" : "34540",
               "types" : [ "postal_code" ]
            },
            {
               "long_name" : "Çatalca",
               "short_name" : "Çatalca",
               "types" : [ "administrative_area_level_2", "political" ]
            },
            {
               "long_name" : "İstanbul",
               "short_name" : "İstanbul",
               "types" : [ "administrative_area_level_1", "political" ]
            },
            {
               "long_name" : "Turkey",
               "short_name" : "TR",
               "types" : [ "country", "political" ]
            }
         ],
         "formatted_address" : "34540 Çatalca/İstanbul, Turkey",
         "geometry" : {
            "bounds" : {
               "northeast" : {
                  "lat" : 41.1920461,
                  "lng" : 28.506058
               },
               "southwest" : {
                  "lat" : 41.109625,
                  "lng" : 28.4074971
               }
            },
            "location" : {
               "lat" : 41.1651974,
               "lng" : 28.451357
            },
            "location_type" : "APPROXIMATE",
            "viewport" : {
               "northeast" : {
                  "lat" : 41.1920461,
                  "lng" : 28.506058
               },
               "southwest" : {
                  "lat" : 41.109625,
                  "lng" : 28.4074971
               }
            }
         },
         "place_id" : "ChIJ6Y5JS3FFtRQR6YXjodxi_Jk",
         "types" : [ "postal_code" ]
      },
      {
         "address_components" : [
            {
               "long_name" : "Çatalca",
               "short_name" : "Çatalca",
               "types" : [ "administrative_area_level_2", "political" ]
            },
            {
               "long_name" : "İstanbul",
               "short_name" : "İstanbul",
               "types" : [ "administrative_area_level_1", "political" ]
            },
            {
               "long_name" : "Turkey",
               "short_name" : "TR",
               "types" : [ "country", "political" ]
            }
         ],
         "formatted_address" : "Çatalca/İstanbul, Turkey",
         "geometry" : {
            "bounds" : {
               "northeast" : {
                  "lat" : 41.58461,
                  "lng" : 28.59534
               },
               "southwest" : {
                  "lat" : 41.0557701,
                  "lng" : 28.070497
               }
            },
            "location" : {
               "lat" : 41.3795031,
               "lng" : 28.3773933
            },
            "location_type" : "APPROXIMATE",
            "viewport" : {
               "northeast" : {
                  "lat" : 41.58461,
                  "lng" : 28.59534
               },
               "southwest" : {
                  "lat" : 41.0557701,
                  "lng" : 28.070497
               }
            }
         },
         "place_id" : "ChIJqT_suWBLtRQRME_Q_N_XD4I",
         "types" : [ "administrative_area_level_2", "political" ]
      },
      {
         "address_components" : [
            {
               "long_name" : "İstanbul",
               "short_name" : "İstanbul",
               "types" : [ "administrative_area_level_1", "political" ]
            },
            {
               "long_name" : "Turkey",
               "short_name" : "TR",
               "types" : [ "country", "political" ]
            }
         ],
         "formatted_address" : "İstanbul, Turkey",
         "geometry" : {
            "bounds" : {
               "northeast" : {
                  "lat" : 41.58461,
                  "lng" : 29.915705
               },
               "southwest" : {
                  "lat" : 40.8026889,
                  "lng" : 27.971373
               }
            },
            "location" : {
               "lat" : 41.1634302,
               "lng" : 28.7664408
            },
            "location_type" : "APPROXIMATE",
            "viewport" : {
               "northeast" : {
                  "lat" : 41.58461,
                  "lng" : 29.915705
               },
               "southwest" : {
                  "lat" : 40.8026889,
                  "lng" : 27.971373
               }
            }
         },
         "place_id" : "ChIJexVgWlG2yhQR6B1akfSarCI",
         "types" : [ "administrative_area_level_1", "political" ]
      },
      {
         "address_components" : [
            {
               "long_name" : "Turkey",
               "short_name" : "TR",
               "types" : [ "country", "political" ]
            }
         ],
         "formatted_address" : "Turkey",
         "geometry" : {
            "bounds" : {
               "northeast" : {
                  "lat" : 42.3666999,
                  "lng" : 44.8178449
               },
               "southwest" : {
                  "lat" : 35.808592,
                  "lng" : 25.5377
               }
            },
            "location" : {
               "lat" : 38.963745,
               "lng" : 35.243322
            },
            "location_type" : "APPROXIMATE",
            "viewport" : {
               "northeast" : {
                  "lat" : 42.3666999,
                  "lng" : 44.8178449
               },
               "southwest" : {
                  "lat" : 35.808592,
                  "lng" : 25.5377
               }
            }
         },
         "place_id" : "ChIJcSZPllwVsBQRKl9iKtTb2UA",
         "types" : [ "country", "political" ]
      }
   ],
   "status" : "OK"
}
