{
   "plus_code" : {
      "compound_code" : "32C2+W3V Şişli/İstanbul, Turkey",
      "global_code" : "8GHF32C2+W3V"
   },
   "results" : [
      {
         "address_components" : [
            {
               "long_name" : "31",
               "short_name" : "31",
               "types" : [ "street_number" ]
            },
            {
               "long_name" : "Bıldırcın Sokak",
               "short_name" : "Bıldırcın Sk.",
               "types" : [ "route" ]
            },
            {
               "long_name" : "Gülbahar",
               "short_name" : "Gülbahar",
               "types" : [ "administrative_area_level_4", "political" ]
            },
            {
               "long_name" : "Şişli",
               "short_name" : "Şişli",
               "types" : [ "administrative_area_level_2", "political" ]
            },
            {
               "long_name" : "İstanbul",
               "short_name" : "İstanbul",
               "types" : [ "administrative_area_level_1", "political" ]
            },
            {
               "long_name" : "Turkey",
               "short_name" : "TR",
               "types" : [ "country", "political" ]
            },
            {
               "long_name" : "34394",
               "short_name" : "34394",
               "types" : [ "postal_code" ]
            }
         ],
         "formatted_address" : "Gülbahar, Bıldırcın Sk. No:31, 34394 Şişli/İstanbul, Turkey",
         "geometry" : {
            "bounds" : {
               "northeast" : {
                  "lat" : 41.0724025,
                  "lng" : 29.0001349
               },
               "southwest" : {
                  "lat" : 41.07211,
                  "lng" : 28.9999093
               }
            },
            "location" : {
               "lat" : 41.072194,
               "lng" : 28.9999599
            },
            "location_type" : "ROOFTOP",
            "viewport" : {
               "northeast" : {
                  "lat" : 41.0736052302915,
                  "lng" : 29.0013710802915
               },
               "southwest" : {
                  "lat" : 41.0709072697085,
                  "lng" : 28.9986731197085
               }
            }
         },
         "place_id" : "ChIJSfM9BVi2yhQRyYBflwNm57Y",
         "types" : [ "premise" ]
      },
      {
         "address_components" : [
            {
               "long_name" : "38",
               "short_name" : "38",
               "types" : [ "street_number" ]
            },
            {
               "long_name" : "Bıldırcın Sokak",
               "short_name" : "Bıldırcın Sk.",
               "types" : [ "route" ]
            },
            {
               "long_name" : "Gülbahar",
               "short_name" : "Gülbahar",
               "types" : [ "administrative_area_level_4", "political" ]
            },
            {
               "long_name" : "Şişli",
               "short_name" : "Şişli",
               "types" : [ "administrative_area_level_2", "political" ]
            },
            {
               "long_name" : "İstanbul",
               "short_name" : "İstanbul",
               "types" : [ "administrative_area_level_1", "political" ]
            },
            {
               "long_name" : "Turkey",
               "short_name" : "TR",
               "types" : [ "country", "political" ]
            },
            {
               "long_name" : "34394",
               "short_name" : "34394",
               "types" : [ "postal_code" ]
            }
         ],
         "formatted_address" : "Gülbahar, Bıldırcın Sk. No:38, 34394 Şişli/İstanbul, Turkey",
         "geometry" : {
            "location" : {
               "lat" : 41.0723773,
               "lng" : 29.0002893
            },
            "location_type" : "ROOFTOP",
            "viewport" : {
               "northeast" : {
                  "lat" : 41.0737262802915,
                  "lng" : 29.0016382802915
               },
               "southwest" : {
                  "lat" : 41.0710283197085,
                  "lng" : 28.9989403197085
               }
            }
         },
         "place_id" : "ChIJlaRzEFi2yhQRH7GQGiXxzHs",
         "plus_code" : {
            "compound_code" : "32C2+X4 Şişli/İstanbul, Turkey",
            "global_code" : "8GHF32C2+X4"
         },
         "types" : [ "street_address" ]
      },
      {
         "address_components" : [
            {
               "long_name" : "38",
               "short_name" : "38",
               "types" : [ "street_number" ]
            },
            {
               "long_name" : "Bıldırcın Sokak",
               "short_name" : "Bıldırcın Sk.",
               "types" : [ "route" ]
            },
            {
               "long_name" : "Gülbahar",
               "short_name" : "Gülbahar",
               "types" : [ "administrative_area_level_4", "political" ]
            },
            {
               "long_name" : "Şişli",
               "short_name" : "Şişli",
               "types" : [ "administrative_area_level_2", "political" ]
            },
            {
               "long_name" : "İstanbul",
               "short_name" : "İstanbul",
               "types" : [ "administrative_area_level_1", "political" ]
            },
            {
               "long_name" : "Turkey",
               "short_name" : "TR",
               "types" : [ "country", "political" ]
            },
            {
               "long_name" : "34394",
               "short_name" : "34394",
               "types" : [ "postal_code" ]
            }
         ],
         "formatted_address" : "Gülbahar, Bıldırcın Sk. No:38, 34394 Şişli/İstanbul, Turkey",
         "geometry" : {
            "location" : {
               "lat" : 41.0723875,
               "lng" : 29.0002298
            },
            "location_type" : "RANGE_INTERPOLATED",
            "viewport" : {
               "northeast" : {
                  "lat" : 41.07373648029149,
                  "lng" : 29.0015787802915
               },
               "southwest" : {
                  "lat" : 41.07103851970849,
                  "lng" : 28.9988808197085
               }
            }
         },
         "place_id" : "EkJHw7xsYmFoYXIsIELEsWxkxLFyY8SxbiBTay4gTm86MzgsIDM0Mzk0IMWeacWfbGkvxLBzdGFuYnVsLCBUdXJrZXkiGhIYChQKEgnf-DUQWLbKFBHeMKBhveAtIhAm",
         "types" : [ "street_address" ]
      },
      {
         "address_components" : [
            {
               "long_name" : "32C2+W3",
               "short_name" : "32C2+W3",
               "types" : [ "plus_code" ]
            },
            {
               "long_name" : "Şişli",
               "short_name" : "Şişli",
               "types" : [ "administrative_area_level_2", "political" ]
            },
            {
               "long_name" : "İstanbul",
               "short_name" : "İstanbul",
               "types" : [ "administrative_area_level_1", "political" ]
            },
            {
               "long_name" : "Turkey",
               "short_name" : "TR",
               "types" : [ "country", "political" ]
            }
         ],
         "formatted_address" : "32C2+W3 Şişli/İstanbul, Turkey",
         "geometry" : {
            "bounds" : {
               "northeast" : {
                  "lat" : 41.072375,
                  "lng" : 29.00025
               },
               "southwest" : {
                  "lat" : 41.07225,
                  "lng" : 29.00012499999999
               }
            },
            "location" : {
               "lat" : 41.0723598,
               "lng" : 29.0001632
            },
            "location_type" : "GEOMETRIC_CENTER",
            "viewport" : {
               "northeast" : {
                  "lat" : 41.0736614802915,
                  "lng" : 29.00153648029149
               },
               "southwest" : {
                  "lat" : 41.0709635197085,
                  "lng" : 28.9988385197085
               }
            }
         },
         "place_id" : "GhIJxkX_FUOJREARp6kKsgoAPUA",
         "plus_code" : {
            "compound_code" : "32C2+W3 Şişli/İstanbul, Turkey",
            "global_code" : "8GHF32C2+W3"
         },
         "types" : [ "plus_code" ]
      },
      {
         "address_components" : [
            {
               "long_name" : "34-36",
               "short_name" : "34-36",
               "types" : [ "street_number" ]
            },
            {
               "long_name" : "Bıldırcın Sokak",
               "short_name" : "Bıldırcın Sk.",
               "types" : [ "route" ]
            },
            {
               "long_name" : "Gülbahar",
               "short_name" : "Gülbahar",
               "types" : [ "administrative_area_level_4", "political" ]
            },
            {
               "long_name" : "Şişli",
               "short_name" : "Şişli",
               "types" : [ "administrative_area_level_2", "political" ]
            },
            {
               "long_name" : "İstanbul",
               "short_name" : "İstanbul",
               "types" : [ "administrative_area_level_1", "political" ]
            },
            {
               "long_name" : "Turkey",
               "short_name" : "TR",
               "types" : [ "country", "political" ]
            },
            {
               "long_name" : "34394",
               "short_name" : "34394",
               "types" : [ "postal_code" ]
            }
         ],
         "formatted_address" : "Gülbahar, Bıldırcın Sk. 34-36, 34394 Şişli/İstanbul, Turkey",
         "geometry" : {
            "bounds" : {
               "northeast" : {
                  "lat" : 41.07235499999999,
                  "lng" : 29.00022
               },
               "southwest" : {
                  "lat" : 41.072119,
                  "lng" : 29.00012
               }
            },
            "location" : {
               "lat" : 41.072237,
               "lng" : 29.00017
            },
            "location_type" : "GEOMETRIC_CENTER",
            "viewport" : {
               "northeast" : {
                  "lat" : 41.0735859802915,
                  "lng" : 29.0015189802915
               },
               "southwest" : {
                  "lat" : 41.0708880197085,
                  "lng" : 28.9988210197085
               }
            }
         },
         "place_id" : "ChIJHxTTGli2yhQRPFj-OlTlJks",
         "types" : [ "route" ]
      },
      {
         "address_components" : [
            {
               "long_name" : "34394",
               "short_name" : "34394",
               "types" : [ "postal_code" ]
            },
            {
               "long_name" : "Gülbahar",
               "short_name" : "Gülbahar",
               "types" : [ "administrative_area_level_4", "political" ]
            },
            {
               "long_name" : "Şişli",
               "short_name" : "Şişli",
               "types" : [ "administrative_area_level_2", "political" ]
            },
            {
               "long_name" : "İstanbul",
               "short_name" : "İstanbul",
               "types" : [ "administrative_area_level_1", "political" ]
            },
            {
               "long_name" : "Turkey",
               "short_name" : "TR",
               "types" : [ "country", "political" ]
            }
         ],
         "formatted_address" : "Gülbahar, 34394 Şişli/İstanbul, Turkey",
         "geometry" : {
            "bounds" : {
               "northeast" : {
                  "lat" : 41.076612,
                  "lng" : 29.0049551
               },
               "southwest" : {
                  "lat" : 41.066515,
                  "lng" : 28.993743
               }
            },
            "location" : {
               "lat" : 41.0723598,
               "lng" : 29.0001632
            },
            "location_type" : "APPROXIMATE",
            "viewport" : {
               "northeast" : {
                  "lat" : 41.076612,
                  "lng" : 29.0049551
               },
               "southwest" : {
                  "lat" : 41.066515,
                  "lng" : 28.993743
               }
            }
         },
         "place_id" : "ChIJiZmfB_i2yhQRIuQJHHsh_Os",
         "types" : [ "postal_code" ]
      },
      {
         "address_components" : [
            {
               "long_name" : "Gülbahar",
               "short_name" : "Gülbahar",
               "types" : [ "administrative_area_level_4", "political" ]
            },
            {
               "long_name" : "Şişli",
               "short_name" : "Şişli",
               "types" : [ "administrative_area_level_2", "political" ]
            },
            {
               "long_name" : "İstanbul",
               "short_name" : "İstanbul",
               "types" : [ "administrative_area_level_1", "political" ]
            },
            {
               "long_name" : "Turkey",
               "short_name" : "TR",
               "types" : [ "country", "political" ]
            }
         ],
         "formatted_address" : "Gülbahar, Şişli/İstanbul, Turkey",
         "geometry" : {
            "bounds" : {
               "northeast" : {
                  "lat" : 41.076612,
                  "lng" : 29.0049551
               },
               "southwest" : {
                  "lat" : 41.066515,
                  "lng" : 28.993743
               }
            },
            "location" : {
               "lat" : 41.0723598,
               "lng" : 29.0001632
            },
            "location_type" : "APPROXIMATE",
            "viewport" : {
               "northeast" : {
                  "lat" : 41.076612,
                  "lng" : 29.0049551
               },
               "southwest" : {
                  "lat" : 41.066515,
                  "lng" : 28.993743
               }
            }
         },
         "place_id" : "ChIJiZmfB_i2yhQRkqBbywysyyc",
         "types" : [ "administrative_area_level_4", "political" ]
      },
      {
         "address_components" : [
            {
               "long_name" : "Şişli",
               "short_name" : "Şişli",
               "types" : [ "administrative_area_level_2", "political" ]
            },
            {
               "long_name" : "İstanbul",
               "short_name" : "İstanbul",
               "types" : [ "administrative_area_level_1", "political" ]
            },
            {
               "long_name" : "Turkey",
               "short_name" : "TR",
               "types" : [ "country", "political" ]
            }
         ],
         "formatted_address" : "Şişli/İstanbul, Turkey",
         "geometry" : {
            "bounds" : {
               "northeast" : {
                  "lat" : 41.0847701,
                  "lng" : 29.016067
               },
               "southwest" : {
                  "lat" : 41.040198,
                  "lng" : 28.961649
               }
            },
            "location" : {
               "lat" : 41.0536216,
               "lng" : 28.9819731
            },
            "location_type" : "APPROXIMATE",
            "viewport" : {
               "northeast" : {
                  "lat" : 41.0847701,
                  "lng" : 29.016067
               },
               "southwest" : {
                  "lat" : 41.040198,
                  "lng" : 28.961649
               }
            }
         },
         "place_id" : "ChIJeVlvyIW2yhQR2pizD55HGSU",
         "types" : [ "administrative_area_level_2", "political" ]
      },
      {
         "address_components" : [
            {
               "long_name" : "European Side",
               "short_name" : "European Side",
               "types" : [ "neighborhood", "political" ]
            },
            {
               "long_name" : "İstanbul",
               "short_name" : "İstanbul",
               "types" : [ "administrative_area_level_1", "political" ]
            },
            {
               "long_name" : "Turkey",
               "short_name" : "TR",
               "types" : [ "country", "political" ]
            }
         ],
         "formatted_address" : "European Side, İstanbul, Turkey",
         "geometry" : {
            "bounds" : {
               "northeast" : {
                  "lat" : 41.199239,
                  "lng" : 29.077487
               },
               "southwest" : {
                  "lat" : 40.954508,
                  "lng" : 28.595554
               }
            },
            "location" : {
               "lat" : 41.0286909,
               "lng" : 28.92404269999999
            },
            "location_type" : "APPROXIMATE",
            "viewport" : {
               "northeast" : {
                  "lat" : 41.199239,
                  "lng" : 29.077487
               },
               "southwest" : {
                  "lat" : 40.954508,
                  "lng" : 28.595554
               }
            }
         },
         "place_id" : "ChIJhTq6hpGkyhQRC5OjsPQ0MVY",
         "types" : [ "neighborhood", "political" ]
      },
      {
         "address_components" : [
            {
               "long_name" : "İstanbul",
               "short_name" : "İstanbul",
               "types" : [ "locality", "political" ]
            },
            {
               "long_name" : "İstanbul",
               "short_name" : "İstanbul",
               "types" : [ "administrative_area_level_1", "political" ]
            },
            {
               "long_name" : "Turkey",
               "short_name" : "TR",
               "types" : [ "country", "political" ]
            }
         ],
         "formatted_address" : "İstanbul, Turkey",
         "geometry" : {
            "bounds" : {
               "northeast" : {
                  "lat" : 41.199239,
                  "lng" : 29.4288049
               },
               "southwest" : {
                  "lat" : 40.811404,
                  "lng" : 28.595554
               }
            },
            "location" : {
               "lat" : 41.0082376,
               "lng" : 28.9783589
            },
            "location_type" : "APPROXIMATE",
            "viewport" : {
               "northeast" : {
                  "lat" : 41.199239,
                  "lng" : 29.4288049
               },
               "southwest" : {
                  "lat" : 40.811404,
                  "lng" : 28.595554
               }
            }
         },
         "place_id" : "ChIJawhoAASnyhQR0LABvJj-zOE",
         "types" : [ "locality", "political" ]
      },
      {
         "address_components" : [
            {
               "long_name" : "İstanbul",
               "short_name" : "İstanbul",
               "types" : [ "administrative_area_level_1", "political" ]
            },
            {
               "long_name" : "Turkey",
               "short_name" : "TR",
               "types" : [ "country", "political" ]
            }
         ],
         "formatted_address" : "İstanbul, Turkey",
         "geometry" : {
            "bounds" : {
               "northeast" : {
                  "lat" : 41.58461,
                  "lng" : 29.915705
               },
               "southwest" : {
                  "lat" : 40.8026889,
                  "lng" : 27.971373
               }
            },
            "location" : {
               "lat" : 41.1634302,
               "lng" : 28.7664408
            },
            "location_type" : "APPROXIMATE",
            "viewport" : {
               "northeast" : {
                  "lat" : 41.58461,
                  "lng" : 29.915705
               },
               "southwest" : {
                  "lat" : 40.8026889,
                  "lng" : 27.971373
               }
            }
         },
         "place_id" : "ChIJexVgWlG2yhQR6B1akfSarCI",
         "types" : [ "administrative_area_level_1", "political" ]
      },
      {
         "address_components" : [
            {
               "long_name" : "Turkey",
               "short_name" : "TR",
               "types" : [ "country", "political" ]
            }
         ],
         "formatted_address" : "Turkey",
         "geometry" : {
            "bounds" : {
               "northeast" : {
                  "lat" : 42.3666999,
                  "lng" : 44.8178449
               },
               "southwest" : {
                  "lat" : 35.808592,
                  "lng" : 25.5377
               }
            },
            "location" : {
               "lat" : 38.963745,
               "lng" : 35.243322
            },
            "location_type" : "APPROXIMATE",
            "viewport" : {
               "northeast" : {
                  "lat" : 42.3666999,
                  "lng" : 44.8178449
               },
               "southwest" : {
                  "lat" : 35.808592,
                  "lng" : 25.5377
               }
            }
         },
         "place_id" : "ChIJcSZPllwVsBQRKl9iKtTb2UA",
         "types" : [ "country", "political" ]
      }
   ],
   "status" : "OK"
}
