{
   "plus_code" : {
      "compound_code" : "WV93+P8 Çankaya/Ankara, Turkey",
      "global_code" : "8GFJWV93+P8"
   },
   "results" : [
      {
         "address_components" : [
            {
               "long_name" : "Güvenpark",
               "short_name" : "Güvenpark",
               "types" : [ "establishment", "point_of_interest", "transit_station" ]
            },
            {
               "long_name" : "Devlet",
               "short_name" : "Devlet",
               "types" : [ "administrative_area_level_4", "political" ]
            },
            {
               "long_name" : "Çankaya",
               "short_name" : "Çankaya",
               "types" : [ "administrative_area_level_2", "political" ]
            },
            {
               "long_name" : "Ankara",
               "short_name" : "Ankara",
               "types" : [ "administrative_area_level_1", "political" ]
            },
            {
               "long_name" : "Turkey",
               "short_name" : "TR",
               "types" : [ "country", "political" ]
            },
            {
               "long_name" : "06420",
               "short_name" : "06420",
               "types" : [ "postal_code" ]
            }
         ],
         "formatted_address" : "Devlet, Güvenpark, 06420 Çankaya/Ankara, Turkey",
         "geometry" : {
            "location" : {
               "lat" : 39.9193186,
               "lng" : 32.8538472
            },
            "location_type" : "GEOMETRIC_CENTER",
            "viewport" : {
               "northeast" : {
                  "lat" : 39.9206675802915,
                  "lng" : 32.85519618029149
               },
               "southwest" : {
                  "lat" : 39.9179696197085,
                  "lng" : 32.85249821970849
               }
            }
         },
         "place_id" : "ChIJnemkfqpP0xQR0JkcQhM6Ok0",
         "plus_code" : {
            "compound_code" : "WV93+PG Çankaya/Ankara, Turkey",
            "global_code" : "8GFJWV93+PG"
         },
         "types" : [ "establishment", "point_of_interest", "transit_station" ]
      },
      {
         "address_components" : [
            {
               "long_name" : "Güvenpark İçi Yolu",
               "short_name" : "Güvenpark İçi Yolu",
               "types" : [ "route" ]
            },
            {
               "long_name" : "Devlet",
               "short_name" : "Devlet",
               "types" : [ "administrative_area_level_4", "political" ]
            },
            {
               "long_name" : "Çankaya",
               "short_name" : "Çankaya",
               "types" : [ "administrative_area_level_2", "political" ]
            },
            {
               "long_name" : "Ankara",
               "short_name" : "Ankara",
               "types" : [ "administrative_area_level_1", "political" ]
            },
            {
               "long_name" : "Turkey",
               "short_name" : "TR",
               "types" : [ "country", "political" ]
            },
            {
               "long_name" : "06420",
               "short_name" : "06420",
               "types" : [ "postal_code" ]
            }
         ],
         "formatted_address" : "Devlet, Güvenpark İçi Yolu, 06420 Çankaya/Ankara, Turkey",
         "geometry" : {
            "bounds" : {
               "northeast" : {
                  "lat" : 39.9192673,
                  "lng" : 32.853534
               },
               "southwest" : {
                  "lat" : 39.919248,
                  "lng" : 32.8532229
               }
            },
            "location" : {
               "lat" : 39.9192577,
               "lng" : 32.8533785
            },
            "location_type" : "GEOMETRIC_CENTER",
            "viewport" : {
               "northeast" : {
                  "lat" : 39.92060663029149,
                  "lng" : 32.85472743029149
               },
               "southwest" : {
                  "lat" : 39.9179086697085,
                  "lng" : 32.8520294697085
               }
            }
         },
         "place_id" : "ChIJB-H_ggBP0xQRjsRpQLBT2Z4",
         "types" : [ "route" ]
      },
      {
         "address_components" : [
            {
               "long_name" : "WV93+P8",
               "short_name" : "WV93+P8",
               "types" : [ "plus_code" ]
            },
            {
               "long_name" : "Çankaya",
               "short_name" : "Çankaya",
               "types" : [ "administrative_area_level_2", "political" ]
            },
            {
               "long_name" : "Ankara",
               "short_name" : "Ankara",
               "types" : [ "administrative_area_level_1", "political" ]
            },
            {
               "long_name" : "Turkey",
               "short_name" : "TR",
               "types" : [ "country", "political" ]
            }
         ],
         "formatted_address" : "WV93+P8 Çankaya/Ankara, Turkey",
         "geometry" : {
            "bounds" : {
               "northeast" : {
                  "lat" : 39.919375,
                  "lng" : 32.853375
               },
               "southwest" : {
                  "lat" : 39.91925,
                  "lng" : 32.85325
               }
            },
            "location" : {
               "lat" : 39.91928619999999,
               "lng" : 32.8533196
            },
            "location_type" : "ROOFTOP",
            "viewport" : {
               "northeast" : {
                  "lat" : 39.92066148029149,
                  "lng" : 32.8546614802915
               },
               "southwest" : {
                  "lat" : 39.91796351970849,
                  "lng" : 32.8519635197085
               }
            }
         },
         "place_id" : "GhIJAVWSK6v1Q0ARlYSfkzltQEA",
         "plus_code" : {
            "compound_code" : "WV93+P8 Çankaya/Ankara, Turkey",
            "global_code" : "8GFJWV93+P8"
         },
         "types" : [ "plus_code" ]
      },
      {
         "address_components" : [
            {
               "long_name" : "06420",
               "short_name" : "06420",
               "types" : [ "postal_code" ]
            },
            {
               "long_name" : "Devlet",
               "short_name" : "Devlet",
               "types" : [ "administrative_area_level_4", "political" ]
            },
            {
               "long_name" : "Çankaya",
               "short_name" : "Çankaya",
               "types" : [ "administrative_area_level_2", "political" ]
            },
            {
               "long_name" : "Ankara",
               "short_name" : "Ankara",
               "types" : [ "administrative_area_level_1", "political" ]
            },
            {
               "long_name" : "Turkey",
               "short_name" : "TR",
               "types" : [ "country", "political" ]
            }
         ],
         "formatted_address" : "Devlet, 06420 Çankaya/Ankara, Turkey",
         "geometry" : {
            "bounds" : {
               "northeast" : {
                  "lat" : 39.92091,
                  "lng" : 32.8549161
               },
               "southwest" : {
                  "lat" : 39.89462,
                  "lng" : 32.821336
               }
            },
            "location" : {
               "lat" : 39.9043064,
               "lng" : 32.83665560000001
            },
            "location_type" : "APPROXIMATE",
            "viewport" : {
               "northeast" : {
                  "lat" : 39.92091,
                  "lng" : 32.8549161
               },
               "southwest" : {
                  "lat" : 39.89462,
                  "lng" : 32.821336
               }
            }
         },
         "place_id" : "ChIJd2BlgFFO0xQRW99yIpn_2fk",
         "types" : [ "postal_code" ]
      },
      {
         "address_components" : [
            {
               "long_name" : "Devlet",
               "short_name" : "Devlet",
               "types" : [ "administrative_area_level_4", "political" ]
            },
            {
               "long_name" : "Çankaya",
               "short_name" : "Çankaya",
               "types" : [ "administrative_area_level_2", "political" ]
            },
            {
               "long_name" : "Ankara",
               "short_name" : "Ankara",
               "types" : [ "administrative_area_level_1", "political" ]
            },
            {
               "long_name" : "Turkey",
               "short_name" : "TR",
               "types" : [ "country", "political" ]
            },
            {
               "long_name" : "06420",
               "short_name" : "06420",
               "types" : [ "postal_code" ]
            }
         ],
         "formatted_address" : "Devlet, 06420 Çankaya/Ankara, Turkey",
         "geometry" : {
            "bounds" : {
               "northeast" : {
                  "lat" : 39.92091,
                  "lng" : 32.8549161
               },
               "southwest" : {
                  "lat" : 39.89462,
                  "lng" : 32.821336
               }
            },
            "location" : {
               "lat" : 39.9043064,
               "lng" : 32.83665560000001
            },
            "location_type" : "APPROXIMATE",
            "viewport" : {
               "northeast" : {
                  "lat" : 39.92091,
                  "lng" : 32.8549161
               },
               "southwest" : {
                  "lat" : 39.89462,
                  "lng" : 32.821336
               }
            }
         },
         "place_id" : "ChIJNeiQx2xP0xQRInj_Polwr5Q",
         "types" : [ "administrative_area_level_4", "political" ]
      },
      {
         "address_components" : [
            {
               "long_name" : "Çankaya",
               "short_name" : "Çankaya",
               "types" : [ "administrative_area_level_2", "political" ]
            },
            {
               "long_name" : "Ankara",
               "short_name" : "Ankara",
               "types" : [ "administrative_area_level_1", "political" ]
            },
            {
               "long_name" : "Turkey",
               "short_name" : "TR",
               "types" : [ "country", "political" ]
            }
         ],
         "formatted_address" : "Çankaya/Ankara, Turkey",
         "geometry" : {
            "bounds" : {
               "northeast" : {
                  "lat" : 39.93684,
                  "lng" : 33.139675
               },
               "southwest" : {
                  "lat" : 39.6581571,
                  "lng" : 32.625768
               }
            },
            "location" : {
               "lat" : 39.8451842,
               "lng" : 32.9212265
            },
            "location_type" : "APPROXIMATE",
            "viewport" : {
               "northeast" : {
                  "lat" : 39.93684,
                  "lng" : 33.139675
               },
               "southwest" : {
                  "lat" : 39.6581571,
                  "lng" : 32.625768
               }
            }
         },
         "place_id" : "ChIJYXI1n61F0xQRHW_97pHGAUs",
         "types" : [ "administrative_area_level_2", "political" ]
      },
      {
         "address_components" : [
            {
               "long_name" : "Ankara",
               "short_name" : "Ankara",
               "types" : [ "locality", "political" ]
            },
            {
               "long_name" : "Ankara",
               "short_name" : "Ankara",
               "types" : [ "administrative_area_level_1", "political" ]
            },
            {
               "long_name" : "Turkey",
               "short_name" : "TR",
               "types" : [ "country", "political" ]
            }
         ],
         "formatted_address" : "Ankara, Turkey",
         "geometry" : {
            "bounds" : {
               "northeast" : {
                  "lat" : 40.076332,
                  "lng" : 33.007056
               },
               "southwest" : {
                  "lat" : 39.7304211,
                  "lng" : 32.5184735
               }
            },
            "location" : {
               "lat" : 39.9333635,
               "lng" : 32.8597419
            },
            "location_type" : "APPROXIMATE",
            "viewport" : {
               "northeast" : {
                  "lat" : 40.076332,
                  "lng" : 33.007056
               },
               "southwest" : {
                  "lat" : 39.7304211,
                  "lng" : 32.5184735
               }
            }
         },
         "place_id" : "ChIJsS1zINVH0xQRjSuEwLBX3As",
         "types" : [ "locality", "political" ]
      },
      {
         "address_components" : [
            {
               "long_name" : "Ankara",
               "short_name" : "Ankara",
               "types" : [ "administrative_area_level_1", "political" ]
            },
            {
               "long_name" : "Turkey",
               "short_name" : "TR",
               "types" : [ "country", "political" ]
            }
         ],
         "formatted_address" : "Ankara, Turkey",
         "geometry" : {
            "bounds" : {
               "northeast" : {
                  "lat" : 40.756282,
                  "lng" : 33.871969
               },
               "southwest" : {
                  "lat" : 38.6699421,
                  "lng" : 30.8240371
               }
            },
            "location" : {
               "lat" : 39.7805245,
               "lng" : 32.7181375
            },
            "location_type" : "APPROXIMATE",
            "viewport" : {
               "northeast" : {
                  "lat" : 40.756282,
                  "lng" : 33.871969
               },
               "southwest" : {
                  "lat" : 38.6699421,
                  "lng" : 30.8240371
               }
            }
         },
         "place_id" : "ChIJ2UbubYMC0xQRePrg-9apYgY",
         "types" : [ "administrative_area_level_1", "political" ]
      },
      {
         "address_components" : [
            {
               "long_name" : "Turkey",
               "short_name" : "TR",
               "types" : [ "country", "political" ]
            }
         ],
         "formatted_address" : "Turkey",
         "geometry" : {
            "bounds" : {
               "northeast" : {
                  "lat" : 42.3666999,
                  "lng" : 44.8178449
               },
               "southwest" : {
                  "lat" : 35.808592,
                  "lng" : 25.5377
               }
            },
            "location" : {
               "lat" : 38.963745,
               "lng" : 35.243322
            },
            "location_type" : "APPROXIMATE",
            "viewport" : {
               "northeast" : {
                  "lat" : 42.3666999,
                  "lng" : 44.8178449
               },
               "southwest" : {
                  "lat" : 35.808592,
                  "lng" : 25.5377
               }
            }
         },
         "place_id" : "ChIJcSZPllwVsBQRKl9iKtTb2UA",
         "types" : [ "country", "political" ]
      }
   ],
   "status" : "OK"
}
