{
   "plus_code" : {
      "compound_code" : "X8RH+9V8 Seyhan/Adana, Turkey",
      "global_code" : "8G8QX8RH+9V8"
   },
   "results" : [
      {
         "address_components" : [
            {
               "long_name" : "12 C",
               "short_name" : "12 C",
               "types" : [ "street_number" ]
            },
            {
               "long_name" : "Ordu Caddesi",
               "short_name" : "Ordu Cd.",
               "types" : [ "route" ]
            },
            {
               "long_name" : "Reşatbey",
               "short_name" : "Reşatbey",
               "types" : [ "administrative_area_level_4", "political" ]
            },
            {
               "long_name" : "Seyhan",
               "short_name" : "Seyhan",
               "types" : [ "administrative_area_level_2", "political" ]
            },
            {
               "long_name" : "Adana",
               "short_name" : "Adana",
               "types" : [ "administrative_area_level_1", "political" ]
            },
            {
               "long_name" : "Turkey",
               "short_name" : "TR",
               "types" : [ "country", "political" ]
            },
            {
               "long_name" : "01120",
               "short_name" : "01120",
               "types" : [ "postal_code" ]
            }
         ],
         "formatted_address" : "Reşatbey, Ordu Cd. 12 C, 01120 Seyhan/Adana, Turkey",
         "geometry" : {
            "bounds" : {
               "northeast" : {
                  "lat" : 36.9912106,
                  "lng" : 35.3298593
               },
               "southwest" : {
                  "lat" : 36.9906516,
                  "lng" : 35.3295996
               }
            },
            "location" : {
               "lat" : 36.9909167,
               "lng" : 35.3297144
            },
            "location_type" : "ROOFTOP",
            "viewport" : {
               "northeast" : {
                  "lat" : 36.99228008029149,
                  "lng" : 35.33107843029151
               },
               "southwest" : {
                  "lat" : 36.9895821197085,
                  "lng" : 35.32838046970851
               }
            }
         },
         "place_id" : "ChIJ9Ys_rmiPKBURTgWxJ09Xuk8",
         "types" : [ "premise" ]
      },
      {
         "address_components" : [
            {
               "long_name" : "3",
               "short_name" : "3",
               "types" : [ "street_number" ]
            },
            {
               "long_name" : "Ordu Caddesi",
               "short_name" : "Ordu Cd.",
               "types" : [ "route" ]
            },
            {
               "long_name" : "Kayalıbağ",
               "short_name" : "Kayalıbağ",
               "types" : [ "administrative_area_level_4", "political" ]
            },
            {
               "long_name" : "Seyhan",
               "short_name" : "Seyhan",
               "types" : [ "administrative_area_level_2", "political" ]
            },
            {
               "long_name" : "Adana",
               "short_name" : "Adana",
               "types" : [ "administrative_area_level_1", "political" ]
            },
            {
               "long_name" : "Turkey",
               "short_name" : "TR",
               "types" : [ "country", "political" ]
            },
            {
               "long_name" : "01010",
               "short_name" : "01010",
               "types" : [ "postal_code" ]
            }
         ],
         "formatted_address" : "Kayalıbağ, Ordu Cd. No:3, 01010 Seyhan/Adana, Turkey",
         "geometry" : {
            "location" : {
               "lat" : 36.9911311,
               "lng" : 35.3295258
            },
            "location_type" : "ROOFTOP",
            "viewport" : {
               "northeast" : {
                  "lat" : 36.9924800802915,
                  "lng" : 35.3308747802915
               },
               "southwest" : {
                  "lat" : 36.9897821197085,
                  "lng" : 35.3281768197085
               }
            }
         },
         "place_id" : "ChIJ3xYSsGiPKBURT4LMl5R8yXk",
         "plus_code" : {
            "compound_code" : "X8RH+FR Seyhan/Adana, Turkey",
            "global_code" : "8G8QX8RH+FR"
         },
         "types" : [ "street_address" ]
      },
      {
         "address_components" : [
            {
               "long_name" : "12",
               "short_name" : "12",
               "types" : [ "street_number" ]
            },
            {
               "long_name" : "Ordu Caddesi",
               "short_name" : "Ordu Cd.",
               "types" : [ "route" ]
            },
            {
               "long_name" : "Kayalıbağ",
               "short_name" : "Kayalıbağ",
               "types" : [ "administrative_area_level_4", "political" ]
            },
            {
               "long_name" : "Seyhan",
               "short_name" : "Seyhan",
               "types" : [ "administrative_area_level_2", "political" ]
            },
            {
               "long_name" : "Adana",
               "short_name" : "Adana",
               "types" : [ "administrative_area_level_1", "political" ]
            },
            {
               "long_name" : "Turkey",
               "short_name" : "TR",
               "types" : [ "country", "political" ]
            },
            {
               "long_name" : "01010",
               "short_name" : "01010",
               "types" : [ "postal_code" ]
            }
         ],
         "formatted_address" : "Kayalıbağ, Ordu Cd. No:12, 01010 Seyhan/Adana, Turkey",
         "geometry" : {
            "location" : {
               "lat" : 36.9909496,
               "lng" : 35.3295823
            },
            "location_type" : "RANGE_INTERPOLATED",
            "viewport" : {
               "northeast" : {
                  "lat" : 36.9922985802915,
                  "lng" : 35.33093128029149
               },
               "southwest" : {
                  "lat" : 36.9896006197085,
                  "lng" : 35.3282333197085
               }
            }
         },
         "place_id" : "EjdLYXlhbMSxYmHEnywgT3JkdSBDZC4gTm86MTIsIDAxMDEwIFNleWhhbi9BZGFuYSwgVHVya2V5IhoSGAoUChIJe8-wr2iPKBURz9-yLsUeXXoQDA",
         "types" : [ "street_address" ]
      },
      {
         "address_components" : [
            {
               "long_name" : "X8RH+9V",
               "short_name" : "X8RH+9V",
               "types" : [ "plus_code" ]
            },
            {
               "long_name" : "Seyhan",
               "short_name" : "Seyhan",
               "types" : [ "administrative_area_level_2", "political" ]
            },
            {
               "long_name" : "Adana",
               "short_name" : "Adana",
               "types" : [ "administrative_area_level_1", "political" ]
            },
            {
               "long_name" : "Turkey",
               "short_name" : "TR",
               "types" : [ "country", "political" ]
            }
         ],
         "formatted_address" : "X8RH+9V Seyhan/Adana, Turkey",
         "geometry" : {
            "bounds" : {
               "northeast" : {
                  "lat" : 36.991,
                  "lng" : 35.32975
               },
               "southwest" : {
                  "lat" : 36.990875,
                  "lng" : 35.329625
               }
            },
            "location" : {
               "lat" : 36.9909167,
               "lng" : 35.3297144
            },
            "location_type" : "GEOMETRIC_CENTER",
            "viewport" : {
               "northeast" : {
                  "lat" : 36.99228648029149,
                  "lng" : 35.3310364802915
               },
               "southwest" : {
                  "lat" : 36.9895885197085,
                  "lng" : 35.3283385197085
               }
            }
         },
         "place_id" : "GhIJtsfBW9Z-QkARmILaFDSqQUA",
         "plus_code" : {
            "compound_code" : "X8RH+9V Seyhan/Adana, Turkey",
            "global_code" : "8G8QX8RH+9V"
         },
         "types" : [ "plus_code" ]
      },
      {
         "address_components" : [
            {
               "long_name" : "3",
               "short_name" : "3",
               "types" : [ "street_number" ]
            },
            {
               "long_name" : "Ordu Caddesi",
               "short_name" : "Ordu Cd.",
               "types" : [ "route" ]
            },
            {
               "long_name" : "Kayalıbağ",
               "short_name" : "Kayalıbağ",
               "types" : [ "administrative_area_level_4", "political" ]
            },
            {
               "long_name" : "Seyhan",
               "short_name" : "Seyhan",
               "types" : [ "administrative_area_level_2", "political" ]
            },
            {
               "long_name" : "Adana",
               "short_name" : "Adana",
               "types" : [ "administrative_area_level_1", "political" ]
            },
            {
               "long_name" : "Turkey",
               "short_name" : "TR",
               "types" : [ "country", "political" ]
            },
            {
               "long_name" : "01010",
               "short_name" : "01010",
               "types" : [ "postal_code" ]
            }
         ],
         "formatted_address" : "Kayalıbağ, Ordu Cd. No:3, 01010 Seyhan/Adana, Turkey",
         "geometry" : {
            "bounds" : {
               "northeast" : {
                  "lat" : 36.9913343,
                  "lng" : 35.3297325
               },
               "southwest" : {
                  "lat" : 36.9906021,
                  "lng" : 35.3294466
               }
            },
            "location" : {
               "lat" : 36.9909682,
               "lng" : 35.3295895
            },
            "location_type" : "GEOMETRIC_CENTER",
            "viewport" : {
               "northeast" : {
                  "lat" : 36.99231718029149,
                  "lng" : 35.3309385302915
               },
               "southwest" : {
                  "lat" : 36.98961921970849,
                  "lng" : 35.32824056970851
               }
            }
         },
         "place_id" : "ChIJe8-wr2iPKBURzt-yLsUeXXo",
         "types" : [ "route" ]
      },
      {
         "address_components" : [
            {
               "long_name" : "01010",
               "short_name" : "01010",
               "types" : [ "postal_code" ]
            },
            {
               "long_name" : "Kayalıbağ",
               "short_name" : "Kayalıbağ",
               "types" : [ "administrative_area_level_4", "political" ]
            },
            {
               "long_name" : "Seyhan",
               "short_name" : "Seyhan",
               "types" : [ "administrative_area_level_2", "political" ]
            },
            {
               "long_name" : "Adana",
               "short_name" : "Adana",
               "types" : [ "administrative_area_level_1", "political" ]
            },
            {
               "long_name" : "Turkey",
               "short_name" : "TR",
               "types" : [ "country", "political" ]
            }
         ],
         "formatted_address" : "Kayalıbağ, 01010 Seyhan/Adana, Turkey",
         "geometry" : {
            "bounds" : {
               "northeast" : {
                  "lat" : 36.991948,
                  "lng" : 35.3354729
               },
               "southwest" : {
                  "lat" : 36.98665099999999,
                  "lng" : 35.325471
               }
            },
            "location" : {
               "lat" : 36.9894437,
               "lng" : 35.3308505
            },
            "location_type" : "APPROXIMATE",
            "viewport" : {
               "northeast" : {
                  "lat" : 36.991948,
                  "lng" : 35.3354729
               },
               "southwest" : {
                  "lat" : 36.98665099999999,
                  "lng" : 35.325471
               }
            }
         },
         "place_id" : "ChIJI0MSvYNiKBURr83lef1bNUk",
         "types" : [ "postal_code" ]
      },
      {
         "address_components" : [
            {
               "long_name" : "Kayalıbağ",
               "short_name" : "Kayalıbağ",
               "types" : [ "administrative_area_level_4", "political" ]
            },
            {
               "long_name" : "Seyhan",
               "short_name" : "Seyhan",
               "types" : [ "administrative_area_level_2", "political" ]
            },
            {
               "long_name" : "Adana",
               "short_name" : "Adana",
               "types" : [ "administrative_area_level_1", "political" ]
            },
            {
               "long_name" : "Turkey",
               "short_name" : "TR",
               "types" : [ "country", "political" ]
            },
            {
               "long_name" : "01010",
               "short_name" : "01010",
               "types" : [ "postal_code" ]
            }
         ],
         "formatted_address" : "Kayalıbağ, 01010 Seyhan/Adana, Turkey",
         "geometry" : {
            "bounds" : {
               "northeast" : {
                  "lat" : 36.991948,
                  "lng" : 35.3354729
               },
               "southwest" : {
                  "lat" : 36.986672,
                  "lng" : 35.325471
               }
            },
            "location" : {
               "lat" : 36.9894437,
               "lng" : 35.3308505
            },
            "location_type" : "APPROXIMATE",
            "viewport" : {
               "northeast" : {
                  "lat" : 36.991948,
                  "lng" : 35.3354729
               },
               "southwest" : {
                  "lat" : 36.986672,
                  "lng" : 35.325471
               }
            }
         },
         "place_id" : "ChIJDaZTCmaPKBURJOzazwlQzcE",
         "types" : [ "administrative_area_level_4", "political" ]
      },
      {
         "address_components" : [
            {
               "long_name" : "Adana",
               "short_name" : "Adana",
               "types" : [ "locality", "political" ]
            },
            {
               "long_name" : "Reşatbey",
               "short_name" : "Reşatbey",
               "types" : [ "administrative_area_level_4", "political" ]
            },
            {
               "long_name" : "Seyhan",
               "short_name" : "Seyhan",
               "types" : [ "administrative_area_level_2", "political" ]
            },
            {
               "long_name" : "Adana",
               "short_name" : "Adana",
               "types" : [ "administrative_area_level_1", "political" ]
            },
            {
               "long_name" : "Turkey",
               "short_name" : "TR",
               "types" : [ "country", "political" ]
            }
         ],
         "formatted_address" : "Adana, Reşatbey, Seyhan/Adana, Turkey",
         "geometry" : {
            "bounds" : {
               "northeast" : {
                  "lat" : 37.065693,
                  "lng" : 35.472058
               },
               "southwest" : {
                  "lat" : 36.929137,
                  "lng" : 35.104076
               }
            },
            "location" : {
               "lat" : 36.9914194,
               "lng" : 35.3308285
            },
            "location_type" : "APPROXIMATE",
            "viewport" : {
               "northeast" : {
                  "lat" : 37.065693,
                  "lng" : 35.472058
               },
               "southwest" : {
                  "lat" : 36.929137,
                  "lng" : 35.104076
               }
            }
         },
         "place_id" : "ChIJk3GcpziPKBURBuoLWNh0FtY",
         "types" : [ "locality", "political" ]
      },
      {
         "address_components" : [
            {
               "long_name" : "Seyhan",
               "short_name" : "Seyhan",
               "types" : [ "administrative_area_level_2", "political" ]
            },
            {
               "long_name" : "Adana",
               "short_name" : "Adana",
               "types" : [ "administrative_area_level_1", "political" ]
            },
            {
               "long_name" : "Turkey",
               "short_name" : "TR",
               "types" : [ "country", "political" ]
            }
         ],
         "formatted_address" : "Seyhan/Adana, Turkey",
         "geometry" : {
            "bounds" : {
               "northeast" : {
                  "lat" : 37.0400289,
                  "lng" : 35.3383131
               },
               "southwest" : {
                  "lat" : 36.790335,
                  "lng" : 35.0928209
               }
            },
            "location" : {
               "lat" : 36.9674013,
               "lng" : 35.2587964
            },
            "location_type" : "APPROXIMATE",
            "viewport" : {
               "northeast" : {
                  "lat" : 37.0400289,
                  "lng" : 35.3383131
               },
               "southwest" : {
                  "lat" : 36.790335,
                  "lng" : 35.0928209
               }
            }
         },
         "place_id" : "ChIJIRGfWR1-KBURVb2kAH908LQ",
         "types" : [ "administrative_area_level_2", "political" ]
      },
      {
         "address_components" : [
            {
               "long_name" : "Adana",
               "short_name" : "Adana",
               "types" : [ "administrative_area_level_1", "political" ]
            },
            {
               "long_name" : "Turkey",
               "short_name" : "TR",
               "types" : [ "country", "political" ]
            }
         ],
         "formatted_address" : "Adana, Turkey",
         "geometry" : {
            "bounds" : {
               "northeast" : {
                  "lat" : 38.4046139,
                  "lng" : 36.4116219
               },
               "southwest" : {
                  "lat" : 36.5382869,
                  "lng" : 34.567042
               }
            },
            "location" : {
               "lat" : 37.2612315,
               "lng" : 35.3905046
            },
            "location_type" : "APPROXIMATE",
            "viewport" : {
               "northeast" : {
                  "lat" : 38.4046139,
                  "lng" : 36.4116219
               },
               "southwest" : {
                  "lat" : 36.5382869,
                  "lng" : 34.567042
               }
            }
         },
         "place_id" : "ChIJg21zJkCPKBURF3JZ9qjdVP4",
         "types" : [ "administrative_area_level_1", "political" ]
      },
      {
         "address_components" : [
            {
               "long_name" : "Turkey",
               "short_name" : "TR",
               "types" : [ "country", "political" ]
            }
         ],
         "formatted_address" : "Turkey",
         "geometry" : {
            "bounds" : {
               "northeast" : {
                  "lat" : 42.3666999,
                  "lng" : 44.8178449
               },
               "southwest" : {
                  "lat" : 35.808592,
                  "lng" : 25.5377
               }
            },
            "location" : {
               "lat" : 38.963745,
               "lng" : 35.243322
            },
            "location_type" : "APPROXIMATE",
            "viewport" : {
               "northeast" : {
                  "lat" : 42.3666999,
                  "lng" : 44.8178449
               },
               "southwest" : {
                  "lat" : 35.808592,
                  "lng" : 25.5377
               }
            }
         },
         "place_id" : "ChIJcSZPllwVsBQRKl9iKtTb2UA",
         "types" : [ "country", "political" ]
      }
   ],
   "status" : "OK"
}
