{
   "plus_code" : {
      "compound_code" : "XXX3+CG Fatih/İstanbul, Turkey",
      "global_code" : "8GGCXXX3+CG"
   },
   "results" : [
      {
         "address_components" : [
            {
               "long_name" : "No:38",
               "short_name" : "No:38",
               "types" : [ "street_number" ]
            },
            {
               "long_name" : "Kennedy Caddesi",
               "short_name" : "Kennedy Cd.",
               "types" : [ "route" ]
            },
            {
               "long_name" : "Aksaray",
               "short_name" : "Aksaray",
               "types" : [ "administrative_area_level_4", "political" ]
            },
            {
               "long_name" : "Fatih",
               "short_name" : "Fatih",
               "types" : [ "administrative_area_level_2", "political" ]
            },
            {
               "long_name" : "İstanbul",
               "short_name" : "İstanbul",
               "types" : [ "administrative_area_level_1", "political" ]
            },
            {
               "long_name" : "Turkey",
               "short_name" : "TR",
               "types" : [ "country", "political" ]
            },
            {
               "long_name" : "34096",
               "short_name" : "34096",
               "types" : [ "postal_code" ]
            }
         ],
         "formatted_address" : "Aksaray, Kennedy Cd. No:38, 34096 Fatih/İstanbul, Turkey",
         "geometry" : {
            "bounds" : {
               "northeast" : {
                  "lat" : 41.000645,
                  "lng" : 28.9524272
               },
               "southwest" : {
                  "lat" : 41.0002788,
                  "lng" : 28.9521315
               }
            },
            "location" : {
               "lat" : 41.0004734,
               "lng" : 28.95227319999999
            },
            "location_type" : "ROOFTOP",
            "viewport" : {
               "northeast" : {
                  "lat" : 41.00181088029149,
                  "lng" : 28.9536283302915
               },
               "southwest" : {
                  "lat" : 40.9991129197085,
                  "lng" : 28.9509303697085
               }
            }
         },
         "place_id" : "ChIJiZAPXdW7yhQRTTjrGMiD_Fs",
         "types" : [ "premise" ]
      },
      {
         "address_components" : [
            {
               "long_name" : "Unnamed Road",
               "short_name" : "Unnamed Road",
               "types" : [ "route" ]
            },
            {
               "long_name" : "Aksaray",
               "short_name" : "Aksaray",
               "types" : [ "administrative_area_level_4", "political" ]
            },
            {
               "long_name" : "Fatih",
               "short_name" : "Fatih",
               "types" : [ "administrative_area_level_2", "political" ]
            },
            {
               "long_name" : "İstanbul",
               "short_name" : "İstanbul",
               "types" : [ "administrative_area_level_1", "political" ]
            },
            {
               "long_name" : "Turkey",
               "short_name" : "TR",
               "types" : [ "country", "political" ]
            },
            {
               "long_name" : "34096",
               "short_name" : "34096",
               "types" : [ "postal_code" ]
            }
         ],
         "formatted_address" : "Aksaray, Unnamed Road, 34096 Fatih/İstanbul, Turkey",
         "geometry" : {
            "bounds" : {
               "northeast" : {
                  "lat" : 40.9985122,
                  "lng" : 28.9534401
               },
               "southwest" : {
                  "lat" : 40.99846280000001,
                  "lng" : 28.9533689
               }
            },
            "location" : {
               "lat" : 40.9984875,
               "lng" : 28.9534045
            },
            "location_type" : "GEOMETRIC_CENTER",
            "viewport" : {
               "northeast" : {
                  "lat" : 40.99983648029151,
                  "lng" : 28.95475348029149
               },
               "southwest" : {
                  "lat" : 40.99713851970851,
                  "lng" : 28.95205551970849
               }
            }
         },
         "place_id" : "ChIJsx4aL365yhQRll8fRvGj_Us",
         "types" : [ "route" ]
      },
      {
         "address_components" : [
            {
               "long_name" : "34096",
               "short_name" : "34096",
               "types" : [ "postal_code" ]
            },
            {
               "long_name" : "Fatih",
               "short_name" : "Fatih",
               "types" : [ "administrative_area_level_2", "political" ]
            },
            {
               "long_name" : "İstanbul",
               "short_name" : "İstanbul",
               "types" : [ "administrative_area_level_1", "political" ]
            },
            {
               "long_name" : "Turkey",
               "short_name" : "TR",
               "types" : [ "country", "political" ]
            }
         ],
         "formatted_address" : "34096 Fatih/İstanbul, Turkey",
         "geometry" : {
            "bounds" : {
               "northeast" : {
                  "lat" : 41.009836,
                  "lng" : 28.961034
               },
               "southwest" : {
                  "lat" : 40.996279,
                  "lng" : 28.9418659
               }
            },
            "location" : {
               "lat" : 41.0044774,
               "lng" : 28.94995339999999
            },
            "location_type" : "APPROXIMATE",
            "viewport" : {
               "northeast" : {
                  "lat" : 41.009836,
                  "lng" : 28.961034
               },
               "southwest" : {
                  "lat" : 40.996279,
                  "lng" : 28.9418659
               }
            }
         },
         "place_id" : "ChIJfV8MeYC5yhQRN9TWHz1gitE",
         "types" : [ "postal_code" ]
      },
      {
         "address_components" : [
            {
               "long_name" : "İstanbul",
               "short_name" : "İstanbul",
               "types" : [ "administrative_area_level_1", "political" ]
            },
            {
               "long_name" : "Turkey",
               "short_name" : "TR",
               "types" : [ "country", "political" ]
            }
         ],
         "formatted_address" : "İstanbul, Turkey",
         "geometry" : {
            "bounds" : {
               "northeast" : {
                  "lat" : 41.58461,
                  "lng" : 29.915705
               },
               "southwest" : {
                  "lat" : 40.8026889,
                  "lng" : 27.971373
               }
            },
            "location" : {
               "lat" : 41.1634302,
               "lng" : 28.7664408
            },
            "location_type" : "APPROXIMATE",
            "viewport" : {
               "northeast" : {
                  "lat" : 41.58461,
                  "lng" : 29.915705
               },
               "southwest" : {
                  "lat" : 40.8026889,
                  "lng" : 27.971373
               }
            }
         },
         "place_id" : "ChIJexVgWlG2yhQR6B1akfSarCI",
         "types" : [ "administrative_area_level_1", "political" ]
      },
      {
         "address_components" : [
            {
               "long_name" : "Turkey",
               "short_name" : "TR",
               "types" : [ "country", "political" ]
            }
         ],
         "formatted_address" : "Turkey",
         "geometry" : {
            "bounds" : {
               "northeast" : {
                  "lat" : 42.3666999,
                  "lng" : 44.8178449
               },
               "southwest" : {
                  "lat" : 35.808592,
                  "lng" : 25.5377
               }
            },
            "location" : {
               "lat" : 38.963745,
               "lng" : 35.243322
            },
            "location_type" : "APPROXIMATE",
            "viewport" : {
               "northeast" : {
                  "lat" : 42.3666999,
                  "lng" : 44.8178449
               },
               "southwest" : {
                  "lat" : 35.808592,
                  "lng" : 25.5377
               }
            }
         },
         "place_id" : "ChIJcSZPllwVsBQRKl9iKtTb2UA",
         "types" : [ "country", "political" ]
      },
      {
         "address_components" : [
            {
               "long_name" : "XXX3+CG",
               "short_name" : "XXX3+CG",
               "types" : [ "plus_code" ]
            },
            {
               "long_name" : "Fatih",
               "short_name" : "Fatih",
               "types" : [ "administrative_area_level_2", "political" ]
            },
            {
               "long_name" : "İstanbul",
               "short_name" : "İstanbul",
               "types" : [ "administrative_area_level_1", "political" ]
            },
            {
               "long_name" : "Turkey",
               "short_name" : "TR",
               "types" : [ "country", "political" ]
            }
         ],
         "formatted_address" : "XXX3+CG Fatih/İstanbul, Turkey",
         "geometry" : {
            "bounds" : {
               "northeast" : {
                  "lat" : 40.998625,
                  "lng" : 28.953875
               },
               "southwest" : {
                  "lat" : 40.9985,
                  "lng" : 28.95375
               }
            },
            "location" : {
               "lat" : 40.998557,
               "lng" : 28.9537811
            },
            "location_type" : "ROOFTOP",
            "viewport" : {
               "northeast" : {
                  "lat" : 40.99991148029149,
                  "lng" : 28.9551614802915
               },
               "southwest" : {
                  "lat" : 40.9972135197085,
                  "lng" : 28.95246351970851
               }
            }
         },
         "place_id" : "GhIJjxg9t9B_REAR_AqI_yr0PEA",
         "plus_code" : {
            "compound_code" : "XXX3+CG Fatih/İstanbul, Turkey",
            "global_code" : "8GGCXXX3+CG"
         },
         "types" : [ "plus_code" ]
      }
   ],
   "status" : "OK"
}
