{
   "plus_code" : {
      "compound_code" : "7MQQ+4JQ Ayvalık/Balıkesir, Turkey",
      "global_code" : "8GF87MQQ+4JQ"
   },
   "results" : [
      {
         "address_components" : [
            {
               "long_name" : "2",
               "short_name" : "2",
               "types" : [ "street_number" ]
            },
            {
               "long_name" : "Çarşı Caddesi",
               "short_name" : "Çarşı Cd.",
               "types" : [ "route" ]
            },
            {
               "long_name" : "Küçükköy Mh.",
               "short_name" : "Küçükköy Mh.",
               "types" : [ "administrative_area_level_4", "political" ]
            },
            {
               "long_name" : "Ayvalık",
               "short_name" : "Ayvalık",
               "types" : [ "administrative_area_level_2", "political" ]
            },
            {
               "long_name" : "Balıkesir",
               "short_name" : "Balıkesir",
               "types" : [ "administrative_area_level_1", "political" ]
            },
            {
               "long_name" : "Turkey",
               "short_name" : "TR",
               "types" : [ "country", "political" ]
            },
            {
               "long_name" : "10410",
               "short_name" : "10410",
               "types" : [ "postal_code" ]
            }
         ],
         "formatted_address" : "Küçükköy Mh., Çarşı Cd. No:2, 10410 Ayvalık/Balıkesir, Turkey",
         "geometry" : {
            "location" : {
               "lat" : 39.287928,
               "lng" : 26.689141
            },
            "location_type" : "ROOFTOP",
            "viewport" : {
               "northeast" : {
                  "lat" : 39.2892769802915,
                  "lng" : 26.6904899802915
               },
               "southwest" : {
                  "lat" : 39.2865790197085,
                  "lng" : 26.6877920197085
               }
            }
         },
         "place_id" : "ChIJB_c_SLB2uhQR_rAl4MdCjm8",
         "plus_code" : {
            "compound_code" : "7MQQ+5M Ayvalık/Balıkesir, Turkey",
            "global_code" : "8GF87MQQ+5M"
         },
         "types" : [ "street_address" ]
      },
      {
         "address_components" : [
            {
               "long_name" : "Küçükköy Köyü Yolu",
               "short_name" : "Küçükköy Köyü Yolu",
               "types" : [ "route" ]
            },
            {
               "long_name" : "Küçükköy",
               "short_name" : "Küçükköy",
               "types" : [ "administrative_area_level_4", "political" ]
            },
            {
               "long_name" : "Ayvalık",
               "short_name" : "Ayvalık",
               "types" : [ "administrative_area_level_2", "political" ]
            },
            {
               "long_name" : "Balıkesir",
               "short_name" : "Balıkesir",
               "types" : [ "administrative_area_level_1", "political" ]
            },
            {
               "long_name" : "Turkey",
               "short_name" : "TR",
               "types" : [ "country", "political" ]
            },
            {
               "long_name" : "10410",
               "short_name" : "10410",
               "types" : [ "postal_code" ]
            }
         ],
         "formatted_address" : "Küçükköy, Küçükköy Köyü Yolu, 10410 Ayvalık/Balıkesir, Turkey",
         "geometry" : {
            "bounds" : {
               "northeast" : {
                  "lat" : 39.2879091,
                  "lng" : 26.6892726
               },
               "southwest" : {
                  "lat" : 39.2878531,
                  "lng" : 26.6889429
               }
            },
            "location" : {
               "lat" : 39.2878811,
               "lng" : 26.6891077
            },
            "location_type" : "GEOMETRIC_CENTER",
            "viewport" : {
               "northeast" : {
                  "lat" : 39.2892300802915,
                  "lng" : 26.6904567302915
               },
               "southwest" : {
                  "lat" : 39.2865321197085,
                  "lng" : 26.6877587697085
               }
            }
         },
         "place_id" : "ChIJUxRESbB2uhQR3p7yZ1qpC80",
         "types" : [ "route" ]
      },
      {
         "address_components" : [
            {
               "long_name" : "7MQQ+4J",
               "short_name" : "7MQQ+4J",
               "types" : [ "plus_code" ]
            },
            {
               "long_name" : "Ayvalık",
               "short_name" : "Ayvalık",
               "types" : [ "administrative_area_level_2", "political" ]
            },
            {
               "long_name" : "Balıkesir",
               "short_name" : "Balıkesir",
               "types" : [ "administrative_area_level_1", "political" ]
            },
            {
               "long_name" : "Turkey",
               "short_name" : "TR",
               "types" : [ "country", "political" ]
            }
         ],
         "formatted_address" : "7MQQ+4J Ayvalık/Balıkesir, Turkey",
         "geometry" : {
            "bounds" : {
               "northeast" : {
                  "lat" : 39.287875,
                  "lng" : 26.689125
               },
               "southwest" : {
                  "lat" : 39.28775,
                  "lng" : 26.689
               }
            },
            "location" : {
               "lat" : 39.287831,
               "lng" : 26.6891019
            },
            "location_type" : "GEOMETRIC_CENTER",
            "viewport" : {
               "northeast" : {
                  "lat" : 39.2891614802915,
                  "lng" : 26.6904114802915
               },
               "southwest" : {
                  "lat" : 39.2864635197085,
                  "lng" : 26.6877135197085
               }
            }
         },
         "place_id" : "GhIJMuNtpdekQ0ARiBxs-2iwOkA",
         "plus_code" : {
            "compound_code" : "7MQQ+4J Ayvalık/Balıkesir, Turkey",
            "global_code" : "8GF87MQQ+4J"
         },
         "types" : [ "plus_code" ]
      },
      {
         "address_components" : [
            {
               "long_name" : "16",
               "short_name" : "16",
               "types" : [ "street_number" ]
            },
            {
               "long_name" : "Küçükköy Köyü Yolu",
               "short_name" : "Küçükköy Köyü Yolu",
               "types" : [ "route" ]
            },
            {
               "long_name" : "Küçükköy",
               "short_name" : "Küçükköy",
               "types" : [ "administrative_area_level_4", "political" ]
            },
            {
               "long_name" : "Ayvalık",
               "short_name" : "Ayvalık",
               "types" : [ "administrative_area_level_2", "political" ]
            },
            {
               "long_name" : "Balıkesir",
               "short_name" : "Balıkesir",
               "types" : [ "administrative_area_level_1", "political" ]
            },
            {
               "long_name" : "Turkey",
               "short_name" : "TR",
               "types" : [ "country", "political" ]
            },
            {
               "long_name" : "10410",
               "short_name" : "10410",
               "types" : [ "postal_code" ]
            }
         ],
         "formatted_address" : "Küçükköy, Küçükköy Köyü Yolu No:16, 10410 Ayvalık/Balıkesir, Turkey",
         "geometry" : {
            "location" : {
               "lat" : 39.2881905,
               "lng" : 26.6897961
            },
            "location_type" : "RANGE_INTERPOLATED",
            "viewport" : {
               "northeast" : {
                  "lat" : 39.2895394802915,
                  "lng" : 26.6911450802915
               },
               "southwest" : {
                  "lat" : 39.2868415197085,
                  "lng" : 26.6884471197085
               }
            }
         },
         "place_id" : "Ek9Lw7zDp8O8a2vDtnksIEvDvMOnw7xra8O2eSBLw7Z5w7wgWW9sdSBObzoxNiwgMTA0MTAgQXl2YWzEsWsvQmFsxLFrZXNpciwgVHVya2V5IhoSGAoUChIJM2ViPLB2uhQRdvUc45YYBfcQEA",
         "types" : [ "street_address" ]
      },
      {
         "address_components" : [
            {
               "long_name" : "Küçükköy",
               "short_name" : "Küçükköy",
               "types" : [ "locality", "political" ]
            },
            {
               "long_name" : "Küçükköy",
               "short_name" : "Küçükköy",
               "types" : [ "administrative_area_level_4", "political" ]
            },
            {
               "long_name" : "Ayvalık",
               "short_name" : "Ayvalık",
               "types" : [ "administrative_area_level_2", "political" ]
            },
            {
               "long_name" : "Balıkesir",
               "short_name" : "Balıkesir",
               "types" : [ "administrative_area_level_1", "political" ]
            },
            {
               "long_name" : "Turkey",
               "short_name" : "TR",
               "types" : [ "country", "political" ]
            },
            {
               "long_name" : "10410",
               "short_name" : "10410",
               "types" : [ "postal_code" ]
            }
         ],
         "formatted_address" : "Küçükköy, 10410 Ayvalık/Balıkesir, Turkey",
         "geometry" : {
            "bounds" : {
               "northeast" : {
                  "lat" : 39.2942609,
                  "lng" : 26.695623
               },
               "southwest" : {
                  "lat" : 39.283021,
                  "lng" : 26.6733
               }
            },
            "location" : {
               "lat" : 39.287831,
               "lng" : 26.6891019
            },
            "location_type" : "APPROXIMATE",
            "viewport" : {
               "northeast" : {
                  "lat" : 39.2942609,
                  "lng" : 26.695623
               },
               "southwest" : {
                  "lat" : 39.283021,
                  "lng" : 26.6733
               }
            }
         },
         "place_id" : "ChIJYdkFObB2uhQR3gCr-lBAqz0",
         "types" : [ "locality", "political" ]
      },
      {
         "address_components" : [
            {
               "long_name" : "Küçükköy",
               "short_name" : "Küçükköy",
               "types" : [ "administrative_area_level_4", "political" ]
            },
            {
               "long_name" : "Ayvalık",
               "short_name" : "Ayvalık",
               "types" : [ "administrative_area_level_2", "political" ]
            },
            {
               "long_name" : "Balıkesir",
               "short_name" : "Balıkesir",
               "types" : [ "administrative_area_level_1", "political" ]
            },
            {
               "long_name" : "Turkey",
               "short_name" : "TR",
               "types" : [ "country", "political" ]
            },
            {
               "long_name" : "10410",
               "short_name" : "10410",
               "types" : [ "postal_code" ]
            }
         ],
         "formatted_address" : "Küçükköy, 10410 Ayvalık/Balıkesir, Turkey",
         "geometry" : {
            "bounds" : {
               "northeast" : {
                  "lat" : 39.3233551,
                  "lng" : 26.7388431
               },
               "southwest" : {
                  "lat" : 39.245354,
                  "lng" : 26.608523
               }
            },
            "location" : {
               "lat" : 39.28362,
               "lng" : 26.7142835
            },
            "location_type" : "APPROXIMATE",
            "viewport" : {
               "northeast" : {
                  "lat" : 39.3233551,
                  "lng" : 26.7388431
               },
               "southwest" : {
                  "lat" : 39.245354,
                  "lng" : 26.608523
               }
            }
         },
         "place_id" : "ChIJOWmwSbB2uhQRQKabobSOORs",
         "types" : [ "administrative_area_level_4", "political" ]
      },
      {
         "address_components" : [
            {
               "long_name" : "10410",
               "short_name" : "10410",
               "types" : [ "postal_code" ]
            },
            {
               "long_name" : "Küçükköy",
               "short_name" : "Küçükköy",
               "types" : [ "administrative_area_level_4", "political" ]
            },
            {
               "long_name" : "Ayvalık",
               "short_name" : "Ayvalık",
               "types" : [ "administrative_area_level_2", "political" ]
            },
            {
               "long_name" : "Balıkesir",
               "short_name" : "Balıkesir",
               "types" : [ "administrative_area_level_1", "political" ]
            },
            {
               "long_name" : "Turkey",
               "short_name" : "TR",
               "types" : [ "country", "political" ]
            }
         ],
         "formatted_address" : "Küçükköy, 10410 Ayvalık/Balıkesir, Turkey",
         "geometry" : {
            "bounds" : {
               "northeast" : {
                  "lat" : 39.3233551,
                  "lng" : 26.7388431
               },
               "southwest" : {
                  "lat" : 39.245354,
                  "lng" : 26.608523
               }
            },
            "location" : {
               "lat" : 39.28362,
               "lng" : 26.7142835
            },
            "location_type" : "APPROXIMATE",
            "viewport" : {
               "northeast" : {
                  "lat" : 39.3233551,
                  "lng" : 26.7388431
               },
               "southwest" : {
                  "lat" : 39.245354,
                  "lng" : 26.608523
               }
            }
         },
         "place_id" : "ChIJXxXBUct2uhQRcV6WvvHBzXk",
         "types" : [ "postal_code" ]
      },
      {
         "address_components" : [
            {
               "long_name" : "Ayvalık",
               "short_name" : "Ayvalık",
               "types" : [ "administrative_area_level_2", "political" ]
            },
            {
               "long_name" : "Balıkesir",
               "short_name" : "Balıkesir",
               "types" : [ "administrative_area_level_1", "political" ]
            },
            {
               "long_name" : "Turkey",
               "short_name" : "TR",
               "types" : [ "country", "political" ]
            }
         ],
         "formatted_address" : "Ayvalık/Balıkesir, Turkey",
         "geometry" : {
            "bounds" : {
               "northeast" : {
                  "lat" : 39.41001,
                  "lng" : 27.0045939
               },
               "southwest" : {
                  "lat" : 39.1661461,
                  "lng" : 26.52421
               }
            },
            "location" : {
               "lat" : 39.2787263,
               "lng" : 26.7732162
            },
            "location_type" : "APPROXIMATE",
            "viewport" : {
               "northeast" : {
                  "lat" : 39.41001,
                  "lng" : 27.0045939
               },
               "southwest" : {
                  "lat" : 39.1661461,
                  "lng" : 26.52421
               }
            }
         },
         "place_id" : "ChIJxxVUEDILuhQRjZD7ggemDd8",
         "types" : [ "administrative_area_level_2", "political" ]
      },
      {
         "address_components" : [
            {
               "long_name" : "Balıkesir",
               "short_name" : "Balıkesir",
               "types" : [ "administrative_area_level_1", "political" ]
            },
            {
               "long_name" : "Turkey",
               "short_name" : "TR",
               "types" : [ "country", "political" ]
            }
         ],
         "formatted_address" : "Balıkesir, Turkey",
         "geometry" : {
            "bounds" : {
               "northeast" : {
                  "lat" : 40.6685919,
                  "lng" : 28.999542
               },
               "southwest" : {
                  "lat" : 39.070559,
                  "lng" : 26.52421
               }
            },
            "location" : {
               "lat" : 39.7616782,
               "lng" : 28.1122679
            },
            "location_type" : "APPROXIMATE",
            "viewport" : {
               "northeast" : {
                  "lat" : 40.6685919,
                  "lng" : 28.999542
               },
               "southwest" : {
                  "lat" : 39.070559,
                  "lng" : 26.52421
               }
            }
         },
         "place_id" : "ChIJH8v7UQmfsBQRGnQDTYgil0E",
         "types" : [ "administrative_area_level_1", "political" ]
      },
      {
         "address_components" : [
            {
               "long_name" : "Turkey",
               "short_name" : "TR",
               "types" : [ "country", "political" ]
            }
         ],
         "formatted_address" : "Turkey",
         "geometry" : {
            "bounds" : {
               "northeast" : {
                  "lat" : 42.3666999,
                  "lng" : 44.8178449
               },
               "southwest" : {
                  "lat" : 35.808592,
                  "lng" : 25.5377
               }
            },
            "location" : {
               "lat" : 38.963745,
               "lng" : 35.243322
            },
            "location_type" : "APPROXIMATE",
            "viewport" : {
               "northeast" : {
                  "lat" : 42.3666999,
                  "lng" : 44.8178449
               },
               "southwest" : {
                  "lat" : 35.808592,
                  "lng" : 25.5377
               }
            }
         },
         "place_id" : "ChIJcSZPllwVsBQRKl9iKtTb2UA",
         "types" : [ "country", "political" ]
      }
   ],
   "status" : "OK"
}
