{
   "plus_code" : {
      "compound_code" : "XWJJ+2J Altındağ/Ankara, Turkey",
      "global_code" : "8GFJXWJJ+2J"
   },
   "results" : [
      {
         "address_components" : [
            {
               "long_name" : "68 A",
               "short_name" : "68 A",
               "types" : [ "street_number" ]
            },
            {
               "long_name" : "1070. Sokak",
               "short_name" : "1070. Sk.",
               "types" : [ "route" ]
            },
            {
               "long_name" : "Başpınar",
               "short_name" : "Başpınar",
               "types" : [ "administrative_area_level_4", "political" ]
            },
            {
               "long_name" : "Altındağ",
               "short_name" : "Altındağ",
               "types" : [ "administrative_area_level_2", "political" ]
            },
            {
               "long_name" : "Ankara",
               "short_name" : "Ankara",
               "types" : [ "administrative_area_level_1", "political" ]
            },
            {
               "long_name" : "Turkey",
               "short_name" : "TR",
               "types" : [ "country", "political" ]
            },
            {
               "long_name" : "06360",
               "short_name" : "06360",
               "types" : [ "postal_code" ]
            }
         ],
         "formatted_address" : "Başpınar, 1070. Sk. 68 A, 06360 Altındağ/Ankara, Turkey",
         "geometry" : {
            "location" : {
               "lat" : 39.9799453,
               "lng" : 32.9316902
            },
            "location_type" : "ROOFTOP",
            "viewport" : {
               "northeast" : {
                  "lat" : 39.9812942802915,
                  "lng" : 32.93303918029149
               },
               "southwest" : {
                  "lat" : 39.9785963197085,
                  "lng" : 32.9303412197085
               }
            }
         },
         "place_id" : "ChIJz67t4u9S0xQR2YBCj3LAXtc",
         "plus_code" : {
            "compound_code" : "XWHJ+XM Altındağ/Ankara, Turkey",
            "global_code" : "8GFJXWHJ+XM"
         },
         "types" : [ "street_address" ]
      },
      {
         "address_components" : [
            {
               "long_name" : "75",
               "short_name" : "75",
               "types" : [ "street_number" ]
            },
            {
               "long_name" : "1070. Sokak",
               "short_name" : "1070. Sk.",
               "types" : [ "route" ]
            },
            {
               "long_name" : "Başpınar",
               "short_name" : "Başpınar",
               "types" : [ "administrative_area_level_4", "political" ]
            },
            {
               "long_name" : "Altındağ",
               "short_name" : "Altındağ",
               "types" : [ "administrative_area_level_2", "political" ]
            },
            {
               "long_name" : "Ankara",
               "short_name" : "Ankara",
               "types" : [ "administrative_area_level_1", "political" ]
            },
            {
               "long_name" : "Turkey",
               "short_name" : "TR",
               "types" : [ "country", "political" ]
            },
            {
               "long_name" : "06360",
               "short_name" : "06360",
               "types" : [ "postal_code" ]
            }
         ],
         "formatted_address" : "Başpınar, 1070. Sk. No:75, 06360 Altındağ/Ankara, Turkey",
         "geometry" : {
            "location" : {
               "lat" : 39.9800602,
               "lng" : 32.9314604
            },
            "location_type" : "RANGE_INTERPOLATED",
            "viewport" : {
               "northeast" : {
                  "lat" : 39.9814091802915,
                  "lng" : 32.9328093802915
               },
               "southwest" : {
                  "lat" : 39.9787112197085,
                  "lng" : 32.9301114197085
               }
            }
         },
         "place_id" : "EjxCYcWfcMSxbmFyLCAxMDcwLiBTay4gTm86NzUsIDA2MzYwIEFsdMSxbmRhxJ8vQW5rYXJhLCBUdXJrZXkiGhIYChQKEgmj_GPj71LTFBGJ6wxSedn4vhBL",
         "types" : [ "street_address" ]
      },
      {
         "address_components" : [
            {
               "long_name" : "66-76",
               "short_name" : "66-76",
               "types" : [ "street_number" ]
            },
            {
               "long_name" : "1070. Sokak",
               "short_name" : "1070. Sk.",
               "types" : [ "route" ]
            },
            {
               "long_name" : "Başpınar",
               "short_name" : "Başpınar",
               "types" : [ "administrative_area_level_4", "political" ]
            },
            {
               "long_name" : "Altındağ",
               "short_name" : "Altındağ",
               "types" : [ "administrative_area_level_2", "political" ]
            },
            {
               "long_name" : "Ankara",
               "short_name" : "Ankara",
               "types" : [ "administrative_area_level_1", "political" ]
            },
            {
               "long_name" : "Turkey",
               "short_name" : "TR",
               "types" : [ "country", "political" ]
            },
            {
               "long_name" : "06360",
               "short_name" : "06360",
               "types" : [ "postal_code" ]
            }
         ],
         "formatted_address" : "Başpınar, 1070. Sk. 66-76, 06360 Altındağ/Ankara, Turkey",
         "geometry" : {
            "bounds" : {
               "northeast" : {
                  "lat" : 39.9803064,
                  "lng" : 32.9321321
               },
               "southwest" : {
                  "lat" : 39.9800046,
                  "lng" : 32.93121010000001
               }
            },
            "location" : {
               "lat" : 39.9801253,
               "lng" : 32.93168790000001
            },
            "location_type" : "GEOMETRIC_CENTER",
            "viewport" : {
               "northeast" : {
                  "lat" : 39.9815044802915,
                  "lng" : 32.9330200802915
               },
               "southwest" : {
                  "lat" : 39.9788065197085,
                  "lng" : 32.93032211970851
               }
            }
         },
         "place_id" : "ChIJo_xj4-9S0xQRiOsMUnnZ-L4",
         "types" : [ "route" ]
      },
      {
         "address_components" : [
            {
               "long_name" : "06360",
               "short_name" : "06360",
               "types" : [ "postal_code" ]
            },
            {
               "long_name" : "Başpınar",
               "short_name" : "Başpınar",
               "types" : [ "administrative_area_level_4", "political" ]
            },
            {
               "long_name" : "Altındağ",
               "short_name" : "Altındağ",
               "types" : [ "administrative_area_level_2", "political" ]
            },
            {
               "long_name" : "Ankara",
               "short_name" : "Ankara",
               "types" : [ "administrative_area_level_1", "political" ]
            },
            {
               "long_name" : "Turkey",
               "short_name" : "TR",
               "types" : [ "country", "political" ]
            }
         ],
         "formatted_address" : "Başpınar, 06360 Altındağ/Ankara, Turkey",
         "geometry" : {
            "bounds" : {
               "northeast" : {
                  "lat" : 39.98502300000001,
                  "lng" : 32.934776
               },
               "southwest" : {
                  "lat" : 39.966533,
                  "lng" : 32.9140819
               }
            },
            "location" : {
               "lat" : 39.9760723,
               "lng" : 32.9254531
            },
            "location_type" : "APPROXIMATE",
            "viewport" : {
               "northeast" : {
                  "lat" : 39.98502300000001,
                  "lng" : 32.934776
               },
               "southwest" : {
                  "lat" : 39.966533,
                  "lng" : 32.9140819
               }
            }
         },
         "place_id" : "ChIJWwKxUPRS0xQRTyKZ-0zvsPc",
         "types" : [ "postal_code" ]
      },
      {
         "address_components" : [
            {
               "long_name" : "Başpınar",
               "short_name" : "Başpınar",
               "types" : [ "administrative_area_level_4", "political" ]
            },
            {
               "long_name" : "Altındağ",
               "short_name" : "Altındağ",
               "types" : [ "administrative_area_level_2", "political" ]
            },
            {
               "long_name" : "Ankara",
               "short_name" : "Ankara",
               "types" : [ "administrative_area_level_1", "political" ]
            },
            {
               "long_name" : "Turkey",
               "short_name" : "TR",
               "types" : [ "country", "political" ]
            }
         ],
         "formatted_address" : "Başpınar, Altındağ/Ankara, Turkey",
         "geometry" : {
            "bounds" : {
               "northeast" : {
                  "lat" : 39.98502300000001,
                  "lng" : 32.934809
               },
               "southwest" : {
                  "lat" : 39.9648169,
                  "lng" : 32.9140819
               }
            },
            "location" : {
               "lat" : 39.9760723,
               "lng" : 32.9254531
            },
            "location_type" : "APPROXIMATE",
            "viewport" : {
               "northeast" : {
                  "lat" : 39.98502300000001,
                  "lng" : 32.934809
               },
               "southwest" : {
                  "lat" : 39.9648169,
                  "lng" : 32.9140819
               }
            }
         },
         "place_id" : "ChIJr7e6rvVS0xQR2BTq6zIgxCc",
         "types" : [ "administrative_area_level_4", "political" ]
      },
      {
         "address_components" : [
            {
               "long_name" : "Altındağ",
               "short_name" : "Altındağ",
               "types" : [ "administrative_area_level_2", "political" ]
            },
            {
               "long_name" : "Ankara",
               "short_name" : "Ankara",
               "types" : [ "administrative_area_level_1", "political" ]
            },
            {
               "long_name" : "Turkey",
               "short_name" : "TR",
               "types" : [ "country", "political" ]
            }
         ],
         "formatted_address" : "Altındağ/Ankara, Turkey",
         "geometry" : {
            "bounds" : {
               "northeast" : {
                  "lat" : 40.0570421,
                  "lng" : 33.1173301
               },
               "southwest" : {
                  "lat" : 39.928408,
                  "lng" : 32.8307209
               }
            },
            "location" : {
               "lat" : 40.0092683,
               "lng" : 32.9833371
            },
            "location_type" : "APPROXIMATE",
            "viewport" : {
               "northeast" : {
                  "lat" : 40.0570421,
                  "lng" : 33.1173301
               },
               "southwest" : {
                  "lat" : 39.928408,
                  "lng" : 32.8307209
               }
            }
         },
         "place_id" : "ChIJFViTEmgHgkARyu6AxEhAUYQ",
         "types" : [ "administrative_area_level_2", "political" ]
      },
      {
         "address_components" : [
            {
               "long_name" : "Ankara",
               "short_name" : "Ankara",
               "types" : [ "locality", "political" ]
            },
            {
               "long_name" : "Ankara",
               "short_name" : "Ankara",
               "types" : [ "administrative_area_level_1", "political" ]
            },
            {
               "long_name" : "Turkey",
               "short_name" : "TR",
               "types" : [ "country", "political" ]
            }
         ],
         "formatted_address" : "Ankara, Turkey",
         "geometry" : {
            "bounds" : {
               "northeast" : {
                  "lat" : 40.076332,
                  "lng" : 33.007056
               },
               "southwest" : {
                  "lat" : 39.7304211,
                  "lng" : 32.5184735
               }
            },
            "location" : {
               "lat" : 39.9333635,
               "lng" : 32.8597419
            },
            "location_type" : "APPROXIMATE",
            "viewport" : {
               "northeast" : {
                  "lat" : 40.076332,
                  "lng" : 33.007056
               },
               "southwest" : {
                  "lat" : 39.7304211,
                  "lng" : 32.5184735
               }
            }
         },
         "place_id" : "ChIJsS1zINVH0xQRjSuEwLBX3As",
         "types" : [ "locality", "political" ]
      },
      {
         "address_components" : [
            {
               "long_name" : "Ankara",
               "short_name" : "Ankara",
               "types" : [ "administrative_area_level_1", "political" ]
            },
            {
               "long_name" : "Turkey",
               "short_name" : "TR",
               "types" : [ "country", "political" ]
            }
         ],
         "formatted_address" : "Ankara, Turkey",
         "geometry" : {
            "bounds" : {
               "northeast" : {
                  "lat" : 40.756282,
                  "lng" : 33.871969
               },
               "southwest" : {
                  "lat" : 38.6699421,
                  "lng" : 30.8240371
               }
            },
            "location" : {
               "lat" : 39.7805245,
               "lng" : 32.7181375
            },
            "location_type" : "APPROXIMATE",
            "viewport" : {
               "northeast" : {
                  "lat" : 40.756282,
                  "lng" : 33.871969
               },
               "southwest" : {
                  "lat" : 38.6699421,
                  "lng" : 30.8240371
               }
            }
         },
         "place_id" : "ChIJ2UbubYMC0xQRePrg-9apYgY",
         "types" : [ "administrative_area_level_1", "political" ]
      },
      {
         "address_components" : [
            {
               "long_name" : "Turkey",
               "short_name" : "TR",
               "types" : [ "country", "political" ]
            }
         ],
         "formatted_address" : "Turkey",
         "geometry" : {
            "bounds" : {
               "northeast" : {
                  "lat" : 42.3666999,
                  "lng" : 44.8178449
               },
               "southwest" : {
                  "lat" : 35.808592,
                  "lng" : 25.5377
               }
            },
            "location" : {
               "lat" : 38.963745,
               "lng" : 35.243322
            },
            "location_type" : "APPROXIMATE",
            "viewport" : {
               "northeast" : {
                  "lat" : 42.3666999,
                  "lng" : 44.8178449
               },
               "southwest" : {
                  "lat" : 35.808592,
                  "lng" : 25.5377
               }
            }
         },
         "place_id" : "ChIJcSZPllwVsBQRKl9iKtTb2UA",
         "types" : [ "country", "political" ]
      },
      {
         "address_components" : [
            {
               "long_name" : "XWJJ+2J",
               "short_name" : "XWJJ+2J",
               "types" : [ "plus_code" ]
            },
            {
               "long_name" : "Altındağ",
               "short_name" : "Altındağ",
               "types" : [ "administrative_area_level_2", "political" ]
            },
            {
               "long_name" : "Ankara",
               "short_name" : "Ankara",
               "types" : [ "administrative_area_level_1", "political" ]
            },
            {
               "long_name" : "Turkey",
               "short_name" : "TR",
               "types" : [ "country", "political" ]
            }
         ],
         "formatted_address" : "XWJJ+2J Altındağ/Ankara, Turkey",
         "geometry" : {
            "bounds" : {
               "northeast" : {
                  "lat" : 39.98012500000001,
                  "lng" : 32.931625
               },
               "southwest" : {
                  "lat" : 39.98,
                  "lng" : 32.9315
               }
            },
            "location" : {
               "lat" : 39.980014,
               "lng" : 32.9315186
            },
            "location_type" : "ROOFTOP",
            "viewport" : {
               "northeast" : {
                  "lat" : 39.98141148029151,
                  "lng" : 32.93291148029151
               },
               "southwest" : {
                  "lat" : 39.97871351970851,
                  "lng" : 32.93021351970851
               }
            }
         },
         "place_id" : "GhIJos9HGXH9Q0ARz05hADx3QEA",
         "plus_code" : {
            "compound_code" : "XWJJ+2J Altındağ/Ankara, Turkey",
            "global_code" : "8GFJXWJJ+2J"
         },
         "types" : [ "plus_code" ]
      }
   ],
   "status" : "OK"
}
