{
   "plus_code" : {
      "compound_code" : "QPGQ+H3 Körfez/Kocaeli, Turkey",
      "global_code" : "8GGFQPGQ+H3"
   },
   "results" : [
      {
         "address_components" : [
            {
               "long_name" : "114",
               "short_name" : "114",
               "types" : [ "street_number" ]
            },
            {
               "long_name" : "Bağdat Caddesi",
               "short_name" : "Bağdat Cd.",
               "types" : [ "route" ]
            },
            {
               "long_name" : "Hacı Osman",
               "short_name" : "Hacı Osman",
               "types" : [ "administrative_area_level_4", "political" ]
            },
            {
               "long_name" : "Belen",
               "short_name" : "Belen",
               "types" : [ "administrative_area_level_2", "political" ]
            },
            {
               "long_name" : "Kocaeli",
               "short_name" : "Kocaeli",
               "types" : [ "administrative_area_level_1", "political" ]
            },
            {
               "long_name" : "Turkey",
               "short_name" : "TR",
               "types" : [ "country", "political" ]
            },
            {
               "long_name" : "41780",
               "short_name" : "41780",
               "types" : [ "postal_code" ]
            }
         ],
         "formatted_address" : "Hacı Osman, Bağdat Cd. No:114, 41780 Belen/Kocaeli, Turkey",
         "geometry" : {
            "location" : {
               "lat" : 40.7762653,
               "lng" : 29.7378095
            },
            "location_type" : "ROOFTOP",
            "viewport" : {
               "northeast" : {
                  "lat" : 40.77761428029149,
                  "lng" : 29.7391584802915
               },
               "southwest" : {
                  "lat" : 40.7749163197085,
                  "lng" : 29.7364605197085
               }
            }
         },
         "place_id" : "ChIJb5jymwM5yxQR6rEGNQzykyA",
         "plus_code" : {
            "compound_code" : "QPGQ+G4 Körfez/Kocaeli, Turkey",
            "global_code" : "8GGFQPGQ+G4"
         },
         "types" : [ "street_address" ]
      },
      {
         "address_components" : [
            {
               "long_name" : "115",
               "short_name" : "115",
               "types" : [ "street_number" ]
            },
            {
               "long_name" : "Bağdat Caddesi",
               "short_name" : "Bağdat Cd.",
               "types" : [ "route" ]
            },
            {
               "long_name" : "Hacı Osman",
               "short_name" : "Hacı Osman",
               "types" : [ "administrative_area_level_4", "political" ]
            },
            {
               "long_name" : "Belen",
               "short_name" : "Belen",
               "types" : [ "administrative_area_level_2", "political" ]
            },
            {
               "long_name" : "Kocaeli",
               "short_name" : "Kocaeli",
               "types" : [ "administrative_area_level_1", "political" ]
            },
            {
               "long_name" : "Turkey",
               "short_name" : "TR",
               "types" : [ "country", "political" ]
            },
            {
               "long_name" : "41780",
               "short_name" : "41780",
               "types" : [ "postal_code" ]
            }
         ],
         "formatted_address" : "Hacı Osman, Bağdat Cd. No:115, 41780 Belen/Kocaeli, Turkey",
         "geometry" : {
            "bounds" : {
               "northeast" : {
                  "lat" : 40.7765578,
                  "lng" : 29.7381723
               },
               "southwest" : {
                  "lat" : 40.7764069,
                  "lng" : 29.7380276
               }
            },
            "location" : {
               "lat" : 40.7764996,
               "lng" : 29.7381022
            },
            "location_type" : "ROOFTOP",
            "viewport" : {
               "northeast" : {
                  "lat" : 40.7778313302915,
                  "lng" : 29.7394489302915
               },
               "southwest" : {
                  "lat" : 40.77513336970851,
                  "lng" : 29.7367509697085
               }
            }
         },
         "place_id" : "ChIJZ_gtmAM5yxQR-TGf2fPKdkc",
         "types" : [ "premise" ]
      },
      {
         "address_components" : [
            {
               "long_name" : "113",
               "short_name" : "113",
               "types" : [ "street_number" ]
            },
            {
               "long_name" : "Bağdat Caddesi",
               "short_name" : "Bağdat Cd.",
               "types" : [ "route" ]
            },
            {
               "long_name" : "Hacı Osman",
               "short_name" : "Hacı Osman",
               "types" : [ "administrative_area_level_4", "political" ]
            },
            {
               "long_name" : "Belen",
               "short_name" : "Belen",
               "types" : [ "administrative_area_level_3", "political" ]
            },
            {
               "long_name" : "Körfez",
               "short_name" : "Körfez",
               "types" : [ "administrative_area_level_2", "political" ]
            },
            {
               "long_name" : "Kocaeli",
               "short_name" : "Kocaeli",
               "types" : [ "administrative_area_level_1", "political" ]
            },
            {
               "long_name" : "Turkey",
               "short_name" : "TR",
               "types" : [ "country", "political" ]
            },
            {
               "long_name" : "41780",
               "short_name" : "41780",
               "types" : [ "postal_code" ]
            }
         ],
         "formatted_address" : "Hacı Osman, Bağdat Cd. No:113, 41780 Belen/Körfez/Kocaeli, Turkey",
         "geometry" : {
            "location" : {
               "lat" : 40.7763965,
               "lng" : 29.7377231
            },
            "location_type" : "RANGE_INTERPOLATED",
            "viewport" : {
               "northeast" : {
                  "lat" : 40.77774548029149,
                  "lng" : 29.7390720802915
               },
               "southwest" : {
                  "lat" : 40.77504751970849,
                  "lng" : 29.7363741197085
               }
            }
         },
         "place_id" : "EkRIYWPEsSBPc21hbiwgQmHEn2RhdCBDZC4gTm86MTEzLCA0MTc4MCBCZWxlbi9Lw7ZyZmV6L0tvY2FlbGksIFR1cmtleSIaEhgKFAoSCb_fW5sDOcsUEc-AOH1eAWyYEHE",
         "types" : [ "street_address" ]
      },
      {
         "address_components" : [
            {
               "long_name" : "121-113",
               "short_name" : "121-113",
               "types" : [ "street_number" ]
            },
            {
               "long_name" : "Bağdat Caddesi",
               "short_name" : "Bağdat Cd.",
               "types" : [ "route" ]
            },
            {
               "long_name" : "Hacı Osman",
               "short_name" : "Hacı Osman",
               "types" : [ "administrative_area_level_4", "political" ]
            },
            {
               "long_name" : "Belen",
               "short_name" : "Belen",
               "types" : [ "administrative_area_level_3", "political" ]
            },
            {
               "long_name" : "Körfez",
               "short_name" : "Körfez",
               "types" : [ "administrative_area_level_2", "political" ]
            },
            {
               "long_name" : "Kocaeli",
               "short_name" : "Kocaeli",
               "types" : [ "administrative_area_level_1", "political" ]
            },
            {
               "long_name" : "Turkey",
               "short_name" : "TR",
               "types" : [ "country", "political" ]
            },
            {
               "long_name" : "41780",
               "short_name" : "41780",
               "types" : [ "postal_code" ]
            }
         ],
         "formatted_address" : "Hacı Osman, Bağdat Cd. 121-113, 41780 Belen/Körfez/Kocaeli, Turkey",
         "geometry" : {
            "bounds" : {
               "northeast" : {
                  "lat" : 40.7763965,
                  "lng" : 29.7384845
               },
               "southwest" : {
                  "lat" : 40.7763313,
                  "lng" : 29.7377231
               }
            },
            "location" : {
               "lat" : 40.7763639,
               "lng" : 29.73810379999999
            },
            "location_type" : "GEOMETRIC_CENTER",
            "viewport" : {
               "northeast" : {
                  "lat" : 40.7777128802915,
                  "lng" : 29.7394527802915
               },
               "southwest" : {
                  "lat" : 40.7750149197085,
                  "lng" : 29.7367548197085
               }
            }
         },
         "place_id" : "ChIJd1D5mAM5yxQR3M42PFCcDx8",
         "types" : [ "route" ]
      },
      {
         "address_components" : [
            {
               "long_name" : "QPGQ+H3",
               "short_name" : "QPGQ+H3",
               "types" : [ "plus_code" ]
            },
            {
               "long_name" : "Körfez",
               "short_name" : "Körfez",
               "types" : [ "administrative_area_level_2", "political" ]
            },
            {
               "long_name" : "Kocaeli",
               "short_name" : "Kocaeli",
               "types" : [ "administrative_area_level_1", "political" ]
            },
            {
               "long_name" : "Turkey",
               "short_name" : "TR",
               "types" : [ "country", "political" ]
            }
         ],
         "formatted_address" : "QPGQ+H3 Körfez/Kocaeli, Turkey",
         "geometry" : {
            "bounds" : {
               "northeast" : {
                  "lat" : 40.7765,
                  "lng" : 29.73775
               },
               "southwest" : {
                  "lat" : 40.776375,
                  "lng" : 29.737625
               }
            },
            "location" : {
               "lat" : 40.776382,
               "lng" : 29.737718
            },
            "location_type" : "ROOFTOP",
            "viewport" : {
               "northeast" : {
                  "lat" : 40.7777864802915,
                  "lng" : 29.7390364802915
               },
               "southwest" : {
                  "lat" : 40.7750885197085,
                  "lng" : 29.7363385197085
               }
            }
         },
         "place_id" : "GhIJ_plBfGBjREARp6s7Ftu8PUA",
         "plus_code" : {
            "compound_code" : "QPGQ+H3 Körfez/Kocaeli, Turkey",
            "global_code" : "8GGFQPGQ+H3"
         },
         "types" : [ "plus_code" ]
      },
      {
         "address_components" : [
            {
               "long_name" : "41780",
               "short_name" : "41780",
               "types" : [ "postal_code" ]
            },
            {
               "long_name" : "Hacı Osman",
               "short_name" : "Hacı Osman",
               "types" : [ "administrative_area_level_4", "political" ]
            },
            {
               "long_name" : "Körfez",
               "short_name" : "Körfez",
               "types" : [ "administrative_area_level_2", "political" ]
            },
            {
               "long_name" : "Kocaeli",
               "short_name" : "Kocaeli",
               "types" : [ "administrative_area_level_1", "political" ]
            },
            {
               "long_name" : "Turkey",
               "short_name" : "TR",
               "types" : [ "country", "political" ]
            }
         ],
         "formatted_address" : "Hacı Osman, 41780 Körfez/Kocaeli, Turkey",
         "geometry" : {
            "bounds" : {
               "northeast" : {
                  "lat" : 40.786076,
                  "lng" : 29.7652119
               },
               "southwest" : {
                  "lat" : 40.770085,
                  "lng" : 29.733756
               }
            },
            "location" : {
               "lat" : 40.77684319999999,
               "lng" : 29.7512903
            },
            "location_type" : "APPROXIMATE",
            "viewport" : {
               "northeast" : {
                  "lat" : 40.786076,
                  "lng" : 29.7652119
               },
               "southwest" : {
                  "lat" : 40.770085,
                  "lng" : 29.733756
               }
            }
         },
         "place_id" : "ChIJlxGAw_g4yxQRAaqCKrEdHKI",
         "types" : [ "postal_code" ]
      },
      {
         "address_components" : [
            {
               "long_name" : "Hacı Osman",
               "short_name" : "Hacı Osman",
               "types" : [ "administrative_area_level_4", "political" ]
            },
            {
               "long_name" : "Körfez",
               "short_name" : "Körfez",
               "types" : [ "administrative_area_level_2", "political" ]
            },
            {
               "long_name" : "Kocaeli",
               "short_name" : "Kocaeli",
               "types" : [ "administrative_area_level_1", "political" ]
            },
            {
               "long_name" : "Turkey",
               "short_name" : "TR",
               "types" : [ "country", "political" ]
            }
         ],
         "formatted_address" : "Hacı Osman, Körfez/Kocaeli, Turkey",
         "geometry" : {
            "bounds" : {
               "northeast" : {
                  "lat" : 40.786076,
                  "lng" : 29.7652119
               },
               "southwest" : {
                  "lat" : 40.770085,
                  "lng" : 29.733756
               }
            },
            "location" : {
               "lat" : 40.77684319999999,
               "lng" : 29.7512903
            },
            "location_type" : "APPROXIMATE",
            "viewport" : {
               "northeast" : {
                  "lat" : 40.786076,
                  "lng" : 29.7652119
               },
               "southwest" : {
                  "lat" : 40.770085,
                  "lng" : 29.733756
               }
            }
         },
         "place_id" : "ChIJsVs33fs4yxQR3mTgnNPjpWI",
         "types" : [ "administrative_area_level_4", "political" ]
      },
      {
         "address_components" : [
            {
               "long_name" : "Körfez",
               "short_name" : "Körfez",
               "types" : [ "locality", "political" ]
            },
            {
               "long_name" : "Körfez",
               "short_name" : "Körfez",
               "types" : [ "administrative_area_level_2", "political" ]
            },
            {
               "long_name" : "Kocaeli",
               "short_name" : "Kocaeli",
               "types" : [ "administrative_area_level_1", "political" ]
            },
            {
               "long_name" : "Turkey",
               "short_name" : "TR",
               "types" : [ "country", "political" ]
            }
         ],
         "formatted_address" : "Körfez, Kocaeli, Turkey",
         "geometry" : {
            "bounds" : {
               "northeast" : {
                  "lat" : 40.7806059,
                  "lng" : 29.8057659
               },
               "southwest" : {
                  "lat" : 40.7405581,
                  "lng" : 29.713937
               }
            },
            "location" : {
               "lat" : 40.776382,
               "lng" : 29.737718
            },
            "location_type" : "APPROXIMATE",
            "viewport" : {
               "northeast" : {
                  "lat" : 40.7806059,
                  "lng" : 29.8057659
               },
               "southwest" : {
                  "lat" : 40.7405581,
                  "lng" : 29.713937
               }
            }
         },
         "place_id" : "ChIJ3XdYxnw5yxQR6M0t0dahvgY",
         "types" : [ "locality", "political" ]
      },
      {
         "address_components" : [
            {
               "long_name" : "Körfez",
               "short_name" : "Körfez",
               "types" : [ "administrative_area_level_2", "political" ]
            },
            {
               "long_name" : "Kocaeli",
               "short_name" : "Kocaeli",
               "types" : [ "administrative_area_level_1", "political" ]
            },
            {
               "long_name" : "Turkey",
               "short_name" : "TR",
               "types" : [ "country", "political" ]
            }
         ],
         "formatted_address" : "Körfez/Kocaeli, Turkey",
         "geometry" : {
            "bounds" : {
               "northeast" : {
                  "lat" : 41.03414799999999,
                  "lng" : 29.8508729
               },
               "southwest" : {
                  "lat" : 40.7405581,
                  "lng" : 29.5859811
               }
            },
            "location" : {
               "lat" : 40.8676124,
               "lng" : 29.7657663
            },
            "location_type" : "APPROXIMATE",
            "viewport" : {
               "northeast" : {
                  "lat" : 41.03414799999999,
                  "lng" : 29.8508729
               },
               "southwest" : {
                  "lat" : 40.7405581,
                  "lng" : 29.5859811
               }
            }
         },
         "place_id" : "ChIJD1hntr42yxQRzXIqtXmZxQE",
         "types" : [ "administrative_area_level_2", "political" ]
      },
      {
         "address_components" : [
            {
               "long_name" : "Kocaeli",
               "short_name" : "Kocaeli",
               "types" : [ "administrative_area_level_1", "political" ]
            },
            {
               "long_name" : "Turkey",
               "short_name" : "TR",
               "types" : [ "country", "political" ]
            }
         ],
         "formatted_address" : "Kocaeli, Turkey",
         "geometry" : {
            "bounds" : {
               "northeast" : {
                  "lat" : 41.20976,
                  "lng" : 30.367743
               },
               "southwest" : {
                  "lat" : 40.524151,
                  "lng" : 29.3331261
               }
            },
            "location" : {
               "lat" : 40.8532704,
               "lng" : 29.8815203
            },
            "location_type" : "APPROXIMATE",
            "viewport" : {
               "northeast" : {
                  "lat" : 41.20976,
                  "lng" : 30.367743
               },
               "southwest" : {
                  "lat" : 40.524151,
                  "lng" : 29.3331261
               }
            }
         },
         "place_id" : "ChIJQ8zKb5QgyxQRWdhW642zLKg",
         "types" : [ "administrative_area_level_1", "political" ]
      },
      {
         "address_components" : [
            {
               "long_name" : "Turkey",
               "short_name" : "TR",
               "types" : [ "country", "political" ]
            }
         ],
         "formatted_address" : "Turkey",
         "geometry" : {
            "bounds" : {
               "northeast" : {
                  "lat" : 42.3666999,
                  "lng" : 44.8178449
               },
               "southwest" : {
                  "lat" : 35.808592,
                  "lng" : 25.5377
               }
            },
            "location" : {
               "lat" : 38.963745,
               "lng" : 35.243322
            },
            "location_type" : "APPROXIMATE",
            "viewport" : {
               "northeast" : {
                  "lat" : 42.3666999,
                  "lng" : 44.8178449
               },
               "southwest" : {
                  "lat" : 35.808592,
                  "lng" : 25.5377
               }
            }
         },
         "place_id" : "ChIJcSZPllwVsBQRKl9iKtTb2UA",
         "types" : [ "country", "political" ]
      }
   ],
   "status" : "OK"
}
