{
   "plus_code" : {
      "compound_code" : "2X6G+CC Fatih/İstanbul, Turkey",
      "global_code" : "8GHC2X6G+CC"
   },
   "results" : [
      {
         "address_components" : [
            {
               "long_name" : "14",
               "short_name" : "14",
               "types" : [ "street_number" ]
            },
            {
               "long_name" : "Cağaloğlu Hamamı Sokak",
               "short_name" : "Cağaloğlu Hamamı Sk.",
               "types" : [ "route" ]
            },
            {
               "long_name" : "Alemdar",
               "short_name" : "Alemdar",
               "types" : [ "administrative_area_level_4", "political" ]
            },
            {
               "long_name" : "Fatih",
               "short_name" : "Fatih",
               "types" : [ "administrative_area_level_2", "political" ]
            },
            {
               "long_name" : "İstanbul",
               "short_name" : "İstanbul",
               "types" : [ "administrative_area_level_1", "political" ]
            },
            {
               "long_name" : "Turkey",
               "short_name" : "TR",
               "types" : [ "country", "political" ]
            },
            {
               "long_name" : "34110",
               "short_name" : "34110",
               "types" : [ "postal_code" ]
            }
         ],
         "formatted_address" : "Alemdar, Cağaloğlu Hamamı Sk. No:14, 34110 Fatih/İstanbul, Turkey",
         "geometry" : {
            "location" : {
               "lat" : 41.0110223,
               "lng" : 28.9759546
            },
            "location_type" : "ROOFTOP",
            "viewport" : {
               "northeast" : {
                  "lat" : 41.0123712802915,
                  "lng" : 28.9773035802915
               },
               "southwest" : {
                  "lat" : 41.0096733197085,
                  "lng" : 28.9746056197085
               }
            }
         },
         "place_id" : "ChIJdVIhgZW5yhQRlTXFsp1bcPQ",
         "plus_code" : {
            "compound_code" : "2X6G+C9 Fatih/İstanbul, Turkey",
            "global_code" : "8GHC2X6G+C9"
         },
         "types" : [ "street_address" ]
      },
      {
         "address_components" : [
            {
               "long_name" : "12",
               "short_name" : "12",
               "types" : [ "street_number" ]
            },
            {
               "long_name" : "Cağaloğlu Hamamı Sokak",
               "short_name" : "Cağaloğlu Hamamı Sk.",
               "types" : [ "route" ]
            },
            {
               "long_name" : "Alemdar",
               "short_name" : "Alemdar",
               "types" : [ "administrative_area_level_4", "political" ]
            },
            {
               "long_name" : "Fatih",
               "short_name" : "Fatih",
               "types" : [ "administrative_area_level_2", "political" ]
            },
            {
               "long_name" : "İstanbul",
               "short_name" : "İstanbul",
               "types" : [ "administrative_area_level_1", "political" ]
            },
            {
               "long_name" : "Turkey",
               "short_name" : "TR",
               "types" : [ "country", "political" ]
            },
            {
               "long_name" : "34110",
               "short_name" : "34110",
               "types" : [ "postal_code" ]
            }
         ],
         "formatted_address" : "Alemdar, Cağaloğlu Hamamı Sk. No:12, 34110 Fatih/İstanbul, Turkey",
         "geometry" : {
            "location" : {
               "lat" : 41.01102640000001,
               "lng" : 28.97594759999999
            },
            "location_type" : "ROOFTOP",
            "viewport" : {
               "northeast" : {
                  "lat" : 41.01237538029151,
                  "lng" : 28.97729658029149
               },
               "southwest" : {
                  "lat" : 41.00967741970851,
                  "lng" : 28.9745986197085
               }
            }
         },
         "place_id" : "ChIJ42E_gJW5yhQRu4ez0V6bqck",
         "plus_code" : {
            "compound_code" : "2X6G+C9 Fatih/İstanbul, Turkey",
            "global_code" : "8GHC2X6G+C9"
         },
         "types" : [
            "accounting",
            "establishment",
            "finance",
            "local_government_office",
            "point_of_interest"
         ]
      },
      {
         "address_components" : [
            {
               "long_name" : "6",
               "short_name" : "6",
               "types" : [ "street_number" ]
            },
            {
               "long_name" : "Cağaloğlu Hamamı Sokak",
               "short_name" : "Cağaloğlu Hamamı Sk.",
               "types" : [ "route" ]
            },
            {
               "long_name" : "Alemdar",
               "short_name" : "Alemdar",
               "types" : [ "administrative_area_level_4", "political" ]
            },
            {
               "long_name" : "Fatih",
               "short_name" : "Fatih",
               "types" : [ "administrative_area_level_2", "political" ]
            },
            {
               "long_name" : "İstanbul",
               "short_name" : "İstanbul",
               "types" : [ "administrative_area_level_1", "political" ]
            },
            {
               "long_name" : "Turkey",
               "short_name" : "TR",
               "types" : [ "country", "political" ]
            },
            {
               "long_name" : "34110",
               "short_name" : "34110",
               "types" : [ "postal_code" ]
            }
         ],
         "formatted_address" : "Alemdar, Cağaloğlu Hamamı Sk. No:6, 34110 Fatih/İstanbul, Turkey",
         "geometry" : {
            "bounds" : {
               "northeast" : {
                  "lat" : 41.01070259999999,
                  "lng" : 28.9763827
               },
               "southwest" : {
                  "lat" : 41.01048249999999,
                  "lng" : 28.9760914
               }
            },
            "location" : {
               "lat" : 41.010576,
               "lng" : 28.9761973
            },
            "location_type" : "ROOFTOP",
            "viewport" : {
               "northeast" : {
                  "lat" : 41.01194153029149,
                  "lng" : 28.97758603029149
               },
               "southwest" : {
                  "lat" : 41.0092435697085,
                  "lng" : 28.9748880697085
               }
            }
         },
         "place_id" : "ChIJ8TZnKL65yhQRxzIgdxsJPMo",
         "types" : [ "premise" ]
      },
      {
         "address_components" : [
            {
               "long_name" : "12",
               "short_name" : "12",
               "types" : [ "street_number" ]
            },
            {
               "long_name" : "Cağaloğlu Hamamı Sokak",
               "short_name" : "Cağaloğlu Hamamı Sk.",
               "types" : [ "route" ]
            },
            {
               "long_name" : "Alemdar",
               "short_name" : "Alemdar",
               "types" : [ "administrative_area_level_4", "political" ]
            },
            {
               "long_name" : "Fatih",
               "short_name" : "Fatih",
               "types" : [ "administrative_area_level_2", "political" ]
            },
            {
               "long_name" : "İstanbul",
               "short_name" : "İstanbul",
               "types" : [ "administrative_area_level_1", "political" ]
            },
            {
               "long_name" : "Turkey",
               "short_name" : "TR",
               "types" : [ "country", "political" ]
            },
            {
               "long_name" : "34110",
               "short_name" : "34110",
               "types" : [ "postal_code" ]
            }
         ],
         "formatted_address" : "Alemdar, Cağaloğlu Hamamı Sk. No:12, 34110 Fatih/İstanbul, Turkey",
         "geometry" : {
            "location" : {
               "lat" : 41.010962,
               "lng" : 28.9758715
            },
            "location_type" : "RANGE_INTERPOLATED",
            "viewport" : {
               "northeast" : {
                  "lat" : 41.0123109802915,
                  "lng" : 28.9772204802915
               },
               "southwest" : {
                  "lat" : 41.0096130197085,
                  "lng" : 28.9745225197085
               }
            }
         },
         "place_id" : "EkVBbGVtZGFyLCBDYcSfYWxvxJ9sdSBIYW1hbcSxIFNrLiBObzoxMiwgMzQxMTAgRmF0aWgvxLBzdGFuYnVsLCBUdXJrZXkiGhIYChQKEgnXrd6GlbnKFBH21r7VH2Ei4BAM",
         "types" : [ "street_address" ]
      },
      {
         "address_components" : [
            {
               "long_name" : "12-38",
               "short_name" : "12-38",
               "types" : [ "street_number" ]
            },
            {
               "long_name" : "Cağaloğlu Hamamı Sokak",
               "short_name" : "Cağaloğlu Hamamı Sk.",
               "types" : [ "route" ]
            },
            {
               "long_name" : "Alemdar",
               "short_name" : "Alemdar",
               "types" : [ "administrative_area_level_4", "political" ]
            },
            {
               "long_name" : "Fatih",
               "short_name" : "Fatih",
               "types" : [ "administrative_area_level_2", "political" ]
            },
            {
               "long_name" : "İstanbul",
               "short_name" : "İstanbul",
               "types" : [ "administrative_area_level_1", "political" ]
            },
            {
               "long_name" : "Turkey",
               "short_name" : "TR",
               "types" : [ "country", "political" ]
            },
            {
               "long_name" : "34110",
               "short_name" : "34110",
               "types" : [ "postal_code" ]
            }
         ],
         "formatted_address" : "Alemdar, Cağaloğlu Hamamı Sk. 12-38, 34110 Fatih/İstanbul, Turkey",
         "geometry" : {
            "bounds" : {
               "northeast" : {
                  "lat" : 41.011074,
                  "lng" : 28.976197
               },
               "southwest" : {
                  "lat" : 41.010743,
                  "lng" : 28.9757049
               }
            },
            "location" : {
               "lat" : 41.0109085,
               "lng" : 28.975951
            },
            "location_type" : "GEOMETRIC_CENTER",
            "viewport" : {
               "northeast" : {
                  "lat" : 41.0122574802915,
                  "lng" : 28.9772999302915
               },
               "southwest" : {
                  "lat" : 41.0095595197085,
                  "lng" : 28.9746019697085
               }
            }
         },
         "place_id" : "ChIJ163ehpW5yhQR9ta-1R9hIuA",
         "types" : [ "route" ]
      },
      {
         "address_components" : [
            {
               "long_name" : "Alemdar",
               "short_name" : "Alemdar",
               "types" : [ "administrative_area_level_4", "political" ]
            },
            {
               "long_name" : "Fatih",
               "short_name" : "Fatih",
               "types" : [ "administrative_area_level_2", "political" ]
            },
            {
               "long_name" : "İstanbul",
               "short_name" : "İstanbul",
               "types" : [ "administrative_area_level_1", "political" ]
            },
            {
               "long_name" : "Turkey",
               "short_name" : "TR",
               "types" : [ "country", "political" ]
            },
            {
               "long_name" : "34110",
               "short_name" : "34110",
               "types" : [ "postal_code" ]
            }
         ],
         "formatted_address" : "Alemdar, 34110 Fatih/İstanbul, Turkey",
         "geometry" : {
            "bounds" : {
               "northeast" : {
                  "lat" : 41.011878,
                  "lng" : 28.9787411
               },
               "southwest" : {
                  "lat" : 41.007826,
                  "lng" : 28.9733469
               }
            },
            "location" : {
               "lat" : 41.0096655,
               "lng" : 28.9754242
            },
            "location_type" : "APPROXIMATE",
            "viewport" : {
               "northeast" : {
                  "lat" : 41.011878,
                  "lng" : 28.9787411
               },
               "southwest" : {
                  "lat" : 41.007826,
                  "lng" : 28.9733469
               }
            }
         },
         "place_id" : "ChIJ-enA9ZW5yhQRAiZXs_jAbz8",
         "types" : [ "administrative_area_level_4", "political" ]
      },
      {
         "address_components" : [
            {
               "long_name" : "34110",
               "short_name" : "34110",
               "types" : [ "postal_code" ]
            },
            {
               "long_name" : "Fatih",
               "short_name" : "Fatih",
               "types" : [ "administrative_area_level_2", "political" ]
            },
            {
               "long_name" : "İstanbul",
               "short_name" : "İstanbul",
               "types" : [ "administrative_area_level_1", "political" ]
            },
            {
               "long_name" : "Turkey",
               "short_name" : "TR",
               "types" : [ "country", "political" ]
            }
         ],
         "formatted_address" : "34110 Fatih/İstanbul, Turkey",
         "geometry" : {
            "bounds" : {
               "northeast" : {
                  "lat" : 41.0177659,
                  "lng" : 28.986053
               },
               "southwest" : {
                  "lat" : 41.0078126,
                  "lng" : 28.9733469
               }
            },
            "location" : {
               "lat" : 41.0127426,
               "lng" : 28.9768795
            },
            "location_type" : "APPROXIMATE",
            "viewport" : {
               "northeast" : {
                  "lat" : 41.0177659,
                  "lng" : 28.986053
               },
               "southwest" : {
                  "lat" : 41.0078126,
                  "lng" : 28.9733469
               }
            }
         },
         "place_id" : "ChIJj7kuRZW5yhQRNuqQapsaYLE",
         "types" : [ "postal_code" ]
      },
      {
         "address_components" : [
            {
               "long_name" : "Fatih",
               "short_name" : "Fatih",
               "types" : [ "administrative_area_level_2", "political" ]
            },
            {
               "long_name" : "İstanbul",
               "short_name" : "İstanbul",
               "types" : [ "administrative_area_level_1", "political" ]
            },
            {
               "long_name" : "Turkey",
               "short_name" : "TR",
               "types" : [ "country", "political" ]
            }
         ],
         "formatted_address" : "Fatih/İstanbul, Turkey",
         "geometry" : {
            "bounds" : {
               "northeast" : {
                  "lat" : 41.040882,
                  "lng" : 28.9880719
               },
               "southwest" : {
                  "lat" : 40.987637,
                  "lng" : 28.919171
               }
            },
            "location" : {
               "lat" : 41.0168639,
               "lng" : 28.9470422
            },
            "location_type" : "APPROXIMATE",
            "viewport" : {
               "northeast" : {
                  "lat" : 41.040882,
                  "lng" : 28.9880719
               },
               "southwest" : {
                  "lat" : 40.987637,
                  "lng" : 28.919171
               }
            }
         },
         "place_id" : "ChIJmeP65Ym5yhQR4CKL7X6E8DQ",
         "types" : [ "administrative_area_level_2", "political" ]
      },
      {
         "address_components" : [
            {
               "long_name" : "European Side",
               "short_name" : "European Side",
               "types" : [ "neighborhood", "political" ]
            },
            {
               "long_name" : "İstanbul",
               "short_name" : "İstanbul",
               "types" : [ "administrative_area_level_1", "political" ]
            },
            {
               "long_name" : "Turkey",
               "short_name" : "TR",
               "types" : [ "country", "political" ]
            }
         ],
         "formatted_address" : "European Side, İstanbul, Turkey",
         "geometry" : {
            "bounds" : {
               "northeast" : {
                  "lat" : 41.199239,
                  "lng" : 29.077487
               },
               "southwest" : {
                  "lat" : 40.954508,
                  "lng" : 28.595554
               }
            },
            "location" : {
               "lat" : 41.0286909,
               "lng" : 28.92404269999999
            },
            "location_type" : "APPROXIMATE",
            "viewport" : {
               "northeast" : {
                  "lat" : 41.199239,
                  "lng" : 29.077487
               },
               "southwest" : {
                  "lat" : 40.954508,
                  "lng" : 28.595554
               }
            }
         },
         "place_id" : "ChIJhTq6hpGkyhQRC5OjsPQ0MVY",
         "types" : [ "neighborhood", "political" ]
      },
      {
         "address_components" : [
            {
               "long_name" : "İstanbul",
               "short_name" : "İstanbul",
               "types" : [ "locality", "political" ]
            },
            {
               "long_name" : "İstanbul",
               "short_name" : "İstanbul",
               "types" : [ "administrative_area_level_1", "political" ]
            },
            {
               "long_name" : "Turkey",
               "short_name" : "TR",
               "types" : [ "country", "political" ]
            }
         ],
         "formatted_address" : "İstanbul, Turkey",
         "geometry" : {
            "bounds" : {
               "northeast" : {
                  "lat" : 41.199239,
                  "lng" : 29.4288049
               },
               "southwest" : {
                  "lat" : 40.811404,
                  "lng" : 28.595554
               }
            },
            "location" : {
               "lat" : 41.0082376,
               "lng" : 28.9783589
            },
            "location_type" : "APPROXIMATE",
            "viewport" : {
               "northeast" : {
                  "lat" : 41.199239,
                  "lng" : 29.4288049
               },
               "southwest" : {
                  "lat" : 40.811404,
                  "lng" : 28.595554
               }
            }
         },
         "place_id" : "ChIJawhoAASnyhQR0LABvJj-zOE",
         "types" : [ "locality", "political" ]
      },
      {
         "address_components" : [
            {
               "long_name" : "İstanbul",
               "short_name" : "İstanbul",
               "types" : [ "administrative_area_level_1", "political" ]
            },
            {
               "long_name" : "Turkey",
               "short_name" : "TR",
               "types" : [ "country", "political" ]
            }
         ],
         "formatted_address" : "İstanbul, Turkey",
         "geometry" : {
            "bounds" : {
               "northeast" : {
                  "lat" : 41.58461,
                  "lng" : 29.915705
               },
               "southwest" : {
                  "lat" : 40.8026889,
                  "lng" : 27.971373
               }
            },
            "location" : {
               "lat" : 41.1634302,
               "lng" : 28.7664408
            },
            "location_type" : "APPROXIMATE",
            "viewport" : {
               "northeast" : {
                  "lat" : 41.58461,
                  "lng" : 29.915705
               },
               "southwest" : {
                  "lat" : 40.8026889,
                  "lng" : 27.971373
               }
            }
         },
         "place_id" : "ChIJexVgWlG2yhQR6B1akfSarCI",
         "types" : [ "administrative_area_level_1", "political" ]
      },
      {
         "address_components" : [
            {
               "long_name" : "Turkey",
               "short_name" : "TR",
               "types" : [ "country", "political" ]
            }
         ],
         "formatted_address" : "Turkey",
         "geometry" : {
            "bounds" : {
               "northeast" : {
                  "lat" : 42.3666999,
                  "lng" : 44.8178449
               },
               "southwest" : {
                  "lat" : 35.808592,
                  "lng" : 25.5377
               }
            },
            "location" : {
               "lat" : 38.963745,
               "lng" : 35.243322
            },
            "location_type" : "APPROXIMATE",
            "viewport" : {
               "northeast" : {
                  "lat" : 42.3666999,
                  "lng" : 44.8178449
               },
               "southwest" : {
                  "lat" : 35.808592,
                  "lng" : 25.5377
               }
            }
         },
         "place_id" : "ChIJcSZPllwVsBQRKl9iKtTb2UA",
         "types" : [ "country", "political" ]
      },
      {
         "address_components" : [
            {
               "long_name" : "2X6G+CC",
               "short_name" : "2X6G+CC",
               "types" : [ "plus_code" ]
            },
            {
               "long_name" : "Fatih",
               "short_name" : "Fatih",
               "types" : [ "administrative_area_level_2", "political" ]
            },
            {
               "long_name" : "İstanbul",
               "short_name" : "İstanbul",
               "types" : [ "administrative_area_level_1", "political" ]
            },
            {
               "long_name" : "Turkey",
               "short_name" : "TR",
               "types" : [ "country", "political" ]
            }
         ],
         "formatted_address" : "2X6G+CC Fatih/İstanbul, Turkey",
         "geometry" : {
            "bounds" : {
               "northeast" : {
                  "lat" : 41.011125,
                  "lng" : 28.976125
               },
               "southwest" : {
                  "lat" : 41.011,
                  "lng" : 28.976
               }
            },
            "location" : {
               "lat" : 41.0110581,
               "lng" : 28.9760542
            },
            "location_type" : "ROOFTOP",
            "viewport" : {
               "northeast" : {
                  "lat" : 41.0124114802915,
                  "lng" : 28.9774114802915
               },
               "southwest" : {
                  "lat" : 41.0097135197085,
                  "lng" : 28.9747135197085
               }
            }
         },
         "place_id" : "GhIJju0QWmqBREARmh8ksN75PEA",
         "plus_code" : {
            "compound_code" : "2X6G+CC Fatih/İstanbul, Turkey",
            "global_code" : "8GHC2X6G+CC"
         },
         "types" : [ "plus_code" ]
      }
   ],
   "status" : "OK"
}
