{
   "plus_code" : {
      "compound_code" : "398H+96Q Şehitkamil/Gaziantep, Turkey",
      "global_code" : "8G9V398H+96Q"
   },
   "results" : [
      {
         "address_components" : [
            {
               "long_name" : "32",
               "short_name" : "32",
               "types" : [ "street_number" ]
            },
            {
               "long_name" : "İstasyon Caddesi",
               "short_name" : "İstasyon Cd.",
               "types" : [ "route" ]
            },
            {
               "long_name" : "Yaprak",
               "short_name" : "Yaprak",
               "types" : [ "administrative_area_level_4", "political" ]
            },
            {
               "long_name" : "Şehitkamil",
               "short_name" : "Şehitkamil",
               "types" : [ "administrative_area_level_2", "political" ]
            },
            {
               "long_name" : "Gaziantep",
               "short_name" : "Gaziantep",
               "types" : [ "administrative_area_level_1", "political" ]
            },
            {
               "long_name" : "Turkey",
               "short_name" : "TR",
               "types" : [ "country", "political" ]
            },
            {
               "long_name" : "27080",
               "short_name" : "27080",
               "types" : [ "postal_code" ]
            }
         ],
         "formatted_address" : "Yaprak, İstasyon Cd. No:32, 27080 Şehitkamil/Gaziantep, Turkey",
         "geometry" : {
            "location" : {
               "lat" : 37.065974,
               "lng" : 37.378172
            },
            "location_type" : "ROOFTOP",
            "viewport" : {
               "northeast" : {
                  "lat" : 37.0673229802915,
                  "lng" : 37.3795209802915
               },
               "southwest" : {
                  "lat" : 37.0646250197085,
                  "lng" : 37.3768230197085
               }
            }
         },
         "place_id" : "ChIJL3BoMEzhMRUR3GgBqcOaiys",
         "plus_code" : {
            "compound_code" : "398H+97 Şehitkamil/Gaziantep, Turkey",
            "global_code" : "8G9V398H+97"
         },
         "types" : [ "street_address" ]
      },
      {
         "address_components" : [
            {
               "long_name" : "32",
               "short_name" : "32",
               "types" : [ "street_number" ]
            },
            {
               "long_name" : "İstasyon Caddesi",
               "short_name" : "İstasyon Cd.",
               "types" : [ "route" ]
            },
            {
               "long_name" : "Yaprak",
               "short_name" : "Yaprak",
               "types" : [ "administrative_area_level_4", "political" ]
            },
            {
               "long_name" : "Şehitkamil",
               "short_name" : "Şehitkamil",
               "types" : [ "administrative_area_level_2", "political" ]
            },
            {
               "long_name" : "Gaziantep",
               "short_name" : "Gaziantep",
               "types" : [ "administrative_area_level_1", "political" ]
            },
            {
               "long_name" : "Turkey",
               "short_name" : "TR",
               "types" : [ "country", "political" ]
            },
            {
               "long_name" : "27080",
               "short_name" : "27080",
               "types" : [ "postal_code" ]
            }
         ],
         "formatted_address" : "Yaprak, İstasyon Cd. No:32, 27080 Şehitkamil/Gaziantep, Turkey",
         "geometry" : {
            "location" : {
               "lat" : 37.0660155,
               "lng" : 37.378146
            },
            "location_type" : "RANGE_INTERPOLATED",
            "viewport" : {
               "northeast" : {
                  "lat" : 37.06736448029149,
                  "lng" : 37.3794949802915
               },
               "southwest" : {
                  "lat" : 37.0646665197085,
                  "lng" : 37.3767970197085
               }
            }
         },
         "place_id" : "EkBZYXByYWssIMSwc3Rhc3lvbiBDZC4gTm86MzIsIDI3MDgwIMWeZWhpdGthbWlsL0dhemlhbnRlcCwgVHVya2V5IhoSGAoUChIJ9Xe3MUzhMRURonO-tAM6r8UQIA",
         "types" : [ "street_address" ]
      },
      {
         "address_components" : [
            {
               "long_name" : "398H+96",
               "short_name" : "398H+96",
               "types" : [ "plus_code" ]
            },
            {
               "long_name" : "Şehitkamil",
               "short_name" : "Şehitkamil",
               "types" : [ "administrative_area_level_2", "political" ]
            },
            {
               "long_name" : "Gaziantep",
               "short_name" : "Gaziantep",
               "types" : [ "administrative_area_level_1", "political" ]
            },
            {
               "long_name" : "Turkey",
               "short_name" : "TR",
               "types" : [ "country", "political" ]
            }
         ],
         "formatted_address" : "398H+96 Şehitkamil/Gaziantep, Turkey",
         "geometry" : {
            "bounds" : {
               "northeast" : {
                  "lat" : 37.066,
                  "lng" : 37.378125
               },
               "southwest" : {
                  "lat" : 37.065875,
                  "lng" : 37.378
               }
            },
            "location" : {
               "lat" : 37.0659531,
               "lng" : 37.37811
            },
            "location_type" : "GEOMETRIC_CENTER",
            "viewport" : {
               "northeast" : {
                  "lat" : 37.06728648029149,
                  "lng" : 37.3794114802915
               },
               "southwest" : {
                  "lat" : 37.06458851970849,
                  "lng" : 37.3767135197085
               }
            }
         },
         "place_id" : "GhIJ8MizJnGIQkARMSWS6GWwQkA",
         "plus_code" : {
            "compound_code" : "398H+96 Şehitkamil/Gaziantep, Turkey",
            "global_code" : "8G9V398H+96"
         },
         "types" : [ "plus_code" ]
      },
      {
         "address_components" : [
            {
               "long_name" : "İstasyon Caddesi",
               "short_name" : "İstasyon Cd.",
               "types" : [ "route" ]
            },
            {
               "long_name" : "Seferpaşa",
               "short_name" : "Seferpaşa",
               "types" : [ "administrative_area_level_4", "political" ]
            },
            {
               "long_name" : "Şahinbey",
               "short_name" : "Şahinbey",
               "types" : [ "administrative_area_level_2", "political" ]
            },
            {
               "long_name" : "Gaziantep",
               "short_name" : "Gaziantep",
               "types" : [ "administrative_area_level_1", "political" ]
            },
            {
               "long_name" : "Turkey",
               "short_name" : "TR",
               "types" : [ "country", "political" ]
            },
            {
               "long_name" : "27400",
               "short_name" : "27400",
               "types" : [ "postal_code" ]
            }
         ],
         "formatted_address" : "Seferpaşa, İstasyon Cd., 27400 Şahinbey/Gaziantep, Turkey",
         "geometry" : {
            "bounds" : {
               "northeast" : {
                  "lat" : 37.0658894,
                  "lng" : 37.3781435
               },
               "southwest" : {
                  "lat" : 37.0655909,
                  "lng" : 37.3781243
               }
            },
            "location" : {
               "lat" : 37.0657402,
               "lng" : 37.3781339
            },
            "location_type" : "GEOMETRIC_CENTER",
            "viewport" : {
               "northeast" : {
                  "lat" : 37.06708913029149,
                  "lng" : 37.3794828802915
               },
               "southwest" : {
                  "lat" : 37.06439116970849,
                  "lng" : 37.3767849197085
               }
            }
         },
         "place_id" : "ChIJsRlUO0zhMRURQPsNWGyNxFw",
         "types" : [ "route" ]
      },
      {
         "address_components" : [
            {
               "long_name" : "27080",
               "short_name" : "27080",
               "types" : [ "postal_code" ]
            },
            {
               "long_name" : "Yaprak",
               "short_name" : "Yaprak",
               "types" : [ "administrative_area_level_4", "political" ]
            },
            {
               "long_name" : "Şehitkamil",
               "short_name" : "Şehitkamil",
               "types" : [ "administrative_area_level_2", "political" ]
            },
            {
               "long_name" : "Gaziantep",
               "short_name" : "Gaziantep",
               "types" : [ "administrative_area_level_1", "political" ]
            },
            {
               "long_name" : "Turkey",
               "short_name" : "TR",
               "types" : [ "country", "political" ]
            }
         ],
         "formatted_address" : "Yaprak, 27080 Şehitkamil/Gaziantep, Turkey",
         "geometry" : {
            "bounds" : {
               "northeast" : {
                  "lat" : 37.0748981,
                  "lng" : 37.384874
               },
               "southwest" : {
                  "lat" : 37.0658661,
                  "lng" : 37.3779758
               }
            },
            "location" : {
               "lat" : 37.0696015,
               "lng" : 37.3807203
            },
            "location_type" : "APPROXIMATE",
            "viewport" : {
               "northeast" : {
                  "lat" : 37.0748981,
                  "lng" : 37.384874
               },
               "southwest" : {
                  "lat" : 37.0658661,
                  "lng" : 37.3779758
               }
            }
         },
         "place_id" : "ChIJvZ-FIlPhMRURr582QCzyLWE",
         "types" : [ "postal_code" ]
      },
      {
         "address_components" : [
            {
               "long_name" : "Yaprak",
               "short_name" : "Yaprak",
               "types" : [ "administrative_area_level_4", "political" ]
            },
            {
               "long_name" : "Şehitkamil",
               "short_name" : "Şehitkamil",
               "types" : [ "administrative_area_level_2", "political" ]
            },
            {
               "long_name" : "Gaziantep",
               "short_name" : "Gaziantep",
               "types" : [ "administrative_area_level_1", "political" ]
            },
            {
               "long_name" : "Turkey",
               "short_name" : "TR",
               "types" : [ "country", "political" ]
            }
         ],
         "formatted_address" : "Yaprak, Şehitkamil/Gaziantep, Turkey",
         "geometry" : {
            "bounds" : {
               "northeast" : {
                  "lat" : 37.0750759,
                  "lng" : 37.38489
               },
               "southwest" : {
                  "lat" : 37.0658661,
                  "lng" : 37.3779758
               }
            },
            "location" : {
               "lat" : 37.0696015,
               "lng" : 37.3807203
            },
            "location_type" : "APPROXIMATE",
            "viewport" : {
               "northeast" : {
                  "lat" : 37.0750759,
                  "lng" : 37.38489
               },
               "southwest" : {
                  "lat" : 37.0658661,
                  "lng" : 37.3779758
               }
            }
         },
         "place_id" : "ChIJyzOwIlPhMRUR6CnbwaEugng",
         "types" : [ "administrative_area_level_4", "political" ]
      },
      {
         "address_components" : [
            {
               "long_name" : "Gaziantep",
               "short_name" : "Gaziantep",
               "types" : [ "locality", "political" ]
            },
            {
               "long_name" : "Gaziantep",
               "short_name" : "Gaziantep",
               "types" : [ "administrative_area_level_1", "political" ]
            },
            {
               "long_name" : "Turkey",
               "short_name" : "TR",
               "types" : [ "country", "political" ]
            }
         ],
         "formatted_address" : "Gaziantep, Turkey",
         "geometry" : {
            "bounds" : {
               "northeast" : {
                  "lat" : 37.108291,
                  "lng" : 37.4567749
               },
               "southwest" : {
                  "lat" : 37.0092519,
                  "lng" : 37.303499
               }
            },
            "location" : {
               "lat" : 37.065953,
               "lng" : 37.37811
            },
            "location_type" : "APPROXIMATE",
            "viewport" : {
               "northeast" : {
                  "lat" : 37.108291,
                  "lng" : 37.4567749
               },
               "southwest" : {
                  "lat" : 37.0092519,
                  "lng" : 37.303499
               }
            }
         },
         "place_id" : "ChIJL4zx97TmMRUR0KprETWLLsA",
         "types" : [ "locality", "political" ]
      },
      {
         "address_components" : [
            {
               "long_name" : "Şehitkamil",
               "short_name" : "Şehitkamil",
               "types" : [ "administrative_area_level_2", "political" ]
            },
            {
               "long_name" : "Gaziantep",
               "short_name" : "Gaziantep",
               "types" : [ "administrative_area_level_1", "political" ]
            },
            {
               "long_name" : "Turkey",
               "short_name" : "TR",
               "types" : [ "country", "political" ]
            }
         ],
         "formatted_address" : "Şehitkamil/Gaziantep, Turkey",
         "geometry" : {
            "bounds" : {
               "northeast" : {
                  "lat" : 37.346473,
                  "lng" : 37.6856279
               },
               "southwest" : {
                  "lat" : 36.993664,
                  "lng" : 36.9962619
               }
            },
            "location" : {
               "lat" : 37.203126,
               "lng" : 37.3399768
            },
            "location_type" : "APPROXIMATE",
            "viewport" : {
               "northeast" : {
                  "lat" : 37.346473,
                  "lng" : 37.6856279
               },
               "southwest" : {
                  "lat" : 36.993664,
                  "lng" : 36.9962619
               }
            }
         },
         "place_id" : "ChIJPxAVGR_9MRURJK8jIUkeV2w",
         "types" : [ "administrative_area_level_2", "political" ]
      },
      {
         "address_components" : [
            {
               "long_name" : "Gaziantep",
               "short_name" : "Gaziantep",
               "types" : [ "administrative_area_level_1", "political" ]
            },
            {
               "long_name" : "Turkey",
               "short_name" : "TR",
               "types" : [ "country", "political" ]
            }
         ],
         "formatted_address" : "Gaziantep, Turkey",
         "geometry" : {
            "bounds" : {
               "northeast" : {
                  "lat" : 37.538598,
                  "lng" : 38.081021
               },
               "southwest" : {
                  "lat" : 36.7067668,
                  "lng" : 36.4434159
               }
            },
            "location" : {
               "lat" : 37.0763882,
               "lng" : 37.3827234
            },
            "location_type" : "APPROXIMATE",
            "viewport" : {
               "northeast" : {
                  "lat" : 37.538598,
                  "lng" : 38.081021
               },
               "southwest" : {
                  "lat" : 36.7067668,
                  "lng" : 36.4434159
               }
            }
         },
         "place_id" : "ChIJe8jvhnAeLhURlcmNGgvZAMA",
         "types" : [ "administrative_area_level_1", "political" ]
      },
      {
         "address_components" : [
            {
               "long_name" : "Turkey",
               "short_name" : "TR",
               "types" : [ "country", "political" ]
            }
         ],
         "formatted_address" : "Turkey",
         "geometry" : {
            "bounds" : {
               "northeast" : {
                  "lat" : 42.3666999,
                  "lng" : 44.8178449
               },
               "southwest" : {
                  "lat" : 35.808592,
                  "lng" : 25.5377
               }
            },
            "location" : {
               "lat" : 38.963745,
               "lng" : 35.243322
            },
            "location_type" : "APPROXIMATE",
            "viewport" : {
               "northeast" : {
                  "lat" : 42.3666999,
                  "lng" : 44.8178449
               },
               "southwest" : {
                  "lat" : 35.808592,
                  "lng" : 25.5377
               }
            }
         },
         "place_id" : "ChIJcSZPllwVsBQRKl9iKtTb2UA",
         "types" : [ "country", "political" ]
      }
   ],
   "status" : "OK"
}
