{
   "plus_code" : {
      "compound_code" : "6MFH+7P Falahat, Iraq",
      "global_code" : "8H556MFH+7P"
   },
   "results" : [
      {
         "address_components" : [
            {
               "long_name" : "Fallujah",
               "short_name" : "Fallujah",
               "types" : [ "administrative_area_level_2", "political" ]
            },
            {
               "long_name" : "Al Anbar Governorate",
               "short_name" : "AN",
               "types" : [ "administrative_area_level_1", "political" ]
            },
            {
               "long_name" : "Iraq",
               "short_name" : "IQ",
               "types" : [ "country", "political" ]
            }
         ],
         "formatted_address" : "Fallujah, Iraq",
         "geometry" : {
            "bounds" : {
               "northeast" : {
                  "lat" : 33.6672112,
                  "lng" : 44.1581727
               },
               "southwest" : {
                  "lat" : 32.6082906,
                  "lng" : 43.3685303
               }
            },
            "location" : {
               "lat" : 33.055448,
               "lng" : 43.7142484
            },
            "location_type" : "APPROXIMATE",
            "viewport" : {
               "northeast" : {
                  "lat" : 33.6672112,
                  "lng" : 44.1581727
               },
               "southwest" : {
                  "lat" : 32.6082906,
                  "lng" : 43.3685303
               }
            }
         },
         "place_id" : "ChIJ_5zkwaUnWhURNGsvYwqcaPY",
         "types" : [ "administrative_area_level_2", "political" ]
      },
      {
         "address_components" : [
            {
               "long_name" : "Al Anbar Governorate",
               "short_name" : "AN",
               "types" : [ "administrative_area_level_1", "political" ]
            },
            {
               "long_name" : "Iraq",
               "short_name" : "IQ",
               "types" : [ "country", "political" ]
            }
         ],
         "formatted_address" : "Al Anbar Governorate, Iraq",
         "geometry" : {
            "bounds" : {
               "northeast" : {
                  "lat" : 35.1013492,
                  "lng" : 44.307257
               },
               "southwest" : {
                  "lat" : 30.5916904,
                  "lng" : 38.7960359
               }
            },
            "location" : {
               "lat" : 32.5597614,
               "lng" : 41.9196471
            },
            "location_type" : "APPROXIMATE",
            "viewport" : {
               "northeast" : {
                  "lat" : 35.1013492,
                  "lng" : 44.307257
               },
               "southwest" : {
                  "lat" : 30.5916904,
                  "lng" : 38.7960359
               }
            }
         },
         "place_id" : "ChIJ3wjG1Ku_QxURvPyAOxGzELo",
         "types" : [ "administrative_area_level_1", "political" ]
      },
      {
         "address_components" : [
            {
               "long_name" : "Iraq",
               "short_name" : "IQ",
               "types" : [ "country", "political" ]
            }
         ],
         "formatted_address" : "Iraq",
         "geometry" : {
            "bounds" : {
               "northeast" : {
                  "lat" : 37.380645,
                  "lng" : 48.6350999
               },
               "southwest" : {
                  "lat" : 29.0612079,
                  "lng" : 38.7936741
               }
            },
            "location" : {
               "lat" : 33.223191,
               "lng" : 43.679291
            },
            "location_type" : "APPROXIMATE",
            "viewport" : {
               "northeast" : {
                  "lat" : 37.380645,
                  "lng" : 48.6350999
               },
               "southwest" : {
                  "lat" : 29.0612079,
                  "lng" : 38.7936741
               }
            }
         },
         "place_id" : "ChIJEUr1VD2CVxURAhYGorthpW0",
         "types" : [ "country", "political" ]
      },
      {
         "address_components" : [
            {
               "long_name" : "6MFH+7P",
               "short_name" : "6MFH+7P",
               "types" : [ "plus_code" ]
            },
            {
               "long_name" : "Falahat",
               "short_name" : "Falahat",
               "types" : [ "locality", "political" ]
            },
            {
               "long_name" : "Fallujah",
               "short_name" : "Fallujah",
               "types" : [ "administrative_area_level_2", "political" ]
            },
            {
               "long_name" : "Al Anbar Governorate",
               "short_name" : "AN",
               "types" : [ "administrative_area_level_1", "political" ]
            },
            {
               "long_name" : "Iraq",
               "short_name" : "IQ",
               "types" : [ "country", "political" ]
            }
         ],
         "formatted_address" : "6MFH+7P Falahat, Iraq",
         "geometry" : {
            "bounds" : {
               "northeast" : {
                  "lat" : 33.22325,
                  "lng" : 43.679375
               },
               "southwest" : {
                  "lat" : 33.223125,
                  "lng" : 43.67925
               }
            },
            "location" : {
               "lat" : 33.2231911,
               "lng" : 43.679291
            },
            "location_type" : "ROOFTOP",
            "viewport" : {
               "northeast" : {
                  "lat" : 33.2245364802915,
                  "lng" : 43.6806614802915
               },
               "southwest" : {
                  "lat" : 33.22183851970851,
                  "lng" : 43.6779635197085
               }
            }
         },
         "place_id" : "GhIJD6GlhpGcQEARy7vqAfPWRUA",
         "plus_code" : {
            "compound_code" : "6MFH+7P Falahat, Iraq",
            "global_code" : "8H556MFH+7P"
         },
         "types" : [ "plus_code" ]
      }
   ],
   "status" : "OK"
}
