{
   "plus_code" : {
      "compound_code" : "GXX3+XFH Celilkırı/Çorum Merkez/Çorum, Turkey",
      "global_code" : "8GGPGXX3+XFH"
   },
   "results" : [
      {
         "address_components" : [
            {
               "long_name" : "GXX3+XF",
               "short_name" : "GXX3+XF",
               "types" : [ "plus_code" ]
            },
            {
               "long_name" : "Celilkırı",
               "short_name" : "Celilkırı",
               "types" : [ "administrative_area_level_3", "political" ]
            },
            {
               "long_name" : "Çorum Merkez",
               "short_name" : "Çorum Merkez",
               "types" : [ "administrative_area_level_2", "political" ]
            },
            {
               "long_name" : "Çorum",
               "short_name" : "Çorum",
               "types" : [ "administrative_area_level_1", "political" ]
            },
            {
               "long_name" : "Turkey",
               "short_name" : "TR",
               "types" : [ "country", "political" ]
            }
         ],
         "formatted_address" : "GXX3+XF Celilkırı/Çorum Merkez/Çorum, Turkey",
         "geometry" : {
            "bounds" : {
               "northeast" : {
                  "lat" : 40.55,
                  "lng" : 34.95375
               },
               "southwest" : {
                  "lat" : 40.549875,
                  "lng" : 34.953625
               }
            },
            "location" : {
               "lat" : 40.54992560000001,
               "lng" : 34.9537242
            },
            "location_type" : "GEOMETRIC_CENTER",
            "viewport" : {
               "northeast" : {
                  "lat" : 40.55128648029149,
                  "lng" : 34.9550364802915
               },
               "southwest" : {
                  "lat" : 40.5485885197085,
                  "lng" : 34.9523385197085
               }
            }
         },
         "place_id" : "GhIJ2p1J9mNGREARrjN0ohN6QUA",
         "plus_code" : {
            "compound_code" : "GXX3+XF Celilkırı/Çorum Merkez/Çorum, Turkey",
            "global_code" : "8GGPGXX3+XF"
         },
         "types" : [ "plus_code" ]
      },
      {
         "address_components" : [
            {
               "long_name" : "Osmancık Caddesi",
               "short_name" : "Osmancık Cd.",
               "types" : [ "route" ]
            },
            {
               "long_name" : "Yeniyol",
               "short_name" : "Yeniyol",
               "types" : [ "administrative_area_level_4", "political" ]
            },
            {
               "long_name" : "Çorum Merkez",
               "short_name" : "Çorum Merkez",
               "types" : [ "administrative_area_level_2", "political" ]
            },
            {
               "long_name" : "Çorum",
               "short_name" : "Çorum",
               "types" : [ "administrative_area_level_1", "political" ]
            },
            {
               "long_name" : "Turkey",
               "short_name" : "TR",
               "types" : [ "country", "political" ]
            },
            {
               "long_name" : "19200",
               "short_name" : "19200",
               "types" : [ "postal_code" ]
            }
         ],
         "formatted_address" : "Yeniyol, Osmancık Cd., 19200 Çorum Merkez/Çorum, Turkey",
         "geometry" : {
            "bounds" : {
               "northeast" : {
                  "lat" : 40.5501085,
                  "lng" : 34.9536913
               },
               "southwest" : {
                  "lat" : 40.5499822,
                  "lng" : 34.9535145
               }
            },
            "location" : {
               "lat" : 40.55004539999999,
               "lng" : 34.9536029
            },
            "location_type" : "GEOMETRIC_CENTER",
            "viewport" : {
               "northeast" : {
                  "lat" : 40.5513943302915,
                  "lng" : 34.9549518802915
               },
               "southwest" : {
                  "lat" : 40.5486963697085,
                  "lng" : 34.9522539197085
               }
            }
         },
         "place_id" : "ChIJYaAZMZgqh0ARINWvUYbAm7c",
         "types" : [ "route" ]
      },
      {
         "address_components" : [
            {
               "long_name" : "Kunduzhan",
               "short_name" : "Kunduzhan",
               "types" : [ "administrative_area_level_4", "political" ]
            },
            {
               "long_name" : "Çorum Merkez",
               "short_name" : "Çorum Merkez",
               "types" : [ "administrative_area_level_2", "political" ]
            },
            {
               "long_name" : "Çorum",
               "short_name" : "Çorum",
               "types" : [ "administrative_area_level_1", "political" ]
            },
            {
               "long_name" : "Turkey",
               "short_name" : "TR",
               "types" : [ "country", "political" ]
            },
            {
               "long_name" : "19040",
               "short_name" : "19040",
               "types" : [ "postal_code" ]
            }
         ],
         "formatted_address" : "Kunduzhan, 19040 Çorum Merkez/Çorum, Turkey",
         "geometry" : {
            "bounds" : {
               "northeast" : {
                  "lat" : 40.556296,
                  "lng" : 34.953899
               },
               "southwest" : {
                  "lat" : 40.549244,
                  "lng" : 34.935791
               }
            },
            "location" : {
               "lat" : 40.5526052,
               "lng" : 34.9439393
            },
            "location_type" : "APPROXIMATE",
            "viewport" : {
               "northeast" : {
                  "lat" : 40.556296,
                  "lng" : 34.953899
               },
               "southwest" : {
                  "lat" : 40.549244,
                  "lng" : 34.935791
               }
            }
         },
         "place_id" : "ChIJicCJuZ8qh0ARAtA36e53LpY",
         "types" : [ "administrative_area_level_4", "political" ]
      },
      {
         "address_components" : [
            {
               "long_name" : "19040",
               "short_name" : "19040",
               "types" : [ "postal_code" ]
            },
            {
               "long_name" : "Çorum Merkez",
               "short_name" : "Çorum Merkez",
               "types" : [ "administrative_area_level_2", "political" ]
            },
            {
               "long_name" : "Çorum",
               "short_name" : "Çorum",
               "types" : [ "administrative_area_level_1", "political" ]
            },
            {
               "long_name" : "Turkey",
               "short_name" : "TR",
               "types" : [ "country", "political" ]
            }
         ],
         "formatted_address" : "19040 Çorum Merkez/Çorum, Turkey",
         "geometry" : {
            "bounds" : {
               "northeast" : {
                  "lat" : 40.556296,
                  "lng" : 34.953899
               },
               "southwest" : {
                  "lat" : 40.549244,
                  "lng" : 34.935791
               }
            },
            "location" : {
               "lat" : 40.5526052,
               "lng" : 34.9439393
            },
            "location_type" : "APPROXIMATE",
            "viewport" : {
               "northeast" : {
                  "lat" : 40.556296,
                  "lng" : 34.953899
               },
               "southwest" : {
                  "lat" : 40.549244,
                  "lng" : 34.935791
               }
            }
         },
         "place_id" : "ChIJwWVIup8qh0AR4en3Gni0jbw",
         "types" : [ "postal_code" ]
      },
      {
         "address_components" : [
            {
               "long_name" : "Çorum",
               "short_name" : "Çorum",
               "types" : [ "locality", "political" ]
            },
            {
               "long_name" : "Çorum Merkez",
               "short_name" : "Çorum Merkez",
               "types" : [ "administrative_area_level_2", "political" ]
            },
            {
               "long_name" : "Çorum",
               "short_name" : "Çorum",
               "types" : [ "administrative_area_level_1", "political" ]
            },
            {
               "long_name" : "Turkey",
               "short_name" : "TR",
               "types" : [ "country", "political" ]
            }
         ],
         "formatted_address" : "Çorum, Çorum Merkez/Çorum, Turkey",
         "geometry" : {
            "bounds" : {
               "northeast" : {
                  "lat" : 40.583577,
                  "lng" : 34.9962619
               },
               "southwest" : {
                  "lat" : 40.486869,
                  "lng" : 34.887546
               }
            },
            "location" : {
               "lat" : 40.54992560000001,
               "lng" : 34.9537242
            },
            "location_type" : "APPROXIMATE",
            "viewport" : {
               "northeast" : {
                  "lat" : 40.583577,
                  "lng" : 34.9962619
               },
               "southwest" : {
                  "lat" : 40.486869,
                  "lng" : 34.887546
               }
            }
         },
         "place_id" : "ChIJcas1Gp8qh0AR1figAs9DSaM",
         "types" : [ "locality", "political" ]
      },
      {
         "address_components" : [
            {
               "long_name" : "Çorum Merkez",
               "short_name" : "Çorum Merkez",
               "types" : [ "administrative_area_level_2", "political" ]
            },
            {
               "long_name" : "Çorum",
               "short_name" : "Çorum",
               "types" : [ "administrative_area_level_1", "political" ]
            },
            {
               "long_name" : "Turkey",
               "short_name" : "TR",
               "types" : [ "country", "political" ]
            }
         ],
         "formatted_address" : "Çorum Merkez/Çorum, Turkey",
         "geometry" : {
            "bounds" : {
               "northeast" : {
                  "lat" : 40.742708,
                  "lng" : 35.291048
               },
               "southwest" : {
                  "lat" : 40.255891,
                  "lng" : 34.48235
               }
            },
            "location" : {
               "lat" : 40.51984909999999,
               "lng" : 34.7608896
            },
            "location_type" : "APPROXIMATE",
            "viewport" : {
               "northeast" : {
                  "lat" : 40.742708,
                  "lng" : 35.291048
               },
               "southwest" : {
                  "lat" : 40.255891,
                  "lng" : 34.48235
               }
            }
         },
         "place_id" : "ChIJGbeNspPVgEAR1dYeu1kt1yg",
         "types" : [ "administrative_area_level_2", "political" ]
      },
      {
         "address_components" : [
            {
               "long_name" : "Çorum",
               "short_name" : "Çorum",
               "types" : [ "administrative_area_level_1", "political" ]
            },
            {
               "long_name" : "Turkey",
               "short_name" : "TR",
               "types" : [ "country", "political" ]
            }
         ],
         "formatted_address" : "Çorum, Turkey",
         "geometry" : {
            "bounds" : {
               "northeast" : {
                  "lat" : 41.353124,
                  "lng" : 35.5335209
               },
               "southwest" : {
                  "lat" : 39.925757,
                  "lng" : 33.957731
               }
            },
            "location" : {
               "lat" : 40.4998211,
               "lng" : 34.5986263
            },
            "location_type" : "APPROXIMATE",
            "viewport" : {
               "northeast" : {
                  "lat" : 41.353124,
                  "lng" : 35.5335209
               },
               "southwest" : {
                  "lat" : 39.925757,
                  "lng" : 33.957731
               }
            }
         },
         "place_id" : "ChIJt6TjDx8ygUAR8ocO2zlxu-o",
         "types" : [ "administrative_area_level_1", "political" ]
      },
      {
         "address_components" : [
            {
               "long_name" : "Turkey",
               "short_name" : "TR",
               "types" : [ "country", "political" ]
            }
         ],
         "formatted_address" : "Turkey",
         "geometry" : {
            "bounds" : {
               "northeast" : {
                  "lat" : 42.3666999,
                  "lng" : 44.8178449
               },
               "southwest" : {
                  "lat" : 35.808592,
                  "lng" : 25.5377
               }
            },
            "location" : {
               "lat" : 38.963745,
               "lng" : 35.243322
            },
            "location_type" : "APPROXIMATE",
            "viewport" : {
               "northeast" : {
                  "lat" : 42.3666999,
                  "lng" : 44.8178449
               },
               "southwest" : {
                  "lat" : 35.808592,
                  "lng" : 25.5377
               }
            }
         },
         "place_id" : "ChIJcSZPllwVsBQRKl9iKtTb2UA",
         "types" : [ "country", "political" ]
      }
   ],
   "status" : "OK"
}
