{
   "plus_code" : {
      "compound_code" : "6987+49 Ula/Muğla, Turkey",
      "global_code" : "8G9C6987+49"
   },
   "results" : [
      {
         "address_components" : [
            {
               "long_name" : "2",
               "short_name" : "2",
               "types" : [ "street_number" ]
            },
            {
               "long_name" : "Recai Güreli Caddesi",
               "short_name" : "Recai Güreli Cd.",
               "types" : [ "route" ]
            },
            {
               "long_name" : "Emirbeyazıt",
               "short_name" : "Emirbeyazıt",
               "types" : [ "administrative_area_level_4", "political" ]
            },
            {
               "long_name" : "Muğla Merkez",
               "short_name" : "Muğla Merkez",
               "types" : [ "administrative_area_level_2", "political" ]
            },
            {
               "long_name" : "Muğla",
               "short_name" : "Muğla",
               "types" : [ "administrative_area_level_1", "political" ]
            },
            {
               "long_name" : "Turkey",
               "short_name" : "TR",
               "types" : [ "country", "political" ]
            },
            {
               "long_name" : "48000",
               "short_name" : "48000",
               "types" : [ "postal_code" ]
            }
         ],
         "formatted_address" : "Emirbeyazıt, Recai Güreli Cd. No:2, 48000 Muğla Merkez/Muğla, Turkey",
         "geometry" : {
            "location" : {
               "lat" : 37.2156045,
               "lng" : 28.3633035
            },
            "location_type" : "ROOFTOP",
            "viewport" : {
               "northeast" : {
                  "lat" : 37.2169534802915,
                  "lng" : 28.3646524802915
               },
               "southwest" : {
                  "lat" : 37.2142555197085,
                  "lng" : 28.36195451970849
               }
            }
         },
         "place_id" : "ChIJr0QYAnZyvxQRadfQNscXYkk",
         "plus_code" : {
            "compound_code" : "6987+68 Ula/Muğla, Turkey",
            "global_code" : "8G9C6987+68"
         },
         "types" : [ "street_address" ]
      },
      {
         "address_components" : [
            {
               "long_name" : "Otobüs Durağı",
               "short_name" : "Otobüs Durağı",
               "types" : [ "establishment", "point_of_interest", "transit_station" ]
            },
            {
               "long_name" : "Cumhuriyet Meydanı",
               "short_name" : "Cumhuriyet Meydanı",
               "types" : [ "route" ]
            },
            {
               "long_name" : "Şeyh",
               "short_name" : "Şeyh",
               "types" : [ "administrative_area_level_4", "political" ]
            },
            {
               "long_name" : "Menteşe",
               "short_name" : "Menteşe",
               "types" : [ "administrative_area_level_2", "political" ]
            },
            {
               "long_name" : "Muğla",
               "short_name" : "Muğla",
               "types" : [ "administrative_area_level_1", "political" ]
            },
            {
               "long_name" : "Turkey",
               "short_name" : "TR",
               "types" : [ "country", "political" ]
            },
            {
               "long_name" : "48000",
               "short_name" : "48000",
               "types" : [ "postal_code" ]
            }
         ],
         "formatted_address" : "Şeyh, Otobüs Durağı, Cumhuriyet Meydanı, 48000 Menteşe/Muğla, Turkey",
         "geometry" : {
            "location" : {
               "lat" : 37.215402,
               "lng" : 28.364087
            },
            "location_type" : "GEOMETRIC_CENTER",
            "viewport" : {
               "northeast" : {
                  "lat" : 37.2167509802915,
                  "lng" : 28.3654359802915
               },
               "southwest" : {
                  "lat" : 37.2140530197085,
                  "lng" : 28.36273801970849
               }
            }
         },
         "place_id" : "ChIJZ0FL_3VyvxQRgFhXB3O6wzA",
         "plus_code" : {
            "compound_code" : "6987+5J Ula/Muğla, Turkey",
            "global_code" : "8G9C6987+5J"
         },
         "types" : [ "establishment", "point_of_interest", "transit_station" ]
      },
      {
         "address_components" : [
            {
               "long_name" : "2",
               "short_name" : "2",
               "types" : [ "street_number" ]
            },
            {
               "long_name" : "Recai Güreli Caddesi",
               "short_name" : "Recai Güreli Cd.",
               "types" : [ "route" ]
            },
            {
               "long_name" : "Emirbeyazıt",
               "short_name" : "Emirbeyazıt",
               "types" : [ "administrative_area_level_4", "political" ]
            },
            {
               "long_name" : "Menteşe",
               "short_name" : "Menteşe",
               "types" : [ "administrative_area_level_2", "political" ]
            },
            {
               "long_name" : "Muğla",
               "short_name" : "Muğla",
               "types" : [ "administrative_area_level_1", "political" ]
            },
            {
               "long_name" : "Turkey",
               "short_name" : "TR",
               "types" : [ "country", "political" ]
            },
            {
               "long_name" : "48000",
               "short_name" : "48000",
               "types" : [ "postal_code" ]
            }
         ],
         "formatted_address" : "Emirbeyazıt, Recai Güreli Cd. No:2, 48000 Menteşe/Muğla, Turkey",
         "geometry" : {
            "location" : {
               "lat" : 37.2154691,
               "lng" : 28.3631997
            },
            "location_type" : "RANGE_INTERPOLATED",
            "viewport" : {
               "northeast" : {
                  "lat" : 37.2168180802915,
                  "lng" : 28.3645486802915
               },
               "southwest" : {
                  "lat" : 37.2141201197085,
                  "lng" : 28.3618507197085
               }
            }
         },
         "place_id" : "EjpFbWlyYmV5YXrEsXQsIFJlY2FpIEfDvHJlbGkgQ2QuIE5vOjIsIDQ4MDAwIE11xJ9sYSwgVHVya2V5IhoSGAoUChIJaxSWA3ZyvxQR5B_JYtO0GZwQAg",
         "types" : [ "street_address" ]
      },
      {
         "address_components" : [
            {
               "long_name" : "2",
               "short_name" : "2",
               "types" : [ "street_number" ]
            },
            {
               "long_name" : "Recai Güreli Caddesi",
               "short_name" : "Recai Güreli Cd.",
               "types" : [ "route" ]
            },
            {
               "long_name" : "Emirbeyazıt",
               "short_name" : "Emirbeyazıt",
               "types" : [ "administrative_area_level_4", "political" ]
            },
            {
               "long_name" : "Menteşe",
               "short_name" : "Menteşe",
               "types" : [ "administrative_area_level_2", "political" ]
            },
            {
               "long_name" : "Muğla",
               "short_name" : "Muğla",
               "types" : [ "administrative_area_level_1", "political" ]
            },
            {
               "long_name" : "Turkey",
               "short_name" : "TR",
               "types" : [ "country", "political" ]
            },
            {
               "long_name" : "48000",
               "short_name" : "48000",
               "types" : [ "postal_code" ]
            }
         ],
         "formatted_address" : "Emirbeyazıt, Recai Güreli Cd. No:2, 48000 Menteşe/Muğla, Turkey",
         "geometry" : {
            "bounds" : {
               "northeast" : {
                  "lat" : 37.21552200000001,
                  "lng" : 28.3634667
               },
               "southwest" : {
                  "lat" : 37.2153393,
                  "lng" : 28.363091
               }
            },
            "location" : {
               "lat" : 37.2154307,
               "lng" : 28.3632789
            },
            "location_type" : "GEOMETRIC_CENTER",
            "viewport" : {
               "northeast" : {
                  "lat" : 37.21677963029151,
                  "lng" : 28.3646278302915
               },
               "southwest" : {
                  "lat" : 37.21408166970851,
                  "lng" : 28.3619298697085
               }
            }
         },
         "place_id" : "ChIJaxSWA3ZyvxQR5B_JYtO0GZw",
         "types" : [ "route" ]
      },
      {
         "address_components" : [
            {
               "long_name" : "6987+49",
               "short_name" : "6987+49",
               "types" : [ "plus_code" ]
            },
            {
               "long_name" : "Ula",
               "short_name" : "Ula",
               "types" : [ "administrative_area_level_2", "political" ]
            },
            {
               "long_name" : "Muğla",
               "short_name" : "Muğla",
               "types" : [ "administrative_area_level_1", "political" ]
            },
            {
               "long_name" : "Turkey",
               "short_name" : "TR",
               "types" : [ "country", "political" ]
            }
         ],
         "formatted_address" : "6987+49 Ula/Muğla, Turkey",
         "geometry" : {
            "bounds" : {
               "northeast" : {
                  "lat" : 37.215375,
                  "lng" : 28.3635
               },
               "southwest" : {
                  "lat" : 37.21525,
                  "lng" : 28.363375
               }
            },
            "location" : {
               "lat" : 37.215374,
               "lng" : 28.363394
            },
            "location_type" : "ROOFTOP",
            "viewport" : {
               "northeast" : {
                  "lat" : 37.2166614802915,
                  "lng" : 28.3647864802915
               },
               "southwest" : {
                  "lat" : 37.2139635197085,
                  "lng" : 28.36208851970849
               }
            }
         },
         "place_id" : "GhIJUDQPYJGbQkARCJChYwddPEA",
         "plus_code" : {
            "compound_code" : "6987+49 Ula/Muğla, Turkey",
            "global_code" : "8G9C6987+49"
         },
         "types" : [ "plus_code" ]
      },
      {
         "address_components" : [
            {
               "long_name" : "Emirbeyazıt",
               "short_name" : "Emirbeyazıt",
               "types" : [ "administrative_area_level_4", "political" ]
            },
            {
               "long_name" : "Menteşe",
               "short_name" : "Menteşe",
               "types" : [ "administrative_area_level_2", "political" ]
            },
            {
               "long_name" : "Muğla",
               "short_name" : "Muğla",
               "types" : [ "administrative_area_level_1", "political" ]
            },
            {
               "long_name" : "Turkey",
               "short_name" : "TR",
               "types" : [ "country", "political" ]
            },
            {
               "long_name" : "48000",
               "short_name" : "48000",
               "types" : [ "postal_code" ]
            }
         ],
         "formatted_address" : "Emirbeyazıt, 48000 Menteşe/Muğla, Turkey",
         "geometry" : {
            "bounds" : {
               "northeast" : {
                  "lat" : 37.2189629,
                  "lng" : 28.3721749
               },
               "southwest" : {
                  "lat" : 37.1822919,
                  "lng" : 28.353946
               }
            },
            "location" : {
               "lat" : 37.1926103,
               "lng" : 28.3666482
            },
            "location_type" : "APPROXIMATE",
            "viewport" : {
               "northeast" : {
                  "lat" : 37.2189629,
                  "lng" : 28.3721749
               },
               "southwest" : {
                  "lat" : 37.1822919,
                  "lng" : 28.353946
               }
            }
         },
         "place_id" : "ChIJt3M0TmlyvxQRsLopDfjrED4",
         "types" : [ "administrative_area_level_4", "political" ]
      },
      {
         "address_components" : [
            {
               "long_name" : "48000",
               "short_name" : "48000",
               "types" : [ "postal_code" ]
            },
            {
               "long_name" : "Menteşe",
               "short_name" : "Menteşe",
               "types" : [ "administrative_area_level_2", "political" ]
            },
            {
               "long_name" : "Muğla",
               "short_name" : "Muğla",
               "types" : [ "administrative_area_level_1", "political" ]
            },
            {
               "long_name" : "Turkey",
               "short_name" : "TR",
               "types" : [ "country", "political" ]
            }
         ],
         "formatted_address" : "48000 Menteşe/Muğla, Turkey",
         "geometry" : {
            "bounds" : {
               "northeast" : {
                  "lat" : 37.2189629,
                  "lng" : 28.3721749
               },
               "southwest" : {
                  "lat" : 37.1822919,
                  "lng" : 28.353946
               }
            },
            "location" : {
               "lat" : 37.1926103,
               "lng" : 28.3666482
            },
            "location_type" : "APPROXIMATE",
            "viewport" : {
               "northeast" : {
                  "lat" : 37.2189629,
                  "lng" : 28.3721749
               },
               "southwest" : {
                  "lat" : 37.1822919,
                  "lng" : 28.353946
               }
            }
         },
         "place_id" : "ChIJlRP2UWlyvxQR0KR4P3Bx_dM",
         "types" : [ "postal_code" ]
      },
      {
         "address_components" : [
            {
               "long_name" : "Muğla",
               "short_name" : "Muğla",
               "types" : [ "locality", "political" ]
            },
            {
               "long_name" : "Menteşe",
               "short_name" : "Menteşe",
               "types" : [ "administrative_area_level_2", "political" ]
            },
            {
               "long_name" : "Muğla",
               "short_name" : "Muğla",
               "types" : [ "administrative_area_level_1", "political" ]
            },
            {
               "long_name" : "Turkey",
               "short_name" : "TR",
               "types" : [ "country", "political" ]
            },
            {
               "long_name" : "48000",
               "short_name" : "48000",
               "types" : [ "postal_code" ]
            }
         ],
         "formatted_address" : "Muğla, 48000 Menteşe/Muğla, Turkey",
         "geometry" : {
            "bounds" : {
               "northeast" : {
                  "lat" : 37.2251649,
                  "lng" : 28.386186
               },
               "southwest" : {
                  "lat" : 37.1951139,
                  "lng" : 28.342408
               }
            },
            "location" : {
               "lat" : 37.215374,
               "lng" : 28.363394
            },
            "location_type" : "APPROXIMATE",
            "viewport" : {
               "northeast" : {
                  "lat" : 37.2251649,
                  "lng" : 28.386186
               },
               "southwest" : {
                  "lat" : 37.1951139,
                  "lng" : 28.342408
               }
            }
         },
         "place_id" : "ChIJv_ZssQlyvxQRwcF6HNYppfs",
         "types" : [ "locality", "political" ]
      },
      {
         "address_components" : [
            {
               "long_name" : "Menteşe",
               "short_name" : "Menteşe",
               "types" : [ "administrative_area_level_2", "political" ]
            },
            {
               "long_name" : "Muğla",
               "short_name" : "Muğla",
               "types" : [ "administrative_area_level_1", "political" ]
            },
            {
               "long_name" : "Turkey",
               "short_name" : "TR",
               "types" : [ "country", "political" ]
            }
         ],
         "formatted_address" : "Menteşe/Muğla, Turkey",
         "geometry" : {
            "bounds" : {
               "northeast" : {
                  "lat" : 37.5036949,
                  "lng" : 28.8440431
               },
               "southwest" : {
                  "lat" : 37.012134,
                  "lng" : 28.024199
               }
            },
            "location" : {
               "lat" : 37.2351984,
               "lng" : 28.4396756
            },
            "location_type" : "APPROXIMATE",
            "viewport" : {
               "northeast" : {
                  "lat" : 37.5036949,
                  "lng" : 28.8440431
               },
               "southwest" : {
                  "lat" : 37.012134,
                  "lng" : 28.024199
               }
            }
         },
         "place_id" : "ChIJ57Ojdt5uvxQR0kbsI52iXuw",
         "types" : [ "administrative_area_level_2", "political" ]
      },
      {
         "address_components" : [
            {
               "long_name" : "Muğla",
               "short_name" : "Muğla",
               "types" : [ "administrative_area_level_1", "political" ]
            },
            {
               "long_name" : "Turkey",
               "short_name" : "TR",
               "types" : [ "country", "political" ]
            }
         ],
         "formatted_address" : "Muğla, Turkey",
         "geometry" : {
            "bounds" : {
               "northeast" : {
                  "lat" : 37.595642,
                  "lng" : 29.790042
               },
               "southwest" : {
                  "lat" : 36.2935329,
                  "lng" : 27.1801291
               }
            },
            "location" : {
               "lat" : 37.1835819,
               "lng" : 28.4863963
            },
            "location_type" : "APPROXIMATE",
            "viewport" : {
               "northeast" : {
                  "lat" : 37.595642,
                  "lng" : 29.790042
               },
               "southwest" : {
                  "lat" : 36.2935329,
                  "lng" : 27.1801291
               }
            }
         },
         "place_id" : "ChIJX51L60hlvhQRDbqxCzgXX2c",
         "types" : [ "administrative_area_level_1", "political" ]
      },
      {
         "address_components" : [
            {
               "long_name" : "Turkey",
               "short_name" : "TR",
               "types" : [ "country", "political" ]
            }
         ],
         "formatted_address" : "Turkey",
         "geometry" : {
            "bounds" : {
               "northeast" : {
                  "lat" : 42.3666999,
                  "lng" : 44.8178449
               },
               "southwest" : {
                  "lat" : 35.808592,
                  "lng" : 25.5377
               }
            },
            "location" : {
               "lat" : 38.963745,
               "lng" : 35.243322
            },
            "location_type" : "APPROXIMATE",
            "viewport" : {
               "northeast" : {
                  "lat" : 42.3666999,
                  "lng" : 44.8178449
               },
               "southwest" : {
                  "lat" : 35.808592,
                  "lng" : 25.5377
               }
            }
         },
         "place_id" : "ChIJcSZPllwVsBQRKl9iKtTb2UA",
         "types" : [ "country", "political" ]
      }
   ],
   "status" : "OK"
}
