{
   "plus_code" : {
      "compound_code" : "GP25+397 Turgutlu/Manisa, Turkey",
      "global_code" : "8GC9GP25+397"
   },
   "results" : [
      {
         "address_components" : [
            {
               "long_name" : "8",
               "short_name" : "8",
               "types" : [ "street_number" ]
            },
            {
               "long_name" : "Cevdet Öktem Caddesi",
               "short_name" : "Cevdet Öktem Cd.",
               "types" : [ "route" ]
            },
            {
               "long_name" : "Turan",
               "short_name" : "Turan",
               "types" : [ "administrative_area_level_4", "political" ]
            },
            {
               "long_name" : "Turgutlu",
               "short_name" : "Turgutlu",
               "types" : [ "administrative_area_level_2", "political" ]
            },
            {
               "long_name" : "Manisa",
               "short_name" : "Manisa",
               "types" : [ "administrative_area_level_1", "political" ]
            },
            {
               "long_name" : "Turkey",
               "short_name" : "TR",
               "types" : [ "country", "political" ]
            },
            {
               "long_name" : "45400",
               "short_name" : "45400",
               "types" : [ "postal_code" ]
            }
         ],
         "formatted_address" : "Turan, Cevdet Öktem Cd. No:8, 45400 Turgutlu/Manisa, Turkey",
         "geometry" : {
            "location" : {
               "lat" : 38.5001143,
               "lng" : 27.7084621
            },
            "location_type" : "ROOFTOP",
            "viewport" : {
               "northeast" : {
                  "lat" : 38.5014632802915,
                  "lng" : 27.7098110802915
               },
               "southwest" : {
                  "lat" : 38.4987653197085,
                  "lng" : 27.7071131197085
               }
            }
         },
         "place_id" : "ChIJWw8ICZanuRQRrEBbuJrOMkQ",
         "plus_code" : {
            "compound_code" : "GP25+29 Turgutlu/Manisa, Turkey",
            "global_code" : "8GC9GP25+29"
         },
         "types" : [ "street_address" ]
      },
      {
         "address_components" : [
            {
               "long_name" : "128",
               "short_name" : "128",
               "types" : [ "street_number" ]
            },
            {
               "long_name" : "Atatürk Bulvarı",
               "short_name" : "Atatürk Blv.",
               "types" : [ "route" ]
            },
            {
               "long_name" : "Turan",
               "short_name" : "Turan",
               "types" : [ "administrative_area_level_4", "political" ]
            },
            {
               "long_name" : "Turgutlu",
               "short_name" : "Turgutlu",
               "types" : [ "administrative_area_level_2", "political" ]
            },
            {
               "long_name" : "Manisa",
               "short_name" : "Manisa",
               "types" : [ "administrative_area_level_1", "political" ]
            },
            {
               "long_name" : "Turkey",
               "short_name" : "TR",
               "types" : [ "country", "political" ]
            },
            {
               "long_name" : "45400",
               "short_name" : "45400",
               "types" : [ "postal_code" ]
            }
         ],
         "formatted_address" : "Turan, Atatürk Blv. No:128, 45400 Turgutlu/Manisa, Turkey",
         "geometry" : {
            "location" : {
               "lat" : 38.5001463,
               "lng" : 27.708436
            },
            "location_type" : "RANGE_INTERPOLATED",
            "viewport" : {
               "northeast" : {
                  "lat" : 38.50149528029149,
                  "lng" : 27.7097849802915
               },
               "southwest" : {
                  "lat" : 38.49879731970849,
                  "lng" : 27.7070870197085
               }
            }
         },
         "place_id" : "EjpUdXJhbiwgQXRhdMO8cmsgQmx2LiBObzoxMjgsIDQ1NDAwIFR1cmd1dGx1L01hbmlzYSwgVHVya2V5IhsSGQoUChIJIRo_-5WnuRQRlun-lKEsj3MQgAE",
         "types" : [ "street_address" ]
      },
      {
         "address_components" : [
            {
               "long_name" : "7-1",
               "short_name" : "7-1",
               "types" : [ "street_number" ]
            },
            {
               "long_name" : "Eski Manisa Yolu",
               "short_name" : "Eski Manisa Yolu",
               "types" : [ "route" ]
            },
            {
               "long_name" : "Turan",
               "short_name" : "Turan",
               "types" : [ "administrative_area_level_4", "political" ]
            },
            {
               "long_name" : "Turgutlu",
               "short_name" : "Turgutlu",
               "types" : [ "administrative_area_level_2", "political" ]
            },
            {
               "long_name" : "Manisa",
               "short_name" : "Manisa",
               "types" : [ "administrative_area_level_1", "political" ]
            },
            {
               "long_name" : "Turkey",
               "short_name" : "TR",
               "types" : [ "country", "political" ]
            },
            {
               "long_name" : "45400",
               "short_name" : "45400",
               "types" : [ "postal_code" ]
            }
         ],
         "formatted_address" : "Turan, Eski Manisa Yolu 7-1, 45400 Turgutlu/Manisa, Turkey",
         "geometry" : {
            "bounds" : {
               "northeast" : {
                  "lat" : 38.5001511,
                  "lng" : 27.708436
               },
               "southwest" : {
                  "lat" : 38.500098,
                  "lng" : 27.707717
               }
            },
            "location" : {
               "lat" : 38.5001429,
               "lng" : 27.7080744
            },
            "location_type" : "GEOMETRIC_CENTER",
            "viewport" : {
               "northeast" : {
                  "lat" : 38.50147353029151,
                  "lng" : 27.7094254802915
               },
               "southwest" : {
                  "lat" : 38.49877556970851,
                  "lng" : 27.7067275197085
               }
            }
         },
         "place_id" : "ChIJ34Nj4pWnuRQRDH7GogMJq2Q",
         "types" : [ "route" ]
      },
      {
         "address_components" : [
            {
               "long_name" : "GP25+39",
               "short_name" : "GP25+39",
               "types" : [ "plus_code" ]
            },
            {
               "long_name" : "Turgutlu",
               "short_name" : "Turgutlu",
               "types" : [ "administrative_area_level_2", "political" ]
            },
            {
               "long_name" : "Manisa",
               "short_name" : "Manisa",
               "types" : [ "administrative_area_level_1", "political" ]
            },
            {
               "long_name" : "Turkey",
               "short_name" : "TR",
               "types" : [ "country", "political" ]
            }
         ],
         "formatted_address" : "GP25+39 Turgutlu/Manisa, Turkey",
         "geometry" : {
            "bounds" : {
               "northeast" : {
                  "lat" : 38.50025,
                  "lng" : 27.7085
               },
               "southwest" : {
                  "lat" : 38.500125,
                  "lng" : 27.708375
               }
            },
            "location" : {
               "lat" : 38.500161,
               "lng" : 27.70841
            },
            "location_type" : "GEOMETRIC_CENTER",
            "viewport" : {
               "northeast" : {
                  "lat" : 38.5015364802915,
                  "lng" : 27.7097864802915
               },
               "southwest" : {
                  "lat" : 38.4988385197085,
                  "lng" : 27.7070885197085
               }
            }
         },
         "place_id" : "GhIJCd6QRgVAQ0ARyyiWW1q1O0A",
         "plus_code" : {
            "compound_code" : "GP25+39 Turgutlu/Manisa, Turkey",
            "global_code" : "8GC9GP25+39"
         },
         "types" : [ "plus_code" ]
      },
      {
         "address_components" : [
            {
               "long_name" : "45400",
               "short_name" : "45400",
               "types" : [ "postal_code" ]
            },
            {
               "long_name" : "Turan",
               "short_name" : "Turan",
               "types" : [ "administrative_area_level_4", "political" ]
            },
            {
               "long_name" : "Turgutlu",
               "short_name" : "Turgutlu",
               "types" : [ "administrative_area_level_2", "political" ]
            },
            {
               "long_name" : "Manisa",
               "short_name" : "Manisa",
               "types" : [ "administrative_area_level_1", "political" ]
            },
            {
               "long_name" : "Turkey",
               "short_name" : "TR",
               "types" : [ "country", "political" ]
            }
         ],
         "formatted_address" : "Turan, 45400 Turgutlu/Manisa, Turkey",
         "geometry" : {
            "bounds" : {
               "northeast" : {
                  "lat" : 38.5036279,
                  "lng" : 27.709033
               },
               "southwest" : {
                  "lat" : 38.4975611,
                  "lng" : 27.7053249
               }
            },
            "location" : {
               "lat" : 38.50049610000001,
               "lng" : 27.7072802
            },
            "location_type" : "APPROXIMATE",
            "viewport" : {
               "northeast" : {
                  "lat" : 38.5036279,
                  "lng" : 27.709033
               },
               "southwest" : {
                  "lat" : 38.4975611,
                  "lng" : 27.7053249
               }
            }
         },
         "place_id" : "ChIJcSSVGpanuRQRGXXdlKxCL_4",
         "types" : [ "postal_code" ]
      },
      {
         "address_components" : [
            {
               "long_name" : "Turan",
               "short_name" : "Turan",
               "types" : [ "administrative_area_level_4", "political" ]
            },
            {
               "long_name" : "Turgutlu",
               "short_name" : "Turgutlu",
               "types" : [ "administrative_area_level_2", "political" ]
            },
            {
               "long_name" : "Manisa",
               "short_name" : "Manisa",
               "types" : [ "administrative_area_level_1", "political" ]
            },
            {
               "long_name" : "Turkey",
               "short_name" : "TR",
               "types" : [ "country", "political" ]
            }
         ],
         "formatted_address" : "Turan, Turgutlu/Manisa, Turkey",
         "geometry" : {
            "bounds" : {
               "northeast" : {
                  "lat" : 38.5036279,
                  "lng" : 27.709033
               },
               "southwest" : {
                  "lat" : 38.4975611,
                  "lng" : 27.7053249
               }
            },
            "location" : {
               "lat" : 38.5017112,
               "lng" : 27.7072802
            },
            "location_type" : "APPROXIMATE",
            "viewport" : {
               "northeast" : {
                  "lat" : 38.5036279,
                  "lng" : 27.709033
               },
               "southwest" : {
                  "lat" : 38.4975611,
                  "lng" : 27.7053249
               }
            }
         },
         "place_id" : "ChIJBxI88L2nuRQRiHJhLqfmqO0",
         "types" : [ "administrative_area_level_4", "political" ]
      },
      {
         "address_components" : [
            {
               "long_name" : "Turgutlu",
               "short_name" : "Turgutlu",
               "types" : [ "locality", "political" ]
            },
            {
               "long_name" : "Turgutlu",
               "short_name" : "Turgutlu",
               "types" : [ "administrative_area_level_2", "political" ]
            },
            {
               "long_name" : "Manisa",
               "short_name" : "Manisa",
               "types" : [ "administrative_area_level_1", "political" ]
            },
            {
               "long_name" : "Turkey",
               "short_name" : "TR",
               "types" : [ "country", "political" ]
            }
         ],
         "formatted_address" : "Turgutlu, Manisa, Turkey",
         "geometry" : {
            "bounds" : {
               "northeast" : {
                  "lat" : 38.516324,
                  "lng" : 27.751561
               },
               "southwest" : {
                  "lat" : 38.4682389,
                  "lng" : 27.6382459
               }
            },
            "location" : {
               "lat" : 38.500161,
               "lng" : 27.70841
            },
            "location_type" : "APPROXIMATE",
            "viewport" : {
               "northeast" : {
                  "lat" : 38.516324,
                  "lng" : 27.751561
               },
               "southwest" : {
                  "lat" : 38.4682389,
                  "lng" : 27.6382459
               }
            }
         },
         "place_id" : "ChIJqQRhfL2nuRQRKG-2me81q10",
         "types" : [ "locality", "political" ]
      },
      {
         "address_components" : [
            {
               "long_name" : "Turgutlu",
               "short_name" : "Turgutlu",
               "types" : [ "administrative_area_level_2", "political" ]
            },
            {
               "long_name" : "Manisa",
               "short_name" : "Manisa",
               "types" : [ "administrative_area_level_1", "political" ]
            },
            {
               "long_name" : "Turkey",
               "short_name" : "TR",
               "types" : [ "country", "political" ]
            }
         ],
         "formatted_address" : "Turgutlu/Manisa, Turkey",
         "geometry" : {
            "bounds" : {
               "northeast" : {
                  "lat" : 38.6355379,
                  "lng" : 27.8973161
               },
               "southwest" : {
                  "lat" : 38.3166951,
                  "lng" : 27.611003
               }
            },
            "location" : {
               "lat" : 38.5008159,
               "lng" : 27.784246
            },
            "location_type" : "APPROXIMATE",
            "viewport" : {
               "northeast" : {
                  "lat" : 38.6355379,
                  "lng" : 27.8973161
               },
               "southwest" : {
                  "lat" : 38.3166951,
                  "lng" : 27.611003
               }
            }
         },
         "place_id" : "ChIJ452nohuouRQRvk-Vom0m4QE",
         "types" : [ "administrative_area_level_2", "political" ]
      },
      {
         "address_components" : [
            {
               "long_name" : "Manisa",
               "short_name" : "Manisa",
               "types" : [ "administrative_area_level_1", "political" ]
            },
            {
               "long_name" : "Turkey",
               "short_name" : "TR",
               "types" : [ "country", "political" ]
            }
         ],
         "formatted_address" : "Manisa, Turkey",
         "geometry" : {
            "bounds" : {
               "northeast" : {
                  "lat" : 39.423783,
                  "lng" : 29.1186169
               },
               "southwest" : {
                  "lat" : 38.083416,
                  "lng" : 27.122022
               }
            },
            "location" : {
               "lat" : 38.8419373,
               "lng" : 28.1122679
            },
            "location_type" : "APPROXIMATE",
            "viewport" : {
               "northeast" : {
                  "lat" : 39.423783,
                  "lng" : 29.1186169
               },
               "southwest" : {
                  "lat" : 38.083416,
                  "lng" : 27.122022
               }
            }
         },
         "place_id" : "ChIJ6eR21vE5uBQRd0B5rS2pwNc",
         "types" : [ "administrative_area_level_1", "political" ]
      },
      {
         "address_components" : [
            {
               "long_name" : "Turkey",
               "short_name" : "TR",
               "types" : [ "country", "political" ]
            }
         ],
         "formatted_address" : "Turkey",
         "geometry" : {
            "bounds" : {
               "northeast" : {
                  "lat" : 42.3666999,
                  "lng" : 44.8178449
               },
               "southwest" : {
                  "lat" : 35.808592,
                  "lng" : 25.5377
               }
            },
            "location" : {
               "lat" : 38.963745,
               "lng" : 35.243322
            },
            "location_type" : "APPROXIMATE",
            "viewport" : {
               "northeast" : {
                  "lat" : 42.3666999,
                  "lng" : 44.8178449
               },
               "southwest" : {
                  "lat" : 35.808592,
                  "lng" : 25.5377
               }
            }
         },
         "place_id" : "ChIJcSZPllwVsBQRKl9iKtTb2UA",
         "types" : [ "country", "political" ]
      }
   ],
   "status" : "OK"
}
