{
   "plus_code" : {
      "compound_code" : "MCF4+M9R Kuyucak/Uşak Merkez/Uşak, Turkey",
      "global_code" : "8GCFMCF4+M9R"
   },
   "results" : [
      {
         "address_components" : [
            {
               "long_name" : "2",
               "short_name" : "2",
               "types" : [ "street_number" ]
            },
            {
               "long_name" : "Fatih Caddesi",
               "short_name" : "Fatih Cd.",
               "types" : [ "route" ]
            },
            {
               "long_name" : "Durak",
               "short_name" : "Durak",
               "types" : [ "administrative_area_level_4", "political" ]
            },
            {
               "long_name" : "Uşak Merkez",
               "short_name" : "Uşak Merkez",
               "types" : [ "administrative_area_level_2", "political" ]
            },
            {
               "long_name" : "Uşak",
               "short_name" : "Uşak",
               "types" : [ "administrative_area_level_1", "political" ]
            },
            {
               "long_name" : "Turkey",
               "short_name" : "TR",
               "types" : [ "country", "political" ]
            },
            {
               "long_name" : "64400",
               "short_name" : "64400",
               "types" : [ "postal_code" ]
            }
         ],
         "formatted_address" : "Durak, Fatih Cd. No:2, 64400 Uşak Merkez/Uşak, Turkey",
         "geometry" : {
            "location" : {
               "lat" : 38.6742664,
               "lng" : 29.4061434
            },
            "location_type" : "RANGE_INTERPOLATED",
            "viewport" : {
               "northeast" : {
                  "lat" : 38.6756153802915,
                  "lng" : 29.4074923802915
               },
               "southwest" : {
                  "lat" : 38.6729174197085,
                  "lng" : 29.4047944197085
               }
            }
         },
         "place_id" : "EjdEdXJhaywgRmF0aWggQ2QuIE5vOjIsIDY0NDAwIFXFn2FrIE1lcmtlei9VxZ9haywgVHVya2V5IhoSGAoUChIJeUt2tMR_yBQRkiuu-52KdJQQAg",
         "types" : [ "street_address" ]
      },
      {
         "address_components" : [
            {
               "long_name" : "MCF4+M9",
               "short_name" : "MCF4+M9",
               "types" : [ "plus_code" ]
            },
            {
               "long_name" : "Kuyucak",
               "short_name" : "Kuyucak",
               "types" : [ "administrative_area_level_3", "political" ]
            },
            {
               "long_name" : "Uşak Merkez",
               "short_name" : "Uşak Merkez",
               "types" : [ "administrative_area_level_2", "political" ]
            },
            {
               "long_name" : "Uşak",
               "short_name" : "Uşak",
               "types" : [ "administrative_area_level_1", "political" ]
            },
            {
               "long_name" : "Turkey",
               "short_name" : "TR",
               "types" : [ "country", "political" ]
            }
         ],
         "formatted_address" : "MCF4+M9 Kuyucak/Uşak Merkez/Uşak, Turkey",
         "geometry" : {
            "bounds" : {
               "northeast" : {
                  "lat" : 38.67425,
                  "lng" : 29.406
               },
               "southwest" : {
                  "lat" : 38.674125,
                  "lng" : 29.40587499999999
               }
            },
            "location" : {
               "lat" : 38.6742286,
               "lng" : 29.4058825
            },
            "location_type" : "GEOMETRIC_CENTER",
            "viewport" : {
               "northeast" : {
                  "lat" : 38.67553648029151,
                  "lng" : 29.40728648029149
               },
               "southwest" : {
                  "lat" : 38.67283851970851,
                  "lng" : 29.4045885197085
               }
            }
         },
         "place_id" : "GhIJkYNtH01WQ0ARy4Rf6udnPUA",
         "plus_code" : {
            "compound_code" : "MCF4+M9 Kuyucak/Uşak Merkez/Uşak, Turkey",
            "global_code" : "8GCFMCF4+M9"
         },
         "types" : [ "plus_code" ]
      },
      {
         "address_components" : [
            {
               "long_name" : "2",
               "short_name" : "2",
               "types" : [ "street_number" ]
            },
            {
               "long_name" : "Fatih Caddesi",
               "short_name" : "Fatih Cd.",
               "types" : [ "route" ]
            },
            {
               "long_name" : "Durak",
               "short_name" : "Durak",
               "types" : [ "administrative_area_level_4", "political" ]
            },
            {
               "long_name" : "Uşak Merkez",
               "short_name" : "Uşak Merkez",
               "types" : [ "administrative_area_level_2", "political" ]
            },
            {
               "long_name" : "Uşak",
               "short_name" : "Uşak",
               "types" : [ "administrative_area_level_1", "political" ]
            },
            {
               "long_name" : "Turkey",
               "short_name" : "TR",
               "types" : [ "country", "political" ]
            },
            {
               "long_name" : "64400",
               "short_name" : "64400",
               "types" : [ "postal_code" ]
            }
         ],
         "formatted_address" : "Durak, Fatih Cd. No:2, 64400 Uşak Merkez/Uşak, Turkey",
         "geometry" : {
            "bounds" : {
               "northeast" : {
                  "lat" : 38.6742753,
                  "lng" : 29.4061749
               },
               "southwest" : {
                  "lat" : 38.6742138,
                  "lng" : 29.405958
               }
            },
            "location" : {
               "lat" : 38.6742446,
               "lng" : 29.4060664
            },
            "location_type" : "GEOMETRIC_CENTER",
            "viewport" : {
               "northeast" : {
                  "lat" : 38.6755935302915,
                  "lng" : 29.4074154302915
               },
               "southwest" : {
                  "lat" : 38.6728955697085,
                  "lng" : 29.4047174697085
               }
            }
         },
         "place_id" : "ChIJeUt2tMR_yBQRkiuu-52KdJQ",
         "types" : [ "route" ]
      },
      {
         "address_components" : [
            {
               "long_name" : "Durak",
               "short_name" : "Durak",
               "types" : [ "administrative_area_level_4", "political" ]
            },
            {
               "long_name" : "Uşak Merkez",
               "short_name" : "Uşak Merkez",
               "types" : [ "administrative_area_level_2", "political" ]
            },
            {
               "long_name" : "Uşak",
               "short_name" : "Uşak",
               "types" : [ "administrative_area_level_1", "political" ]
            },
            {
               "long_name" : "Turkey",
               "short_name" : "TR",
               "types" : [ "country", "political" ]
            },
            {
               "long_name" : "64400",
               "short_name" : "64400",
               "types" : [ "postal_code" ]
            }
         ],
         "formatted_address" : "Durak, 64400 Uşak Merkez/Uşak, Turkey",
         "geometry" : {
            "bounds" : {
               "northeast" : {
                  "lat" : 38.67607,
                  "lng" : 29.42274889999999
               },
               "southwest" : {
                  "lat" : 38.670192,
                  "lng" : 29.405794
               }
            },
            "location" : {
               "lat" : 38.6724333,
               "lng" : 29.4135791
            },
            "location_type" : "APPROXIMATE",
            "viewport" : {
               "northeast" : {
                  "lat" : 38.67607,
                  "lng" : 29.42274889999999
               },
               "southwest" : {
                  "lat" : 38.670192,
                  "lng" : 29.405794
               }
            }
         },
         "place_id" : "ChIJF2HnDtl_yBQR6ENLwiqsoZ0",
         "types" : [ "administrative_area_level_4", "political" ]
      },
      {
         "address_components" : [
            {
               "long_name" : "64400",
               "short_name" : "64400",
               "types" : [ "postal_code" ]
            },
            {
               "long_name" : "Durak",
               "short_name" : "Durak",
               "types" : [ "administrative_area_level_4", "political" ]
            },
            {
               "long_name" : "Uşak Merkez",
               "short_name" : "Uşak Merkez",
               "types" : [ "administrative_area_level_2", "political" ]
            },
            {
               "long_name" : "Uşak",
               "short_name" : "Uşak",
               "types" : [ "administrative_area_level_1", "political" ]
            },
            {
               "long_name" : "Turkey",
               "short_name" : "TR",
               "types" : [ "country", "political" ]
            }
         ],
         "formatted_address" : "Durak, 64400 Uşak Merkez/Uşak, Turkey",
         "geometry" : {
            "bounds" : {
               "northeast" : {
                  "lat" : 38.67607,
                  "lng" : 29.42274889999999
               },
               "southwest" : {
                  "lat" : 38.670192,
                  "lng" : 29.405794
               }
            },
            "location" : {
               "lat" : 38.6724333,
               "lng" : 29.4135791
            },
            "location_type" : "APPROXIMATE",
            "viewport" : {
               "northeast" : {
                  "lat" : 38.67607,
                  "lng" : 29.42274889999999
               },
               "southwest" : {
                  "lat" : 38.670192,
                  "lng" : 29.405794
               }
            }
         },
         "place_id" : "ChIJm61TD9l_yBQRHe3EHBRELvc",
         "types" : [ "postal_code" ]
      },
      {
         "address_components" : [
            {
               "long_name" : "Uşak",
               "short_name" : "Uşak",
               "types" : [ "locality", "political" ]
            },
            {
               "long_name" : "Uşak Merkez",
               "short_name" : "Uşak Merkez",
               "types" : [ "administrative_area_level_2", "political" ]
            },
            {
               "long_name" : "Uşak",
               "short_name" : "Uşak",
               "types" : [ "administrative_area_level_1", "political" ]
            },
            {
               "long_name" : "Turkey",
               "short_name" : "TR",
               "types" : [ "country", "political" ]
            }
         ],
         "formatted_address" : "Uşak, Uşak Merkez/Uşak, Turkey",
         "geometry" : {
            "bounds" : {
               "northeast" : {
                  "lat" : 38.7050247,
                  "lng" : 29.456464
               },
               "southwest" : {
                  "lat" : 38.6333519,
                  "lng" : 29.355936
               }
            },
            "location" : {
               "lat" : 38.6742286,
               "lng" : 29.4058825
            },
            "location_type" : "APPROXIMATE",
            "viewport" : {
               "northeast" : {
                  "lat" : 38.7050247,
                  "lng" : 29.456464
               },
               "southwest" : {
                  "lat" : 38.6333519,
                  "lng" : 29.355936
               }
            }
         },
         "place_id" : "ChIJMYAOcNl_yBQRo7v5LbfF4ek",
         "types" : [ "locality", "political" ]
      },
      {
         "address_components" : [
            {
               "long_name" : "Uşak Merkez",
               "short_name" : "Uşak Merkez",
               "types" : [ "administrative_area_level_2", "political" ]
            },
            {
               "long_name" : "Uşak",
               "short_name" : "Uşak",
               "types" : [ "administrative_area_level_1", "political" ]
            },
            {
               "long_name" : "Turkey",
               "short_name" : "TR",
               "types" : [ "country", "political" ]
            }
         ],
         "formatted_address" : "Uşak Merkez/Uşak, Turkey",
         "geometry" : {
            "bounds" : {
               "northeast" : {
                  "lat" : 38.90553209999999,
                  "lng" : 29.632549
               },
               "southwest" : {
                  "lat" : 38.459606,
                  "lng" : 28.8256491
               }
            },
            "location" : {
               "lat" : 38.7226697,
               "lng" : 29.2785638
            },
            "location_type" : "APPROXIMATE",
            "viewport" : {
               "northeast" : {
                  "lat" : 38.90553209999999,
                  "lng" : 29.632549
               },
               "southwest" : {
                  "lat" : 38.459606,
                  "lng" : 28.8256491
               }
            }
         },
         "place_id" : "ChIJkUfBiR7YxxQR7WYlx7GhB9s",
         "types" : [ "administrative_area_level_2", "political" ]
      },
      {
         "address_components" : [
            {
               "long_name" : "Uşak",
               "short_name" : "Uşak",
               "types" : [ "administrative_area_level_1", "political" ]
            },
            {
               "long_name" : "Turkey",
               "short_name" : "TR",
               "types" : [ "country", "political" ]
            }
         ],
         "formatted_address" : "Uşak, Turkey",
         "geometry" : {
            "bounds" : {
               "northeast" : {
                  "lat" : 38.949193,
                  "lng" : 30.0238449
               },
               "southwest" : {
                  "lat" : 38.164054,
                  "lng" : 28.7479121
               }
            },
            "location" : {
               "lat" : 38.5431319,
               "lng" : 29.2320784
            },
            "location_type" : "APPROXIMATE",
            "viewport" : {
               "northeast" : {
                  "lat" : 38.949193,
                  "lng" : 30.0238449
               },
               "southwest" : {
                  "lat" : 38.164054,
                  "lng" : 28.7479121
               }
            }
         },
         "place_id" : "ChIJMZ2vjFDSxxQRnmCMoOW4Me4",
         "types" : [ "administrative_area_level_1", "political" ]
      },
      {
         "address_components" : [
            {
               "long_name" : "Turkey",
               "short_name" : "TR",
               "types" : [ "country", "political" ]
            }
         ],
         "formatted_address" : "Turkey",
         "geometry" : {
            "bounds" : {
               "northeast" : {
                  "lat" : 42.3666999,
                  "lng" : 44.8178449
               },
               "southwest" : {
                  "lat" : 35.808592,
                  "lng" : 25.5377
               }
            },
            "location" : {
               "lat" : 38.963745,
               "lng" : 35.243322
            },
            "location_type" : "APPROXIMATE",
            "viewport" : {
               "northeast" : {
                  "lat" : 42.3666999,
                  "lng" : 44.8178449
               },
               "southwest" : {
                  "lat" : 35.808592,
                  "lng" : 25.5377
               }
            }
         },
         "place_id" : "ChIJcSZPllwVsBQRKl9iKtTb2UA",
         "types" : [ "country", "political" ]
      }
   ],
   "status" : "OK"
}
