{
   "plus_code" : {
      "compound_code" : "54M9+37 Addigel, Chad",
      "global_code" : "7F4Q54M9+37"
   },
   "results" : [
      {
         "address_components" : [
            {
               "long_name" : "54M9+37",
               "short_name" : "54M9+37",
               "types" : [ "plus_code" ]
            },
            {
               "long_name" : "Addigel",
               "short_name" : "Addigel",
               "types" : [ "locality", "political" ]
            },
            {
               "long_name" : "Chari",
               "short_name" : "Chari",
               "types" : [ "administrative_area_level_2", "political" ]
            },
            {
               "long_name" : "Région du Chari-Baguirmi",
               "short_name" : "Région du Chari-Baguirmi",
               "types" : [ "administrative_area_level_1", "political" ]
            },
            {
               "long_name" : "Chad",
               "short_name" : "TD",
               "types" : [ "country", "political" ]
            }
         ],
         "formatted_address" : "54M9+37 Addigel, Chad",
         "geometry" : {
            "bounds" : {
               "northeast" : {
                  "lat" : 12.18275,
                  "lng" : 15.11825
               },
               "southwest" : {
                  "lat" : 12.182625,
                  "lng" : 15.118125
               }
            },
            "location" : {
               "lat" : 12.1826565,
               "lng" : 15.1182175
            },
            "location_type" : "ROOFTOP",
            "viewport" : {
               "northeast" : {
                  "lat" : 12.1840364802915,
                  "lng" : 15.1195364802915
               },
               "southwest" : {
                  "lat" : 12.1813385197085,
                  "lng" : 15.11683851970849
               }
            }
         },
         "place_id" : "GhIJvM0bJ4VdKEAROaEQAYc8LkA",
         "plus_code" : {
            "compound_code" : "54M9+37 Addigel, Chad",
            "global_code" : "7F4Q54M9+37"
         },
         "types" : [ "plus_code" ]
      },
      {
         "address_components" : [
            {
               "long_name" : "Chari",
               "short_name" : "Chari",
               "types" : [ "administrative_area_level_2", "political" ]
            },
            {
               "long_name" : "Chari-Baguirmi",
               "short_name" : "Chari-Baguirmi",
               "types" : [ "administrative_area_level_1", "political" ]
            },
            {
               "long_name" : "Chad",
               "short_name" : "TD",
               "types" : [ "country", "political" ]
            }
         ],
         "formatted_address" : "Chari, Chad",
         "geometry" : {
            "bounds" : {
               "northeast" : {
                  "lat" : 12.363,
                  "lng" : 15.504554
               },
               "southwest" : {
                  "lat" : 11.1308571,
                  "lng" : 15.0389739
               }
            },
            "location" : {
               "lat" : 11.7019405,
               "lng" : 15.2662931
            },
            "location_type" : "APPROXIMATE",
            "viewport" : {
               "northeast" : {
                  "lat" : 12.363,
                  "lng" : 15.504554
               },
               "southwest" : {
                  "lat" : 11.1308571,
                  "lng" : 15.0389739
               }
            }
         },
         "place_id" : "ChIJw2ld9M1SGRERtlH9vto_STg",
         "types" : [ "administrative_area_level_2", "political" ]
      },
      {
         "address_components" : [
            {
               "long_name" : "Chari-Baguirmi",
               "short_name" : "Chari-Baguirmi",
               "types" : [ "administrative_area_level_1", "political" ]
            },
            {
               "long_name" : "Chad",
               "short_name" : "TD",
               "types" : [ "country", "political" ]
            }
         ],
         "formatted_address" : "Chari-Baguirmi, Chad",
         "geometry" : {
            "bounds" : {
               "northeast" : {
                  "lat" : 12.363,
                  "lng" : 17.721533
               },
               "southwest" : {
                  "lat" : 9.673,
                  "lng" : 15.0389739
               }
            },
            "location" : {
               "lat" : 11.2564207,
               "lng" : 16.1580937
            },
            "location_type" : "APPROXIMATE",
            "viewport" : {
               "northeast" : {
                  "lat" : 12.363,
                  "lng" : 17.721533
               },
               "southwest" : {
                  "lat" : 9.673,
                  "lng" : 15.0389739
               }
            }
         },
         "place_id" : "ChIJw5nAffBhGRERoDNmgyjnDzw",
         "types" : [ "administrative_area_level_1", "political" ]
      },
      {
         "address_components" : [
            {
               "long_name" : "Chad",
               "short_name" : "TD",
               "types" : [ "country", "political" ]
            }
         ],
         "formatted_address" : "Chad",
         "geometry" : {
            "bounds" : {
               "northeast" : {
                  "lat" : 23.449228,
                  "lng" : 24.0000011
               },
               "southwest" : {
                  "lat" : 7.442975,
                  "lng" : 13.4699999
               }
            },
            "location" : {
               "lat" : 15.454166,
               "lng" : 18.732207
            },
            "location_type" : "APPROXIMATE",
            "viewport" : {
               "northeast" : {
                  "lat" : 23.449228,
                  "lng" : 24.0000011
               },
               "southwest" : {
                  "lat" : 7.442975,
                  "lng" : 13.4699999
               }
            }
         },
         "place_id" : "ChIJYXNnvXg55xARnIDAzluDYDs",
         "types" : [ "country", "political" ]
      }
   ],
   "status" : "OK"
}
