{
   "plus_code" : {
      "compound_code" : "XVPH+FV9 Altınordu/Ordu, Turkey",
      "global_code" : "8GGVXVPH+FV9"
   },
   "results" : [
      {
         "address_components" : [
            {
               "long_name" : "Ordu",
               "short_name" : "Ordu",
               "types" : [ "administrative_area_level_1", "political" ]
            },
            {
               "long_name" : "Düz",
               "short_name" : "Düz",
               "types" : [ "administrative_area_level_4", "political" ]
            },
            {
               "long_name" : "Altınordu",
               "short_name" : "Altınordu",
               "types" : [ "administrative_area_level_2", "political" ]
            },
            {
               "long_name" : "Turkey",
               "short_name" : "TR",
               "types" : [ "country", "political" ]
            },
            {
               "long_name" : "52100",
               "short_name" : "52100",
               "types" : [ "postal_code" ]
            }
         ],
         "formatted_address" : "YENİPAZAR MAH. ASFALT CAD. NO:50, Düz, 52100 Altınordu/Ordu, Turkey",
         "geometry" : {
            "location" : {
               "lat" : 40.9861701,
               "lng" : 37.8797372
            },
            "location_type" : "GEOMETRIC_CENTER",
            "viewport" : {
               "northeast" : {
                  "lat" : 40.98751908029149,
                  "lng" : 37.8810861802915
               },
               "southwest" : {
                  "lat" : 40.98482111970849,
                  "lng" : 37.8783882197085
               }
            }
         },
         "place_id" : "ChIJ0eDefDcgY0ARKeJPYb6PiVA",
         "plus_code" : {
            "compound_code" : "XVPH+FV Altınordu/Ordu, Turkey",
            "global_code" : "8GGVXVPH+FV"
         },
         "types" : [ "establishment", "gas_station", "point_of_interest" ]
      },
      {
         "address_components" : [
            {
               "long_name" : "20",
               "short_name" : "20",
               "types" : [ "street_number" ]
            },
            {
               "long_name" : "Kocakişi Caddesi",
               "short_name" : "Kocakişi Cd.",
               "types" : [ "route" ]
            },
            {
               "long_name" : "Şarkiye",
               "short_name" : "Şarkiye",
               "types" : [ "administrative_area_level_4", "political" ]
            },
            {
               "long_name" : "Ordu Merkez",
               "short_name" : "Ordu Merkez",
               "types" : [ "administrative_area_level_2", "political" ]
            },
            {
               "long_name" : "Ordu",
               "short_name" : "Ordu",
               "types" : [ "administrative_area_level_1", "political" ]
            },
            {
               "long_name" : "Turkey",
               "short_name" : "TR",
               "types" : [ "country", "political" ]
            },
            {
               "long_name" : "52100",
               "short_name" : "52100",
               "types" : [ "postal_code" ]
            }
         ],
         "formatted_address" : "Şarkiye, Kocakişi Cd. No:20, 52100 Ordu Merkez/Ordu, Turkey",
         "geometry" : {
            "location" : {
               "lat" : 40.9859808,
               "lng" : 37.879932
            },
            "location_type" : "ROOFTOP",
            "viewport" : {
               "northeast" : {
                  "lat" : 40.9873297802915,
                  "lng" : 37.88128098029149
               },
               "southwest" : {
                  "lat" : 40.9846318197085,
                  "lng" : 37.87858301970849
               }
            }
         },
         "place_id" : "ChIJQV-vezcgY0ARYF2Ab2u9pj4",
         "plus_code" : {
            "compound_code" : "XVPH+9X Altınordu/Ordu, Turkey",
            "global_code" : "8GGVXVPH+9X"
         },
         "types" : [ "street_address" ]
      },
      {
         "address_components" : [
            {
               "long_name" : "2",
               "short_name" : "2",
               "types" : [ "street_number" ]
            },
            {
               "long_name" : "Fatih Caddesi",
               "short_name" : "Fatih Cd.",
               "types" : [ "route" ]
            },
            {
               "long_name" : "Düz",
               "short_name" : "Düz",
               "types" : [ "administrative_area_level_4", "political" ]
            },
            {
               "long_name" : "Altınordu",
               "short_name" : "Altınordu",
               "types" : [ "administrative_area_level_2", "political" ]
            },
            {
               "long_name" : "Ordu",
               "short_name" : "Ordu",
               "types" : [ "administrative_area_level_1", "political" ]
            },
            {
               "long_name" : "Turkey",
               "short_name" : "TR",
               "types" : [ "country", "political" ]
            },
            {
               "long_name" : "52100",
               "short_name" : "52100",
               "types" : [ "postal_code" ]
            }
         ],
         "formatted_address" : "Düz, Fatih Cd. No:2, 52100 Altınordu/Ordu, Turkey",
         "geometry" : {
            "location" : {
               "lat" : 40.9858814,
               "lng" : 37.8794453
            },
            "location_type" : "RANGE_INTERPOLATED",
            "viewport" : {
               "northeast" : {
                  "lat" : 40.98723038029149,
                  "lng" : 37.8807942802915
               },
               "southwest" : {
                  "lat" : 40.9845324197085,
                  "lng" : 37.8780963197085
               }
            }
         },
         "place_id" : "EihEw7x6LCBGYXRpaCBDZC4gTm86MiwgNTIxMDAgT3JkdSwgVHVya2V5IhoSGAoUChIJtd4mfzcgY0ARHUzIsrmJMLMQAg",
         "types" : [ "street_address" ]
      },
      {
         "address_components" : [
            {
               "long_name" : "Atatürk Bulvarı",
               "short_name" : "E70",
               "types" : [ "route" ]
            },
            {
               "long_name" : "Düz",
               "short_name" : "Düz",
               "types" : [ "administrative_area_level_4", "political" ]
            },
            {
               "long_name" : "Altınordu",
               "short_name" : "Altınordu",
               "types" : [ "administrative_area_level_2", "political" ]
            },
            {
               "long_name" : "Ordu",
               "short_name" : "Ordu",
               "types" : [ "administrative_area_level_1", "political" ]
            },
            {
               "long_name" : "Turkey",
               "short_name" : "TR",
               "types" : [ "country", "political" ]
            },
            {
               "long_name" : "52100",
               "short_name" : "52100",
               "types" : [ "postal_code" ]
            }
         ],
         "formatted_address" : "Düz, E70, 52100 Altınordu/Ordu, Turkey",
         "geometry" : {
            "bounds" : {
               "northeast" : {
                  "lat" : 40.9863682,
                  "lng" : 37.8798006
               },
               "southwest" : {
                  "lat" : 40.9861011,
                  "lng" : 37.8792766
               }
            },
            "location" : {
               "lat" : 40.9862215,
               "lng" : 37.87952689999999
            },
            "location_type" : "GEOMETRIC_CENTER",
            "viewport" : {
               "northeast" : {
                  "lat" : 40.9875836302915,
                  "lng" : 37.88088758029149
               },
               "southwest" : {
                  "lat" : 40.9848856697085,
                  "lng" : 37.8781896197085
               }
            }
         },
         "place_id" : "ChIJ73pffTcgY0ARFNJBd8N5GkM",
         "types" : [ "route" ]
      },
      {
         "address_components" : [
            {
               "long_name" : "XVPH+FV",
               "short_name" : "XVPH+FV",
               "types" : [ "plus_code" ]
            },
            {
               "long_name" : "Altınordu",
               "short_name" : "Altınordu",
               "types" : [ "administrative_area_level_2", "political" ]
            },
            {
               "long_name" : "Ordu",
               "short_name" : "Ordu",
               "types" : [ "administrative_area_level_1", "political" ]
            },
            {
               "long_name" : "Turkey",
               "short_name" : "TR",
               "types" : [ "country", "political" ]
            }
         ],
         "formatted_address" : "XVPH+FV Altınordu/Ordu, Turkey",
         "geometry" : {
            "bounds" : {
               "northeast" : {
                  "lat" : 40.98625,
                  "lng" : 37.87975
               },
               "southwest" : {
                  "lat" : 40.986125,
                  "lng" : 37.879625
               }
            },
            "location" : {
               "lat" : 40.986166,
               "lng" : 37.8797209
            },
            "location_type" : "GEOMETRIC_CENTER",
            "viewport" : {
               "northeast" : {
                  "lat" : 40.9875364802915,
                  "lng" : 37.88103648029149
               },
               "southwest" : {
                  "lat" : 40.9848385197085,
                  "lng" : 37.8783385197085
               }
            }
         },
         "place_id" : "GhIJrDb_rzp-REARyI3HsZrwQkA",
         "plus_code" : {
            "compound_code" : "XVPH+FV Altınordu/Ordu, Turkey",
            "global_code" : "8GGVXVPH+FV"
         },
         "types" : [ "plus_code" ]
      },
      {
         "address_components" : [
            {
               "long_name" : "52100",
               "short_name" : "52100",
               "types" : [ "postal_code" ]
            },
            {
               "long_name" : "Şarkiye",
               "short_name" : "Şarkiye",
               "types" : [ "administrative_area_level_4", "political" ]
            },
            {
               "long_name" : "Altınordu",
               "short_name" : "Altınordu",
               "types" : [ "administrative_area_level_2", "political" ]
            },
            {
               "long_name" : "Ordu",
               "short_name" : "Ordu",
               "types" : [ "administrative_area_level_1", "political" ]
            },
            {
               "long_name" : "Turkey",
               "short_name" : "TR",
               "types" : [ "country", "political" ]
            }
         ],
         "formatted_address" : "Şarkiye, 52100 Altınordu/Ordu, Turkey",
         "geometry" : {
            "bounds" : {
               "northeast" : {
                  "lat" : 40.9868809,
                  "lng" : 37.886436
               },
               "southwest" : {
                  "lat" : 40.980993,
                  "lng" : 37.878394
               }
            },
            "location" : {
               "lat" : 40.9835046,
               "lng" : 37.8820455
            },
            "location_type" : "APPROXIMATE",
            "viewport" : {
               "northeast" : {
                  "lat" : 40.9868809,
                  "lng" : 37.886436
               },
               "southwest" : {
                  "lat" : 40.980993,
                  "lng" : 37.878394
               }
            }
         },
         "place_id" : "ChIJB6AoQzYgY0ARRxU4yf1KOvo",
         "types" : [ "postal_code" ]
      },
      {
         "address_components" : [
            {
               "long_name" : "Şarkiye",
               "short_name" : "Şarkiye",
               "types" : [ "administrative_area_level_4", "political" ]
            },
            {
               "long_name" : "Altınordu",
               "short_name" : "Altınordu",
               "types" : [ "administrative_area_level_2", "political" ]
            },
            {
               "long_name" : "Ordu",
               "short_name" : "Ordu",
               "types" : [ "administrative_area_level_1", "political" ]
            },
            {
               "long_name" : "Turkey",
               "short_name" : "TR",
               "types" : [ "country", "political" ]
            },
            {
               "long_name" : "52100",
               "short_name" : "52100",
               "types" : [ "postal_code" ]
            }
         ],
         "formatted_address" : "Şarkiye, 52100 Altınordu/Ordu, Turkey",
         "geometry" : {
            "bounds" : {
               "northeast" : {
                  "lat" : 40.9868681,
                  "lng" : 37.886436
               },
               "southwest" : {
                  "lat" : 40.980993,
                  "lng" : 37.878394
               }
            },
            "location" : {
               "lat" : 40.9835046,
               "lng" : 37.8820455
            },
            "location_type" : "APPROXIMATE",
            "viewport" : {
               "northeast" : {
                  "lat" : 40.9868681,
                  "lng" : 37.886436
               },
               "southwest" : {
                  "lat" : 40.980993,
                  "lng" : 37.878394
               }
            }
         },
         "place_id" : "ChIJfzAjQzYgY0ARHjoCq945Nm4",
         "types" : [ "administrative_area_level_4", "political" ]
      },
      {
         "address_components" : [
            {
               "long_name" : "Ordu",
               "short_name" : "Ordu",
               "types" : [ "locality", "political" ]
            },
            {
               "long_name" : "Altınordu",
               "short_name" : "Altınordu",
               "types" : [ "administrative_area_level_2", "political" ]
            },
            {
               "long_name" : "Ordu",
               "short_name" : "Ordu",
               "types" : [ "administrative_area_level_1", "political" ]
            },
            {
               "long_name" : "Turkey",
               "short_name" : "TR",
               "types" : [ "country", "political" ]
            }
         ],
         "formatted_address" : "Ordu, Altınordu/Ordu, Turkey",
         "geometry" : {
            "bounds" : {
               "northeast" : {
                  "lat" : 41.038519,
                  "lng" : 38.020617
               },
               "southwest" : {
                  "lat" : 40.9485411,
                  "lng" : 37.791735
               }
            },
            "location" : {
               "lat" : 40.986166,
               "lng" : 37.8797209
            },
            "location_type" : "APPROXIMATE",
            "viewport" : {
               "northeast" : {
                  "lat" : 41.038519,
                  "lng" : 38.020617
               },
               "southwest" : {
                  "lat" : 40.9485411,
                  "lng" : 37.791735
               }
            }
         },
         "place_id" : "ChIJ1VEQg-ghY0AR3Tzxtar7We8",
         "types" : [ "locality", "political" ]
      },
      {
         "address_components" : [
            {
               "long_name" : "Altınordu",
               "short_name" : "Altınordu",
               "types" : [ "administrative_area_level_2", "political" ]
            },
            {
               "long_name" : "Ordu",
               "short_name" : "Ordu",
               "types" : [ "administrative_area_level_1", "political" ]
            },
            {
               "long_name" : "Turkey",
               "short_name" : "TR",
               "types" : [ "country", "political" ]
            }
         ],
         "formatted_address" : "Altınordu/Ordu, Turkey",
         "geometry" : {
            "bounds" : {
               "northeast" : {
                  "lat" : 41.02034,
                  "lng" : 38.03471690000001
               },
               "southwest" : {
                  "lat" : 40.765448,
                  "lng" : 37.683805
               }
            },
            "location" : {
               "lat" : 40.9051165,
               "lng" : 37.8788651
            },
            "location_type" : "APPROXIMATE",
            "viewport" : {
               "northeast" : {
                  "lat" : 41.02034,
                  "lng" : 38.03471690000001
               },
               "southwest" : {
                  "lat" : 40.765448,
                  "lng" : 37.683805
               }
            }
         },
         "place_id" : "ChIJd-q8q8olY0ARcZL0Lp2Na6A",
         "types" : [ "administrative_area_level_2", "political" ]
      },
      {
         "address_components" : [
            {
               "long_name" : "Ordu",
               "short_name" : "Ordu",
               "types" : [ "administrative_area_level_1", "political" ]
            },
            {
               "long_name" : "Turkey",
               "short_name" : "TR",
               "types" : [ "country", "political" ]
            }
         ],
         "formatted_address" : "Ordu, Turkey",
         "geometry" : {
            "bounds" : {
               "northeast" : {
                  "lat" : 41.14806799999999,
                  "lng" : 38.1151209
               },
               "southwest" : {
                  "lat" : 40.330568,
                  "lng" : 36.68099
               }
            },
            "location" : {
               "lat" : 40.799058,
               "lng" : 37.3899005
            },
            "location_type" : "APPROXIMATE",
            "viewport" : {
               "northeast" : {
                  "lat" : 41.14806799999999,
                  "lng" : 38.1151209
               },
               "southwest" : {
                  "lat" : 40.330568,
                  "lng" : 36.68099
               }
            }
         },
         "place_id" : "ChIJU_Hbfb-7YkARKa90O2R5Br8",
         "types" : [ "administrative_area_level_1", "political" ]
      },
      {
         "address_components" : [
            {
               "long_name" : "Turkey",
               "short_name" : "TR",
               "types" : [ "country", "political" ]
            }
         ],
         "formatted_address" : "Turkey",
         "geometry" : {
            "bounds" : {
               "northeast" : {
                  "lat" : 42.3666999,
                  "lng" : 44.8178449
               },
               "southwest" : {
                  "lat" : 35.808592,
                  "lng" : 25.5377
               }
            },
            "location" : {
               "lat" : 38.963745,
               "lng" : 35.243322
            },
            "location_type" : "APPROXIMATE",
            "viewport" : {
               "northeast" : {
                  "lat" : 42.3666999,
                  "lng" : 44.8178449
               },
               "southwest" : {
                  "lat" : 35.808592,
                  "lng" : 25.5377
               }
            }
         },
         "place_id" : "ChIJcSZPllwVsBQRKl9iKtTb2UA",
         "types" : [ "country", "political" ]
      }
   ],
   "status" : "OK"
}
