{
   "plus_code" : {
      "compound_code" : "6M8F+3X Devalapura, Karnataka, India",
      "global_code" : "7J4R6M8F+3X"
   },
   "results" : [
      {
         "address_components" : [
            {
               "long_name" : "Unnamed Road",
               "short_name" : "Unnamed Road",
               "types" : [ "route" ]
            },
            {
               "long_name" : "Mysuru",
               "short_name" : "Mysuru",
               "types" : [ "administrative_area_level_2", "political" ]
            },
            {
               "long_name" : "Karnataka",
               "short_name" : "KA",
               "types" : [ "administrative_area_level_1", "political" ]
            },
            {
               "long_name" : "India",
               "short_name" : "IN",
               "types" : [ "country", "political" ]
            },
            {
               "long_name" : "571311",
               "short_name" : "571311",
               "types" : [ "postal_code" ]
            }
         ],
         "formatted_address" : "Unnamed Road, Karnataka 571311, India",
         "geometry" : {
            "bounds" : {
               "northeast" : {
                  "lat" : 12.215345,
                  "lng" : 76.67428439999999
               },
               "southwest" : {
                  "lat" : 12.2152622,
                  "lng" : 76.6739513
               }
            },
            "location" : {
               "lat" : 12.2153036,
               "lng" : 76.6741179
            },
            "location_type" : "GEOMETRIC_CENTER",
            "viewport" : {
               "northeast" : {
                  "lat" : 12.2166525802915,
                  "lng" : 76.6754668302915
               },
               "southwest" : {
                  "lat" : 12.2139546197085,
                  "lng" : 76.67276886970849
               }
            }
         },
         "place_id" : "ChIJr5Lb7DpvrzsRRr3H51Ea-f0",
         "types" : [ "route" ]
      },
      {
         "address_components" : [
            {
               "long_name" : "571311",
               "short_name" : "571311",
               "types" : [ "postal_code" ]
            },
            {
               "long_name" : "Mysuru",
               "short_name" : "Mysuru",
               "types" : [ "administrative_area_level_2", "political" ]
            },
            {
               "long_name" : "Karnataka",
               "short_name" : "KA",
               "types" : [ "administrative_area_level_1", "political" ]
            },
            {
               "long_name" : "India",
               "short_name" : "IN",
               "types" : [ "country", "political" ]
            }
         ],
         "formatted_address" : "Karnataka 571311, India",
         "geometry" : {
            "bounds" : {
               "northeast" : {
                  "lat" : 12.2667018,
                  "lng" : 76.7668992
               },
               "southwest" : {
                  "lat" : 12.1505011,
                  "lng" : 76.59990069999999
               }
            },
            "location" : {
               "lat" : 12.2150895,
               "lng" : 76.6990172
            },
            "location_type" : "APPROXIMATE",
            "viewport" : {
               "northeast" : {
                  "lat" : 12.2667018,
                  "lng" : 76.7668992
               },
               "southwest" : {
                  "lat" : 12.1505011,
                  "lng" : 76.59990069999999
               }
            }
         },
         "place_id" : "ChIJp4MX3ytvrzsR89S7aqNM-fY",
         "types" : [ "postal_code" ]
      },
      {
         "address_components" : [
            {
               "long_name" : "Mysuru",
               "short_name" : "Mysuru",
               "types" : [ "administrative_area_level_2", "political" ]
            },
            {
               "long_name" : "Karnataka",
               "short_name" : "KA",
               "types" : [ "administrative_area_level_1", "political" ]
            },
            {
               "long_name" : "India",
               "short_name" : "IN",
               "types" : [ "country", "political" ]
            }
         ],
         "formatted_address" : "Mysuru, Karnataka, India",
         "geometry" : {
            "bounds" : {
               "northeast" : {
                  "lat" : 12.6549399,
                  "lng" : 77.1343799
               },
               "southwest" : {
                  "lat" : 11.73662,
                  "lng" : 75.90937009999999
               }
            },
            "location" : {
               "lat" : 12.1873152,
               "lng" : 76.36372849999999
            },
            "location_type" : "APPROXIMATE",
            "viewport" : {
               "northeast" : {
                  "lat" : 12.6549399,
                  "lng" : 77.1343799
               },
               "southwest" : {
                  "lat" : 11.73662,
                  "lng" : 75.90937009999999
               }
            }
         },
         "place_id" : "ChIJ5XOPmBBwrzsRCe4TG2b7kns",
         "types" : [ "administrative_area_level_2", "political" ]
      },
      {
         "address_components" : [
            {
               "long_name" : "Karnataka",
               "short_name" : "KA",
               "types" : [ "administrative_area_level_1", "political" ]
            },
            {
               "long_name" : "India",
               "short_name" : "IN",
               "types" : [ "country", "political" ]
            }
         ],
         "formatted_address" : "Karnataka, India",
         "geometry" : {
            "bounds" : {
               "northeast" : {
                  "lat" : 18.4411689,
                  "lng" : 78.5860101
               },
               "southwest" : {
                  "lat" : 11.593352,
                  "lng" : 74.04960609999999
               }
            },
            "location" : {
               "lat" : 15.3172775,
               "lng" : 75.7138884
            },
            "location_type" : "APPROXIMATE",
            "viewport" : {
               "northeast" : {
                  "lat" : 18.4411689,
                  "lng" : 78.5860101
               },
               "southwest" : {
                  "lat" : 11.593352,
                  "lng" : 74.04960609999999
               }
            }
         },
         "place_id" : "ChIJj0i_N0xaozsR1Xx10YzS8UE",
         "types" : [ "administrative_area_level_1", "political" ]
      },
      {
         "address_components" : [
            {
               "long_name" : "India",
               "short_name" : "IN",
               "types" : [ "country", "political" ]
            }
         ],
         "formatted_address" : "India",
         "geometry" : {
            "bounds" : {
               "northeast" : {
                  "lat" : 35.513327,
                  "lng" : 97.39535869999999
               },
               "southwest" : {
                  "lat" : 6.4626999,
                  "lng" : 68.1097
               }
            },
            "location" : {
               "lat" : 20.593684,
               "lng" : 78.96288
            },
            "location_type" : "APPROXIMATE",
            "viewport" : {
               "northeast" : {
                  "lat" : 35.513327,
                  "lng" : 97.39535869999999
               },
               "southwest" : {
                  "lat" : 6.4626999,
                  "lng" : 68.1097
               }
            }
         },
         "place_id" : "ChIJkbeSa_BfYzARphNChaFPjNc",
         "types" : [ "country", "political" ]
      },
      {
         "address_components" : [
            {
               "long_name" : "6M8F+3X",
               "short_name" : "6M8F+3X",
               "types" : [ "plus_code" ]
            },
            {
               "long_name" : "Devalapura",
               "short_name" : "Devalapura",
               "types" : [ "locality", "political" ]
            },
            {
               "long_name" : "Mysuru",
               "short_name" : "Mysuru",
               "types" : [ "administrative_area_level_2", "political" ]
            },
            {
               "long_name" : "Karnataka",
               "short_name" : "KA",
               "types" : [ "administrative_area_level_1", "political" ]
            },
            {
               "long_name" : "India",
               "short_name" : "IN",
               "types" : [ "country", "political" ]
            },
            {
               "long_name" : "571311",
               "short_name" : "571311",
               "types" : [ "postal_code" ]
            }
         ],
         "formatted_address" : "6M8F+3X Devalapura, Karnataka, India",
         "geometry" : {
            "bounds" : {
               "northeast" : {
                  "lat" : 12.21525,
                  "lng" : 76.675
               },
               "southwest" : {
                  "lat" : 12.215125,
                  "lng" : 76.674875
               }
            },
            "location" : {
               "lat" : 12.2152068,
               "lng" : 76.6749573
            },
            "location_type" : "ROOFTOP",
            "viewport" : {
               "northeast" : {
                  "lat" : 12.2165364802915,
                  "lng" : 76.67628648029151
               },
               "southwest" : {
                  "lat" : 12.2138385197085,
                  "lng" : 76.6735885197085
               }
            }
         },
         "place_id" : "GhIJ7cDvlS9uKEARk2wagDIrU0A",
         "plus_code" : {
            "compound_code" : "6M8F+3X Devalapura, Karnataka, India",
            "global_code" : "7J4R6M8F+3X"
         },
         "types" : [ "plus_code" ]
      }
   ],
   "status" : "OK"
}
